countyName,latitude,longitude,temperature,temperature_unit,relativeHumidity,precipitationProbability,visibility,visibility_unit,hazard_phenomenon,hazard_significance,alert_event,alert_severity,alert_urgency,alert_expires
Foard,33.97408519,-99.77871109,28.88888888888889,wmoUnit:degC,63,10,,,SV,A,,,,
Blanco,30.26636128,-98.39974086,30.0,wmoUnit:degC,67,10,16093.44,wmoUnit:m,,,,,,
Hockley,33.60750375,-102.3430919,23.88888888888889,wmoUnit:degC,46,3,16077.34619165045,wmoUnit:m,,,,,,
Llano,30.70566579,-98.68387398,32.22222222222222,wmoUnit:degC,57,20,16093.44,wmoUnit:m,,,,,,
Swisher,34.53064989,-101.734951,17.77777777777778,wmoUnit:degC,73,4,16045.160109741197,wmoUnit:m,,,,,,
Titus,33.2160906,-94.96509786,29.444444444444443,wmoUnit:degC,63,19,16093.44,wmoUnit:m,,,,,,
Navarro,32.04695429,-96.47248134,30.555555555555557,wmoUnit:degC,63,15,16093.44,wmoUnit:m,SV,A,,,,
Brazoria,29.19345387,-95.45578479,28.88888888888889,wmoUnit:degC,77,4,16093.44,wmoUnit:m,,,,,,
Hidalgo,26.396627,-98.18088681,31.666666666666668,wmoUnit:degC,66,0,,,,,,,,
Archer,33.61539176,-98.68783437,28.333333333333332,wmoUnit:degC,72,52,,,FA,A,,,,
Refugio,28.32681413,-97.16546961,29.444444444444443,wmoUnit:degC,75,0,15707.197808349552,wmoUnit:m,,,,,,
Andrews,32.30506283,-102.6378839,32.22222222222222,wmoUnit:degC,22,2,16093.44,wmoUnit:m,,,,,,
Galveston,29.39424415,-94.96474975,30.0,wmoUnit:degC,72,2,16045.160109741197,wmoUnit:m,,,,,,
De Witt,29.08201599,-97.35666976,30.0,wmoUnit:degC,74,2,16093.44,wmoUnit:m,,,,,,
Gonzales,29.45641495,-97.49279927,31.11111111111111,wmoUnit:degC,67,5,16093.44,wmoUnit:m,,,,,,
Wharton,29.2778362,-96.22197375,31.11111111111111,wmoUnit:degC,66,3,16093.44,wmoUnit:m,,,,,,
Fannin,33.59396919,-96.10656755,29.444444444444443,wmoUnit:degC,63,23,16093.44,wmoUnit:m,,,,,,
Madison,30.96564645,-95.92818441,30.0,wmoUnit:degC,68,9,15948.59879443358,wmoUnit:m,,,,,,
Moore,35.83768863,-101.8929556,17.77777777777778,wmoUnit:degC,54,4,,,,,,,,
Tyler,30.7712607,-94.37651432,24.444444444444443,wmoUnit:degC,90,0,15980.786411132844,wmoUnit:m,,,,,,
Lipscomb,36.27778432,-100.27317,12.222222222222221,wmoUnit:degC,90,1,,,,,,,,
Burleson,30.49246139,-96.62109399,30.0,wmoUnit:degC,65,7,16093.44,wmoUnit:m,,,,,,
Jim Hogg,27.04340499,-98.6972921,31.11111111111111,wmoUnit:degC,70,0,,,,,,,,
Throckmorton,33.17753907,-99.21236832,27.77777777777778,wmoUnit:degC,74,54,9656.064,wmoUnit:m,,,,,,
Kleberg,27.43274395,-97.72889778,30.555555555555557,wmoUnit:degC,75,0,16012.972493041932,wmoUnit:m,,,,,,
Shelby,31.79242191,-94.14495261,30.0,wmoUnit:degC,55,3,16093.44,wmoUnit:m,,,,,,
Garza,33.17991074,-101.2984496,28.333333333333332,wmoUnit:degC,40,6,15996.878684692381,wmoUnit:m,,,,,,
Karnes,28.90493782,-97.85960621,31.666666666666668,wmoUnit:degC,59,2,16093.44,wmoUnit:m,,,,,,
Reeves,31.32307061,-103.693143,35.0,wmoUnit:degC,18,2,16093.44,wmoUnit:m,,,,,,
Houston,31.31764137,-95.42225367,28.88888888888889,wmoUnit:degC,70,15,16093.44,wmoUnit:m,,,Flood Warning,Severe,Immediate,2025-06-04T12:00:00-05:00
El Paso,31.7686226,-106.2352229,32.77777777777778,wmoUnit:degC,18,0,16093.44,wmoUnit:m,,,,,,
Carson,35.40346802,-101.3542037,13.88888888888889,wmoUnit:degC,77,1,,,,,,,,
Medina,29.35520493,-99.11008331,31.666666666666668,wmoUnit:degC,60,9,16093.44,wmoUnit:m,,,,,,
Wichita,33.98421585,-98.70153389,28.333333333333332,wmoUnit:degC,67,53,,,FA,A,,,,
Chambers,29.73912276,-94.60891308,29.444444444444443,wmoUnit:degC,67,2,16093.44,wmoUnit:m,,,Flood Warning,Severe,Expected,2025-06-04T15:00:00-05:00
Donley,34.96540246,-100.8140501,16.666666666666668,wmoUnit:degC,70,1,,,,,,,,
Hopkins,33.14933822,-95.56414173,31.666666666666668,wmoUnit:degC,47,9,16093.44,wmoUnit:m,SV,A,,,,
Lampasas,31.19627791,-98.24142711,30.555555555555557,wmoUnit:degC,65,16,16093.44,wmoUnit:m,SV,A,Severe Thunderstorm Watch,Severe,Future,2025-06-04T04:00:00-05:00
Falls,31.25317017,-96.93579511,30.0,wmoUnit:degC,68,8,16093.44,wmoUnit:m,SV,A,Severe Thunderstorm Watch,Severe,Future,2025-06-04T04:00:00-05:00
Stephens,32.73584155,-98.83612016,31.666666666666668,wmoUnit:degC,54,52,16093.44,wmoUnit:m,,,,,,
Travis,30.33423319,-97.78194654,32.77777777777778,wmoUnit:degC,62,24,16093.44,wmoUnit:m,,,,,,
Roberts,35.8385577,-100.8135689,12.222222222222221,wmoUnit:degC,86,1,,,,,,,,
Crosby,33.61459873,-101.2998612,23.88888888888889,wmoUnit:degC,50,5,15964.69260278313,wmoUnit:m,,,,,,
Kerr,30.06153035,-99.35016969,30.0,wmoUnit:degC,69,3,16093.44,wmoUnit:m,,,,,,
Wood,32.78634374,-95.38206498,28.88888888888889,wmoUnit:degC,67,20,16093.44,wmoUnit:m,,,,,,
Jack,33.23345819,-98.1725509,30.555555555555557,wmoUnit:degC,55,63,9656.064,wmoUnit:m,,,,,,
Marion,32.79797929,-94.35725239,30.0,wmoUnit:degC,59,3,16093.44,wmoUnit:m,,,,,,
Hale,34.07051782,-101.8269082,20.555555555555557,wmoUnit:degC,61,4,16093.44,wmoUnit:m,,,,,,
Jeff Davis,30.71559322,-104.1403539,26.11111111111111,wmoUnit:degC,28,1,16093.44,wmoUnit:m,,,,,,
Tarrant,32.77185236,-97.29116473,31.666666666666668,wmoUnit:degC,56,29,16093.44,wmoUnit:m,,,,,,
Waller,30.01093722,-95.98768942,29.444444444444443,wmoUnit:degC,70,5,16093.44,wmoUnit:m,,,,,,
Reagan,31.36617698,-101.5230108,33.333333333333336,wmoUnit:degC,26,8,15642.824109741197,wmoUnit:m,,,,,,
Smith,32.37514553,-95.26909511,29.444444444444443,wmoUnit:degC,63,18,16093.44,wmoUnit:m,,,,,,
Van Zandt,32.56368961,-95.8364862,29.444444444444443,wmoUnit:degC,61,10,16093.44,wmoUnit:m,SV,A,,,,
Cooke,33.638465,-97.21247642,29.444444444444443,wmoUnit:degC,67,50,16093.44,wmoUnit:m,,,,,,
Zavala,28.86530621,-99.76102001,32.77777777777778,wmoUnit:degC,62,5,16093.44,wmoUnit:m,,,,,,
Hall,34.53074134,-100.6809876,20.555555555555557,wmoUnit:degC,63,5,11426.342246521048,wmoUnit:m,,,,,,
Kendall,29.9446397,-98.71160511,30.555555555555557,wmoUnit:degC,71,3,16093.44,wmoUnit:m,,,,,,
Goliad,28.65708563,-97.42646082,30.0,wmoUnit:degC,68,1,16012.972493041932,wmoUnit:m,,,,,,
Yoakum,33.17293501,-102.8278792,27.22222222222222,wmoUnit:degC,38,3,16077.34619165045,wmoUnit:m,,,,,,
Knox,33.60614755,-99.74144313,28.88888888888889,wmoUnit:degC,63,15,,,SV,A,,,,
McLennan,31.55234489,-97.20184883,30.555555555555557,wmoUnit:degC,63,11,16093.44,wmoUnit:m,SV,A,Severe Thunderstorm Watch,Severe,Future,2025-06-04T04:00:00-05:00
Brewster,29.81205836,-103.2518906,35.55555555555556,wmoUnit:degC,13,2,16093.44,wmoUnit:m,,,,,,
Panola,32.16222886,-94.30552858,30.0,wmoUnit:degC,57,4,16093.44,wmoUnit:m,,,,,,
Bandera,29.74724753,-99.24637282,29.444444444444443,wmoUnit:degC,67,4,16093.44,wmoUnit:m,,,,,,
Parmer,34.53014507,-102.784594,19.444444444444443,wmoUnit:degC,63,8,16077.34619165045,wmoUnit:m,,,,,,
Rockwall,32.89786769,-96.40780584,29.444444444444443,wmoUnit:degC,65,23,16093.44,wmoUnit:m,SV,A,,,,
Trinity,31.0885069,-95.13551682,28.88888888888889,wmoUnit:degC,65,7,16061.252383300736,wmoUnit:m,,,Flood Warning,Severe,Immediate,2025-06-04T12:00:00-05:00
Bosque,31.90050476,-97.63437613,30.555555555555557,wmoUnit:degC,61,20,16093.44,wmoUnit:m,SV,A,,,,
Coke,31.88849293,-100.5298747,33.888888888888886,wmoUnit:degC,37,17,16093.44,wmoUnit:m,,,,,,
Franklin,33.17550691,-95.21841437,29.444444444444443,wmoUnit:degC,63,21,16093.44,wmoUnit:m,,,,,,
Hill,31.99079033,-97.1324142,30.555555555555557,wmoUnit:degC,63,19,16093.44,wmoUnit:m,SV,A,,,,
Calhoun,28.48966896,-96.64708119,30.0,wmoUnit:degC,72,2,15932.504986084026,wmoUnit:m,,,,,,
Irion,31.30393203,-100.9824126,32.22222222222222,wmoUnit:degC,45,11,16093.44,wmoUnit:m,,,,,,
Midland,31.86921148,-102.0315032,34.44444444444444,wmoUnit:degC,21,4,15723.291616699264,wmoUnit:m,,,,,,
Brown,31.77432313,-98.99989649,31.666666666666668,wmoUnit:degC,59,40,9656.064,wmoUnit:m,SV,A,Flood Advisory,Minor,Expected,2025-06-04T03:30:00-05:00
Wilson,29.17315896,-98.08621015,31.11111111111111,wmoUnit:degC,66,5,16093.44,wmoUnit:m,,,,,,
Oldham,35.40497586,-102.6029949,20.555555555555557,wmoUnit:degC,53,3,,,,,,,,
Freestone,31.70486443,-96.14918535,30.0,wmoUnit:degC,63,8,16093.44,wmoUnit:m,,,,,,
Sabine,31.34321941,-93.85170439,30.0,wmoUnit:degC,63,1,16093.44,wmoUnit:m,,,,,,
Deaf Smith,34.96602014,-102.6048162,19.444444444444443,wmoUnit:degC,61,3,,,,,,,,
Angelina,31.25475875,-94.611742,30.555555555555557,wmoUnit:degC,61,4,16093.44,wmoUnit:m,,,Flood Warning,Severe,Immediate,2025-06-04T12:00:00-05:00
Kent,33.18284492,-100.7791031,27.77777777777778,wmoUnit:degC,46,10,15916.412712524489,wmoUnit:m,,,,,,
Red River,33.62074539,-95.0501886,30.0,wmoUnit:degC,61,25,16093.44,wmoUnit:m,,,,,,
Kinney,29.35000302,-100.4178441,31.11111111111111,wmoUnit:degC,62,2,16093.44,wmoUnit:m,,,,,,
Denton,33.205574,-97.11681154,31.666666666666668,wmoUnit:degC,59,35,16093.44,wmoUnit:m,,,Flash Flood Warning,Severe,Immediate,2025-06-04T03:00:00-05:00
Sutton,30.49747152,-100.5382263,30.0,wmoUnit:degC,59,9,16093.44,wmoUnit:m,,,,,,
Guadalupe,29.58257236,-97.94850308,31.11111111111111,wmoUnit:degC,66,7,16093.44,wmoUnit:m,,,,,,
Winkler,31.85008609,-103.0484794,33.888888888888886,wmoUnit:degC,18,2,16093.44,wmoUnit:m,,,,,,
Dimmit,28.42161168,-99.760574,34.44444444444444,wmoUnit:degC,52,4,16093.44,wmoUnit:m,,,,,,
Wise,33.21585061,-97.65444124,30.555555555555557,wmoUnit:degC,53,53,16093.44,wmoUnit:m,,,,,,
Hemphill,35.83750155,-100.2704628,12.777777777777779,wmoUnit:degC,86,1,,,,,,,,
Potter,35.40128927,-101.8940484,18.333333333333332,wmoUnit:degC,58,2,,,,,,,,
Childress,34.52929257,-100.2075664,22.22222222222222,wmoUnit:degC,61,7,11265.408,wmoUnit:m,,,,,,
Willacy,26.47132899,-97.64303323,28.88888888888889,wmoUnit:degC,84,0,,,,,,,,
Bastrop,30.10353518,-97.31187705,31.11111111111111,wmoUnit:degC,64,12,16093.44,wmoUnit:m,,,,,,
Kimble,30.48676251,-99.74892716,30.555555555555557,wmoUnit:degC,61,18,16093.44,wmoUnit:m,,,,,,
Scurry,32.74720063,-100.9165071,33.333333333333336,wmoUnit:degC,26,11,16093.44,wmoUnit:m,,,,,,
Ochiltree,36.27846334,-100.815653,11.666666666666666,wmoUnit:degC,86,1,,,,,,,,
Hansford,36.27753179,-101.3545624,13.88888888888889,wmoUnit:degC,69,2,,,,,,,,
Hartley,35.83996755,-102.6028835,20.0,wmoUnit:degC,51,3,,,,,,,,
Cameron,26.13847728,-97.51499968,30.0,wmoUnit:degC,78,0,,,,,,,,
Matagorda,28.86711039,-95.98533866,29.444444444444443,wmoUnit:degC,77,3,15948.59879443358,wmoUnit:m,,,,,,
Burnet,30.78843382,-98.18252382,30.555555555555557,wmoUnit:degC,61,27,16093.44,wmoUnit:m,,,,,,
Rains,32.87004212,-95.79347545,30.555555555555557,wmoUnit:degC,55,12,16093.44,wmoUnit:m,SV,A,,,,
Hays,30.05782657,-98.03104087,30.555555555555557,wmoUnit:degC,70,17,16093.44,wmoUnit:m,,,,,,
Mason,30.71742293,-99.2263026,31.11111111111111,wmoUnit:degC,59,28,16093.44,wmoUnit:m,,,Special Weather Statement,Moderate,Expected,2025-06-04T03:00:00-05:00
Ward,31.509424,-103.1024636,35.55555555555556,wmoUnit:degC,18,3,16093.44,wmoUnit:m,,,,,,
Delta,33.38623601,-95.67221685,30.555555555555557,wmoUnit:degC,53,12,16093.44,wmoUnit:m,SV,A,,,,
Nueces,27.72621549,-97.61767326,30.555555555555557,wmoUnit:degC,72,0,16093.44,wmoUnit:m,,,,,,
Callahan,32.2977738,-99.37359692,31.11111111111111,wmoUnit:degC,54,37,9656.064,wmoUnit:m,SV,A,,,,
Bell,31.03778267,-97.47790776,31.666666666666668,wmoUnit:degC,61,6,16093.44,wmoUnit:m,SV,A,Severe Thunderstorm Watch,Severe,Future,2025-06-04T04:00:00-05:00
Cherokee,31.83695632,-95.16515234,30.0,wmoUnit:degC,61,13,16093.44,wmoUnit:m,,,Flood Warning,Severe,Immediate,2025-06-04T12:00:00-05:00
Ellis,32.34839264,-96.79467417,31.11111111111111,wmoUnit:degC,63,22,16093.44,wmoUnit:m,SV,A,,,,
Lubbock,33.6101944,-101.8205745,24.444444444444443,wmoUnit:degC,45,3,16093.44,wmoUnit:m,,,,,,
Terrell,30.22502597,-102.0764533,33.888888888888886,wmoUnit:degC,38,5,16093.44,wmoUnit:m,,,,,,
Crockett,30.72291931,-101.4118364,32.22222222222222,wmoUnit:degC,47,5,16093.44,wmoUnit:m,,,,,,
Atascosa,28.89418432,-98.52741302,32.22222222222222,wmoUnit:degC,57,5,16093.44,wmoUnit:m,,,,,,
Ector,31.86908156,-102.5430907,34.44444444444444,wmoUnit:degC,18,2,16077.34619165045,wmoUnit:m,,,,,,
Brazos,30.6610425,-96.3022943,27.22222222222222,wmoUnit:degC,85,6,16093.44,wmoUnit:m,,,,,,
Aransas,28.12709562,-96.99258951,28.88888888888889,wmoUnit:degC,82,0,15562.35660278313,wmoUnit:m,,,,,,
Dallas,32.76653746,-96.77781862,31.11111111111111,wmoUnit:degC,61,27,16093.44,wmoUnit:m,,,Flash Flood Warning,Severe,Immediate,2025-06-04T03:00:00-05:00
Howard,32.30610232,-101.4355097,34.44444444444444,wmoUnit:degC,21,9,11345.875506958067,wmoUnit:m,,,,,,
Motley,34.07409017,-100.7798961,22.22222222222222,wmoUnit:degC,59,6,12037.893150695823,wmoUnit:m,,,,,,
San Augustine,31.39427005,-94.16809762,30.555555555555557,wmoUnit:degC,59,2,16093.44,wmoUnit:m,,,,,,
Maverick,28.74260943,-100.3144638,33.888888888888886,wmoUnit:degC,57,6,16093.44,wmoUnit:m,,,,,,
Erath,32.23640361,-98.21722756,30.555555555555557,wmoUnit:degC,52,31,16093.44,wmoUnit:m,,,,,,
Dickens,33.61663428,-100.7788138,24.444444444444443,wmoUnit:degC,52,8,15723.291616699264,wmoUnit:m,,,,,,
Caldwell,29.83677935,-97.61983479,31.666666666666668,wmoUnit:degC,66,11,16093.44,wmoUnit:m,,,,,,
Dawson,32.74258137,-101.9476136,30.555555555555557,wmoUnit:degC,35,4,16077.34619165045,wmoUnit:m,,,,,,
Camp,32.97321771,-94.97860185,29.444444444444443,wmoUnit:degC,61,15,16093.44,wmoUnit:m,,,,,,
Duval,27.68133382,-98.50889672,31.666666666666668,wmoUnit:degC,64,2,16029.066301391646,wmoUnit:m,,,,,,
Hunt,33.123531,-96.08550014,30.0,wmoUnit:degC,63,19,16093.44,wmoUnit:m,SV,A,,,,
Mills,31.49524259,-98.59552736,31.11111111111111,wmoUnit:degC,59,29,16093.44,wmoUnit:m,SV,A,,,,
Val Verde,29.89300587,-101.15171,31.666666666666668,wmoUnit:degC,55,3,16093.44,wmoUnit:m,,,,,,
Pecos,30.78100044,-102.7235743,34.44444444444444,wmoUnit:degC,21,4,16093.44,wmoUnit:m,,,,,,
Baylor,33.61648147,-99.21351964,28.333333333333332,wmoUnit:degC,67,50,,,SV,A,,,,
Gregg,32.48036452,-94.81723694,31.11111111111111,wmoUnit:degC,54,14,16093.44,wmoUnit:m,,,,,,
Cochran,33.60410808,-102.8285264,24.444444444444443,wmoUnit:degC,42,4,16061.252383300736,wmoUnit:m,,,,,,
Jasper,30.74391255,-94.02495849,25.0,wmoUnit:degC,90,0,16093.44,wmoUnit:m,,,,,,
Hamilton,31.70479181,-98.11066654,31.11111111111111,wmoUnit:degC,61,22,16093.44,wmoUnit:m,SV,A,,,,
Castro,34.53000304,-102.2617608,17.77777777777778,wmoUnit:degC,73,5,16061.252383300736,wmoUnit:m,,,,,,
Sterling,31.82786516,-101.0500699,35.0,wmoUnit:degC,24,13,16093.44,wmoUnit:m,,,,,,
Starr,26.56212627,-98.73834895,32.22222222222222,wmoUnit:degC,61,0,,,,,,,,
Crane,31.42846287,-102.5156425,35.55555555555556,wmoUnit:degC,19,6,15916.412712524489,wmoUnit:m,,,,,,
Morris,33.11368507,-94.73205137,29.444444444444443,wmoUnit:degC,63,17,16093.44,wmoUnit:m,,,,,,
Briscoe,34.53041048,-101.2085769,17.22222222222222,wmoUnit:degC,75,4,15176.114411132843,wmoUnit:m,,,,,,
Tom Green,31.4044442,-100.4620678,31.11111111111111,wmoUnit:degC,61,18,16093.44,wmoUnit:m,,,,,,
Menard,30.88981785,-99.82061472,31.666666666666668,wmoUnit:degC,54,21,16093.44,wmoUnit:m,,,,,,
Parker,32.77852261,-97.80472194,30.0,wmoUnit:degC,59,44,16093.44,wmoUnit:m,,,,,,
Walker,30.73899492,-95.57224172,29.444444444444443,wmoUnit:degC,63,6,16093.44,wmoUnit:m,,,Flood Warning,Severe,Immediate,2025-06-04T15:00:00-05:00
Brooks,27.0315669,-98.21874127,30.555555555555557,wmoUnit:degC,78,0,,,,,,,,
La Salle,28.34621032,-99.1034773,34.44444444444444,wmoUnit:degC,54,3,15304.861808349551,wmoUnit:m,,,,,,
Edwards,29.98248216,-100.3048937,28.333333333333332,wmoUnit:degC,70,2,16093.44,wmoUnit:m,,,,,,
Lee,30.31065065,-96.96568735,30.555555555555557,wmoUnit:degC,69,14,16093.44,wmoUnit:m,,,,,,
Robertson,31.02705415,-96.51272568,30.555555555555557,wmoUnit:degC,63,6,16093.44,wmoUnit:m,,,Flood Warning,Severe,Immediate,2025-06-04T19:30:00-05:00
Young,33.17670764,-98.68781396,31.666666666666668,wmoUnit:degC,57,62,9656.064,wmoUnit:m,,,,,,
Bee,28.41736675,-97.74116811,30.555555555555557,wmoUnit:degC,63,1,15964.69260278313,wmoUnit:m,,,,,,
Clay,33.78379717,-98.208958,28.333333333333332,wmoUnit:degC,72,20,,,FA,A,,,,
San Jacinto,30.57948905,-95.16683273,28.333333333333332,wmoUnit:degC,72,4,16093.44,wmoUnit:m,,,Flood Warning,Severe,Immediate,2025-06-04T15:00:00-05:00
Uvalde,29.35669829,-99.76203107,31.11111111111111,wmoUnit:degC,64,6,16093.44,wmoUnit:m,,,,,,
Haskell,33.17824805,-99.73029401,28.88888888888889,wmoUnit:degC,61,30,16093.44,wmoUnit:m,,,,,,
Somervell,32.22229511,-97.77456553,30.555555555555557,wmoUnit:degC,57,27,16093.44,wmoUnit:m,,,,,,
Bexar,29.44884523,-98.51966309,31.666666666666668,wmoUnit:degC,65,6,16093.44,wmoUnit:m,,,,,,
Grayson,33.62684371,-96.67764864,30.555555555555557,wmoUnit:degC,61,33,16093.44,wmoUnit:m,,,,,,
Bailey,34.0684915,-102.8299069,22.22222222222222,wmoUnit:degC,49,6,16077.34619165045,wmoUnit:m,,,,,,
Jones,32.73970429,-99.87850599,33.333333333333336,wmoUnit:degC,31,31,16093.44,wmoUnit:m,,,,,,
Jefferson,29.88425832,-94.1708778,27.77777777777778,wmoUnit:degC,74,4,16077.34619165045,wmoUnit:m,,,,,,
Rusk,32.10803224,-94.76169577,30.555555555555557,wmoUnit:degC,57,12,16093.44,wmoUnit:m,,,,,,
Glasscock,31.8694238,-101.520742,33.888888888888886,wmoUnit:degC,24,7,12601.16339721687,wmoUnit:m,,,,,,
Gillespie,30.31800246,-98.94627245,28.88888888888889,wmoUnit:degC,73,6,16093.44,wmoUnit:m,,,,,,
Fisher,32.74305155,-100.4019503,34.44444444444444,wmoUnit:degC,28,17,16093.44,wmoUnit:m,,,,,,
Henderson,32.21188078,-95.85356847,31.11111111111111,wmoUnit:degC,57,8,16093.44,wmoUnit:m,SV,A,,,,
Shackelford,32.7360276,-99.35403034,30.555555555555557,wmoUnit:degC,52,54,9656.064,wmoUnit:m,SV,A,,,,
Palo Pinto,32.75316856,-98.31299522,31.11111111111111,wmoUnit:degC,54,53,16093.44,wmoUnit:m,,,,,,
Wilbarger,34.08044953,-99.24089568,28.88888888888889,wmoUnit:degC,63,43,,,SV,A,,,,
Floyd,34.07239775,-101.3033037,20.0,wmoUnit:degC,63,4,15932.504986084026,wmoUnit:m,,,,,,
Orange,30.12807126,-93.89653794,27.22222222222222,wmoUnit:degC,79,1,16077.34619165045,wmoUnit:m,,,,,,
Runnels,31.83105393,-99.97624799,33.888888888888886,wmoUnit:degC,39,21,16093.44,wmoUnit:m,,,,,,
Coleman,31.77329421,-99.45362579,32.77777777777778,wmoUnit:degC,44,27,16093.44,wmoUnit:m,SV,A,,,,
Martin,32.30605847,-101.9512464,33.888888888888886,wmoUnit:degC,23,4,14918.619616699263,wmoUnit:m,,,,,,
Wheeler,35.40129002,-100.2697634,15.0,wmoUnit:degC,72,1,,,,,,,,
Culberson,31.44709817,-104.5177421,29.444444444444443,wmoUnit:degC,21,1,16093.44,wmoUnit:m,,,,,,
Mitchell,32.30636024,-100.9211128,36.666666666666664,wmoUnit:degC,15,13,14854.244383300736,wmoUnit:m,,,,,,
Hudspeth,31.45613738,-105.3869428,30.0,wmoUnit:degC,21,0,16093.44,wmoUnit:m,,,,,,
Upshur,32.7362827,-94.94132011,29.444444444444443,wmoUnit:degC,59,17,16093.44,wmoUnit:m,,,,,,
Liberty,30.15153187,-94.8120925,30.555555555555557,wmoUnit:degC,57,3,16093.44,wmoUnit:m,,,Flood Warning,Severe,Expected,2025-06-04T15:00:00-05:00
Williamson,30.64834941,-97.60105467,31.11111111111111,wmoUnit:degC,68,31,16093.44,wmoUnit:m,,,,,,
Nacogdoches,31.61604108,-94.6158776,30.555555555555557,wmoUnit:degC,59,6,16093.44,wmoUnit:m,,,Flood Warning,Severe,Immediate,2025-06-04T12:00:00-05:00
Loving,31.84912973,-103.5799063,33.888888888888886,wmoUnit:degC,20,2,16093.44,wmoUnit:m,,,,,,
Jim Wells,27.73131099,-98.0898649,31.11111111111111,wmoUnit:degC,66,0,16045.160109741197,wmoUnit:m,,,,,,
Upton,31.36853957,-102.0430005,33.888888888888886,wmoUnit:degC,24,8,15819.85139721687,wmoUnit:m,,,,,,
Newton,30.78619977,-93.74462993,24.444444444444443,wmoUnit:degC,90,0,16093.44,wmoUnit:m,,,,,,
Lamar,33.66746186,-95.57110784,30.555555555555557,wmoUnit:degC,61,11,16093.44,wmoUnit:m,SV,A,,,,
Polk,30.79250963,-94.82994949,29.444444444444443,wmoUnit:degC,61,4,16093.44,wmoUnit:m,,,Flood Warning,Severe,Immediate,2025-06-04T12:00:00-05:00
Collin,33.18789055,-96.57248871,30.0,wmoUnit:degC,61,27,16093.44,wmoUnit:m,,,Flash Flood Warning,Severe,Immediate,2025-06-04T03:00:00-05:00
Hardeman,34.28865227,-99.7453851,29.444444444444443,wmoUnit:degC,59,9,,,SV,A,,,,
McMullen,28.35351091,-98.56842256,32.77777777777778,wmoUnit:degC,62,2,15723.291616699264,wmoUnit:m,,,,,,
Cottle,34.0776571,-100.2786983,23.88888888888889,wmoUnit:degC,56,10,11265.408,wmoUnit:m,,,,,,
Frio,28.86726774,-99.10826004,32.22222222222222,wmoUnit:degC,60,5,16093.44,wmoUnit:m,,,,,,
Gray,35.40130666,-100.812475,13.88888888888889,wmoUnit:degC,80,1,,,,,,,,
Dallam,36.27777107,-102.6021647,17.22222222222222,wmoUnit:degC,60,8,,,,,,,,
Kenedy,26.92409448,-97.68137783,28.88888888888889,wmoUnit:degC,83,0,,,,,,,,
Fort Bend,29.52763253,-95.77090562,28.88888888888889,wmoUnit:degC,72,4,16093.44,wmoUnit:m,,,,,,
Armstrong,34.96522076,-101.3572412,16.11111111111111,wmoUnit:degC,70,1,,,,,,,,
Collingsworth,34.96498493,-100.2700733,18.88888888888889,wmoUnit:degC,61,1,,,,,,,,
Cass,33.07750446,-94.34348771,30.555555555555557,wmoUnit:degC,55,10,16093.44,wmoUnit:m,,,,,,
Sherman,36.27765824,-101.8933822,16.666666666666668,wmoUnit:degC,58,6,,,,,,,,
Terry,33.17373729,-102.335157,27.22222222222222,wmoUnit:degC,38,3,16077.34619165045,wmoUnit:m,,,,,,
Limestone,31.54541898,-96.58056718,29.444444444444443,wmoUnit:degC,63,10,16093.44,wmoUnit:m,,,,,,
Real,29.83182711,-99.82215881,28.88888888888889,wmoUnit:degC,67,4,16093.44,wmoUnit:m,,,,,,
Lynn,33.17685487,-101.8160235,27.22222222222222,wmoUnit:degC,41,4,16061.252383300736,wmoUnit:m,,,,,,
Lavaca,29.38437003,-96.93020993,30.0,wmoUnit:degC,73,2,16093.44,wmoUnit:m,,,,,,
Nolan,32.3034718,-100.4060989,33.888888888888886,wmoUnit:degC,20,18,16093.44,wmoUnit:m,SV,A,,,,
Gaines,32.74074537,-102.6351246,30.0,wmoUnit:degC,33,2,16093.44,wmoUnit:m,,,,,,
Montgomery,30.30022409,-95.50301411,29.444444444444443,wmoUnit:degC,72,3,16093.44,wmoUnit:m,,,,,,
Concho,31.32645211,-99.86413426,31.11111111111111,wmoUnit:degC,61,21,16093.44,wmoUnit:m,,,,,,
Hardin,30.33238431,-94.39021394,25.0,wmoUnit:degC,90,2,15980.786411132844,wmoUnit:m,,,,,,
Harris,29.85967144,-95.39782106,29.444444444444443,wmoUnit:degC,70,4,16093.44,wmoUnit:m,,,,,,
Leon,31.29655719,-95.99554292,29.444444444444443,wmoUnit:degC,65,5,16093.44,wmoUnit:m,,,Flood Warning,Severe,Immediate,2025-06-04T19:30:00-05:00
Bowie,33.44572786,-94.42324298,30.0,wmoUnit:degC,61,18,16093.44,wmoUnit:m,,,,,,
Kaufman,32.59927808,-96.28779341,30.555555555555557,wmoUnit:degC,57,18,16093.44,wmoUnit:m,SV,A,,,,
Anderson,31.81321543,-95.65251774,30.0,wmoUnit:degC,63,4,16093.44,wmoUnit:m,,,Flood Warning,Severe,Immediate,2025-06-04T12:00:00-05:00
San Saba,31.15520543,-98.81754295,30.0,wmoUnit:degC,68,39,16093.44,wmoUnit:m,SV,A,Special Weather Statement,Moderate,Expected,2025-06-04T03:00:00-05:00
Schleicher,30.89661056,-100.538097,30.555555555555557,wmoUnit:degC,50,15,16093.44,wmoUnit:m,,,,,,
Colorado,29.6208542,-96.52630821,30.0,wmoUnit:degC,68,3,16093.44,wmoUnit:m,,,,,,
Milam,30.78625299,-96.97683495,31.666666666666668,wmoUnit:degC,59,4,16093.44,wmoUnit:m,,,,,,
Live Oak,28.3514375,-98.12474493,31.666666666666668,wmoUnit:degC,64,2,15723.291616699264,wmoUnit:m,,,,,,
Borden,32.7436916,-101.4317533,32.22222222222222,wmoUnit:degC,31,8,14757.68460278313,wmoUnit:m,,,,,,
McCulloch,31.19896752,-99.34754972,30.555555555555557,wmoUnit:degC,59,26,16093.44,wmoUnit:m,SV,A,Special Weather Statement,Moderate,Expected,2025-06-04T03:00:00-05:00
Johnson,32.37899918,-97.36660504,30.555555555555557,wmoUnit:degC,65,27,16093.44,wmoUnit:m,,,,,,
Montague,33.67496328,-97.72466993,29.444444444444443,wmoUnit:degC,63,62,9656.064,wmoUnit:m,,,,,,
Stonewall,33.17842158,-100.255259,27.77777777777778,wmoUnit:degC,51,17,15819.85139721687,wmoUnit:m,,,,,,
Comal,29.80816362,-98.27814516,28.88888888888889,wmoUnit:degC,75,8,16093.44,wmoUnit:m,,,,,,
Eastland,32.32739258,-98.8325713,30.0,wmoUnit:degC,57,40,16093.44,wmoUnit:m,,,,,,
Comanche,31.9490639,-98.55841538,32.77777777777778,wmoUnit:degC,49,32,16093.44,wmoUnit:m,,,,,,
King,33.61641863,-100.2558584,26.11111111111111,wmoUnit:degC,56,14,12987.405588867157,wmoUnit:m,,,,,,
Washington,30.2145299,-96.40356575,29.444444444444443,wmoUnit:degC,70,4,16093.44,wmoUnit:m,,,,,,
Webb,27.76102524,-99.33170164,34.44444444444444,wmoUnit:degC,51,2,15739.383890258803,wmoUnit:m,,,,,,
Fayette,29.87683207,-96.91968047,30.555555555555557,wmoUnit:degC,68,5,16093.44,wmoUnit:m,,,,,,
Harrison,32.54814898,-94.37155736,30.555555555555557,wmoUnit:degC,57,4,16093.44,wmoUnit:m,,,,,,
Presidio,29.99977786,-104.2405552,30.0,wmoUnit:degC,19,0,16093.44,wmoUnit:m,,,,,,
Austin,29.88711223,-96.27791829,29.444444444444443,wmoUnit:degC,70,5,16093.44,wmoUnit:m,,,,,,
Randall,34.96594288,-101.8968527,17.77777777777778,wmoUnit:degC,63,0,,,,,,,,
Hood,32.43107878,-97.83280338,31.11111111111111,wmoUnit:degC,54,30,16093.44,wmoUnit:m,,,,,,
Victoria,28.79640594,-96.97176602,30.0,wmoUnit:degC,70,1,16029.066301391646,wmoUnit:m,,,,,,
Hutchinson,35.84000866,-101.3547257,14.444444444444445,wmoUnit:degC,69,1,,,,,,,,
Coryell,31.39087578,-97.7991883,31.11111111111111,wmoUnit:degC,63,11,16093.44,wmoUnit:m,SV,A,Severe Thunderstorm Watch,Severe,Future,2025-06-04T04:00:00-05:00
Jackson,28.95603133,-96.57883268,30.555555555555557,wmoUnit:degC,72,2,16093.44,wmoUnit:m,,,,,,
Taylor,32.30138229,-99.89003941,32.77777777777778,wmoUnit:degC,38,25,9656.064,wmoUnit:m,SV,A,,,,
Zapata,27.00089072,-99.16860134,32.77777777777778,wmoUnit:degC,60,1,,,,,,,,
San Patricio,28.00922186,-97.51859857,30.0,wmoUnit:degC,80,0,14516.283616699264,wmoUnit:m,,,,,,
Grimes,30.54360689,-95.98557334,30.555555555555557,wmoUnit:degC,65,5,16093.44,wmoUnit:m,,,,,,
Lamb,34.06861242,-102.3517095,21.11111111111111,wmoUnit:degC,59,5,16077.34619165045,wmoUnit:m,,,,,,
