countyName,latitude,longitude,temperature,temperature_unit,relativeHumidity,precipitationProbability,visibility,visibility_unit,hazard_phenomenon,hazard_significance,alert_event,alert_severity,alert_urgency,alert_expires
Foard,33.97408519,-99.77871109,22.77777777777778,wmoUnit:degC,76,24,,,,,,,,
Blanco,30.26636128,-98.39974086,21.11111111111111,wmoUnit:degC,94,21,16093.44,wmoUnit:m,TO,A,Severe Thunderstorm Warning,Severe,Immediate,2025-05-26T20:15:00-05:00
Hockley,33.60750375,-102.3430919,22.77777777777778,wmoUnit:degC,55,8,16093.44,wmoUnit:m,SV,A,Severe Thunderstorm Watch,Severe,Future,2025-05-27T00:00:00-05:00
Llano,30.70566579,-98.68387398,25.0,wmoUnit:degC,76,24,16093.44,wmoUnit:m,TO,A,Severe Thunderstorm Warning,Severe,Immediate,2025-05-26T20:15:00-05:00
Swisher,34.53064989,-101.734951,19.444444444444443,wmoUnit:degC,73,29,16093.44,wmoUnit:m,SV,A,Severe Thunderstorm Watch,Severe,Future,2025-05-27T00:00:00-05:00
Titus,33.2160906,-94.96509786,21.666666666666668,wmoUnit:degC,87,24,16093.44,wmoUnit:m,FA,A,Flood Warning,Severe,Immediate,2025-05-27T09:45:00-05:00
Navarro,32.04695429,-96.47248134,20.555555555555557,wmoUnit:degC,93,39,16093.44,wmoUnit:m,FA,A,Flood Warning,Severe,Immediate,2025-05-27T08:45:00-05:00
Brazoria,29.19345387,-95.45578479,30.555555555555557,wmoUnit:degC,70,10,16029.066301391646,wmoUnit:m,,,Rip Current Statement,Moderate,Expected,2025-05-26T23:00:00-05:00
Hidalgo,26.396627,-98.18088681,34.44444444444444,wmoUnit:degC,55,1,,,,,,,,
Archer,33.61539176,-98.68783437,22.77777777777778,wmoUnit:degC,73,6,,,,,,,,
Refugio,28.32681413,-97.16546961,32.22222222222222,wmoUnit:degC,60,13,12697.7239451294,wmoUnit:m,,,,,,
Andrews,32.30506283,-102.6378839,21.666666666666668,wmoUnit:degC,71,0,16093.44,wmoUnit:m,,,,,,
Galveston,29.39424415,-94.96474975,30.0,wmoUnit:degC,75,13,15964.69260278313,wmoUnit:m,,,Rip Current Statement,Moderate,Expected,2025-05-26T23:00:00-05:00
De Witt,29.08201599,-97.35666976,32.22222222222222,wmoUnit:degC,62,4,16093.44,wmoUnit:m,,,,,,
Gonzales,29.45641495,-97.49279927,31.666666666666668,wmoUnit:degC,62,11,16093.44,wmoUnit:m,,,,,,
Wharton,29.2778362,-96.22197375,31.11111111111111,wmoUnit:degC,63,10,15465.795287475512,wmoUnit:m,,,,,,
Fannin,33.59396919,-96.10656755,22.22222222222222,wmoUnit:degC,84,24,16093.44,wmoUnit:m,,,,,,
Madison,30.96564645,-95.92818441,18.88888888888889,wmoUnit:degC,100,48,12440.229150695823,wmoUnit:m,,,,,,
Moore,35.83768863,-101.8929556,13.88888888888889,wmoUnit:degC,86,77,,,SV,A,Severe Thunderstorm Watch,Severe,Future,2025-05-27T00:00:00-05:00
Tyler,30.7712607,-94.37651432,28.88888888888889,wmoUnit:degC,70,61,2510.5765479125316,wmoUnit:m,,,,,,
Lipscomb,36.27778432,-100.27317,17.22222222222222,wmoUnit:degC,81,57,,,,,Severe Thunderstorm Warning,Severe,Immediate,2025-05-26T19:30:00-05:00
Burleson,30.49246139,-96.62109399,20.0,wmoUnit:degC,93,34,11265.408,wmoUnit:m,,,,,,
Jim Hogg,27.04340499,-98.6972921,34.44444444444444,wmoUnit:degC,51,1,,,,,,,,
Throckmorton,33.17753907,-99.21236832,20.555555555555557,wmoUnit:degC,87,28,11265.408,wmoUnit:m,,,,,,
Kleberg,27.43274395,-97.72889778,33.333333333333336,wmoUnit:degC,62,3,16093.44,wmoUnit:m,,,,,,
Shelby,31.79242191,-94.14495261,21.666666666666668,wmoUnit:degC,87,85,9656.064,wmoUnit:m,FA,A,Flood Watch,Severe,Future,2025-05-27T07:00:00-05:00
Garza,33.17991074,-101.2984496,20.0,wmoUnit:degC,87,18,14484.096,wmoUnit:m,,,,,,
Karnes,28.90493782,-97.85960621,31.11111111111111,wmoUnit:degC,62,4,16093.44,wmoUnit:m,,,,,,
Reeves,31.32307061,-103.693143,25.555555555555557,wmoUnit:degC,47,0,16093.44,wmoUnit:m,,,,,,
Houston,31.31764137,-95.42225367,20.0,wmoUnit:degC,97,53,11265.408,wmoUnit:m,,,,,,
El Paso,31.7686226,-106.2352229,27.77777777777778,wmoUnit:degC,8,0,16045.160109741197,wmoUnit:m,,,,,,
Carson,35.40346802,-101.3542037,16.666666666666668,wmoUnit:degC,87,44,,,SV,A,Tornado Warning,Extreme,Immediate,2025-05-26T19:45:00-05:00
Medina,29.35520493,-99.11008331,30.555555555555557,wmoUnit:degC,63,13,16093.44,wmoUnit:m,TO,A,Tornado Watch,Extreme,Future,2025-05-26T22:00:00-05:00
Wichita,33.98421585,-98.70153389,24.444444444444443,wmoUnit:degC,66,5,,,,,,,,
Chambers,29.73912276,-94.60891308,30.0,wmoUnit:degC,61,18,16093.44,wmoUnit:m,,,,,,
Donley,34.96540246,-100.8140501,21.11111111111111,wmoUnit:degC,76,12,,,SV,A,Tornado Warning,Extreme,Immediate,2025-05-26T19:45:00-05:00
Hopkins,33.14933822,-95.56414173,22.77777777777778,wmoUnit:degC,84,18,16093.44,wmoUnit:m,FA,A,Flood Watch,Severe,Future,2025-05-26T20:30:00-05:00
Lampasas,31.19627791,-98.24142711,23.88888888888889,wmoUnit:degC,84,32,16093.44,wmoUnit:m,,,,,,
Falls,31.25317017,-96.93579511,23.333333333333332,wmoUnit:degC,79,32,16093.44,wmoUnit:m,FA,A,Flood Watch,Severe,Future,2025-05-26T20:30:00-05:00
Stephens,32.73584155,-98.83612016,21.11111111111111,wmoUnit:degC,90,57,11265.408,wmoUnit:m,,,,,,
Travis,30.33423319,-97.78194654,23.333333333333332,wmoUnit:degC,88,25,16093.44,wmoUnit:m,TO,A,Tornado Watch,Extreme,Future,2025-05-26T22:00:00-05:00
Roberts,35.8385577,-100.8135689,18.333333333333332,wmoUnit:degC,81,55,,,SV,A,Severe Thunderstorm Watch,Severe,Future,2025-05-27T00:00:00-05:00
Crosby,33.61459873,-101.2998612,21.666666666666668,wmoUnit:degC,71,19,16093.44,wmoUnit:m,SV,A,Severe Thunderstorm Watch,Severe,Future,2025-05-27T00:00:00-05:00
Kerr,30.06153035,-99.35016969,30.555555555555557,wmoUnit:degC,62,9,16093.44,wmoUnit:m,TO,A,Tornado Watch,Extreme,Future,2025-05-26T22:00:00-05:00
Wood,32.78634374,-95.38206498,21.666666666666668,wmoUnit:degC,90,24,11265.408,wmoUnit:m,FA,A,Flood Warning,Severe,Expected,2025-05-27T09:30:00-05:00
Jack,33.23345819,-98.1725509,22.22222222222222,wmoUnit:degC,79,62,16093.44,wmoUnit:m,,,Flash Flood Warning,Severe,Immediate,2025-05-26T20:15:00-05:00
Marion,32.79797929,-94.35725239,21.666666666666668,wmoUnit:degC,93,25,16093.44,wmoUnit:m,FA,A,Flood Warning,Severe,Expected,2025-05-27T09:45:00-05:00
Hale,34.07051782,-101.8269082,20.0,wmoUnit:degC,70,16,16093.44,wmoUnit:m,SV,A,Severe Thunderstorm Watch,Severe,Future,2025-05-27T00:00:00-05:00
Jeff Davis,30.71559322,-104.1403539,23.88888888888889,wmoUnit:degC,10,0,16093.44,wmoUnit:m,,,,,,
Tarrant,32.77185236,-97.29116473,22.77777777777778,wmoUnit:degC,76,62,16093.44,wmoUnit:m,FA,A,Flood Advisory,Minor,Expected,2025-05-26T21:00:00-05:00
Waller,30.01093722,-95.98768942,21.666666666666668,wmoUnit:degC,97,20,11265.408,wmoUnit:m,,,,,,
Reagan,31.36617698,-101.5230108,30.555555555555557,wmoUnit:degC,45,1,16093.44,wmoUnit:m,TO,A,Tornado Watch,Extreme,Future,2025-05-26T22:00:00-05:00
Smith,32.37514553,-95.26909511,21.666666666666668,wmoUnit:degC,93,46,11265.408,wmoUnit:m,FA,A,Flood Warning,Severe,Immediate,2025-05-27T13:45:00-05:00
Van Zandt,32.56368961,-95.8364862,21.11111111111111,wmoUnit:degC,87,32,16093.44,wmoUnit:m,FA,A,Flood Watch,Severe,Future,2025-05-26T20:30:00-05:00
Cooke,33.638465,-97.21247642,23.333333333333332,wmoUnit:degC,76,42,16093.44,wmoUnit:m,,,,,,
Zavala,28.86530621,-99.76102001,31.666666666666668,wmoUnit:degC,67,2,16093.44,wmoUnit:m,TO,A,Tornado Watch,Extreme,Future,2025-05-26T22:00:00-05:00
Hall,34.53074134,-100.6809876,22.22222222222222,wmoUnit:degC,73,23,16093.44,wmoUnit:m,,,,,,
Kendall,29.9446397,-98.71160511,24.444444444444443,wmoUnit:degC,94,7,16093.44,wmoUnit:m,TO,A,Tornado Watch,Extreme,Future,2025-05-26T22:00:00-05:00
Goliad,28.65708563,-97.42646082,32.22222222222222,wmoUnit:degC,56,15,16093.44,wmoUnit:m,,,,,,
Yoakum,33.17293501,-102.8278792,23.333333333333332,wmoUnit:degC,53,4,16093.44,wmoUnit:m,,,,,,
Knox,33.60614755,-99.74144313,22.77777777777778,wmoUnit:degC,73,16,,,,,,,,
McLennan,31.55234489,-97.20184883,21.666666666666668,wmoUnit:degC,87,32,16093.44,wmoUnit:m,FA,A,Flood Watch,Severe,Future,2025-05-26T20:30:00-05:00
Brewster,29.81205836,-103.2518906,33.888888888888886,wmoUnit:degC,7,0,16093.44,wmoUnit:m,,,,,,
Panola,32.16222886,-94.30552858,21.666666666666668,wmoUnit:degC,87,80,9656.064,wmoUnit:m,FA,A,Flood Watch,Severe,Future,2025-05-27T07:00:00-05:00
Bandera,29.74724753,-99.24637282,27.77777777777778,wmoUnit:degC,75,11,16093.44,wmoUnit:m,TO,A,Tornado Watch,Extreme,Future,2025-05-26T22:00:00-05:00
Parmer,34.53014507,-102.784594,18.88888888888889,wmoUnit:degC,73,26,16093.44,wmoUnit:m,SV,A,Severe Thunderstorm Watch,Severe,Future,2025-05-27T00:00:00-05:00
Rockwall,32.89786769,-96.40780584,21.666666666666668,wmoUnit:degC,87,46,16093.44,wmoUnit:m,FA,A,Flood Warning,Severe,Immediate,2025-05-27T08:15:00-05:00
Trinity,31.0885069,-95.13551682,19.444444444444443,wmoUnit:degC,100,59,9639.97019165045,wmoUnit:m,,,,,,
Bosque,31.90050476,-97.63437613,24.444444444444443,wmoUnit:degC,79,39,16093.44,wmoUnit:m,FA,A,Flood Watch,Severe,Future,2025-05-26T20:30:00-05:00
Coke,31.88849293,-100.5298747,25.555555555555557,wmoUnit:degC,64,20,16093.44,wmoUnit:m,TO,A,Tornado Watch,Extreme,Future,2025-05-26T22:00:00-05:00
Franklin,33.17550691,-95.21841437,21.666666666666668,wmoUnit:degC,87,24,16093.44,wmoUnit:m,FA,A,Flood Warning,Severe,Immediate,2025-05-27T09:45:00-05:00
Hill,31.99079033,-97.1324142,22.77777777777778,wmoUnit:degC,93,40,16093.44,wmoUnit:m,FA,A,Flood Watch,Severe,Future,2025-05-26T20:30:00-05:00
Calhoun,28.48966896,-96.64708119,31.11111111111111,wmoUnit:degC,70,12,16093.44,wmoUnit:m,,,,,,
Irion,31.30393203,-100.9824126,29.444444444444443,wmoUnit:degC,57,11,16093.44,wmoUnit:m,TO,A,Flood Advisory,Minor,Expected,2025-05-26T19:30:00-05:00
Midland,31.86921148,-102.0315032,27.22222222222222,wmoUnit:degC,63,0,16093.44,wmoUnit:m,,,,,,
Brown,31.77432313,-98.99989649,23.333333333333332,wmoUnit:degC,74,34,11265.408,wmoUnit:m,,,Special Weather Statement,Moderate,Expected,2025-05-26T19:45:00-05:00
Wilson,29.17315896,-98.08621015,31.666666666666668,wmoUnit:degC,61,7,16093.44,wmoUnit:m,TO,A,Tornado Watch,Extreme,Future,2025-05-26T22:00:00-05:00
Oldham,35.40497586,-102.6029949,14.444444444444445,wmoUnit:degC,93,69,,,SV,A,Severe Thunderstorm Watch,Severe,Future,2025-05-27T00:00:00-05:00
Freestone,31.70486443,-96.14918535,19.444444444444443,wmoUnit:degC,97,32,14484.096,wmoUnit:m,FA,A,Flood Watch,Severe,Future,2025-05-26T20:30:00-05:00
Sabine,31.34321941,-93.85170439,22.22222222222222,wmoUnit:degC,93,86,6356.908876739477,wmoUnit:m,FA,A,Flood Watch,Severe,Future,2025-05-27T07:00:00-05:00
Deaf Smith,34.96602014,-102.6048162,14.444444444444445,wmoUnit:degC,93,30,,,SV,A,Severe Thunderstorm Watch,Severe,Future,2025-05-27T00:00:00-05:00
Angelina,31.25475875,-94.611742,21.11111111111111,wmoUnit:degC,97,86,9559.503452087469,wmoUnit:m,FA,A,Flood Watch,Severe,Future,2025-05-27T07:00:00-05:00
Kent,33.18284492,-100.7791031,21.666666666666668,wmoUnit:degC,79,27,16093.44,wmoUnit:m,,,,,,
Red River,33.62074539,-95.0501886,21.11111111111111,wmoUnit:degC,87,25,16093.44,wmoUnit:m,FA,A,Flood Warning,Severe,Immediate,2025-05-27T14:45:00-05:00
Kinney,29.35000302,-100.4178441,32.22222222222222,wmoUnit:degC,55,7,16093.44,wmoUnit:m,,,,,,
Denton,33.205574,-97.11681154,23.333333333333332,wmoUnit:degC,76,53,16093.44,wmoUnit:m,FA,A,Flood Warning,Severe,Immediate,2025-05-27T08:45:00-05:00
Sutton,30.49747152,-100.5382263,31.11111111111111,wmoUnit:degC,43,13,16093.44,wmoUnit:m,TO,A,Special Weather Statement,Moderate,Expected,2025-05-26T19:45:00-05:00
Guadalupe,29.58257236,-97.94850308,28.88888888888889,wmoUnit:degC,72,15,16093.44,wmoUnit:m,TO,A,Tornado Watch,Extreme,Future,2025-05-26T22:00:00-05:00
Winkler,31.85008609,-103.0484794,23.333333333333332,wmoUnit:degC,69,0,16093.44,wmoUnit:m,,,,,,
Dimmit,28.42161168,-99.760574,32.77777777777778,wmoUnit:degC,60,1,16093.44,wmoUnit:m,,,,,,
Wise,33.21585061,-97.65444124,22.22222222222222,wmoUnit:degC,76,62,16093.44,wmoUnit:m,,,Flash Flood Warning,Severe,Immediate,2025-05-26T20:15:00-05:00
Hemphill,35.83750155,-100.2704628,18.88888888888889,wmoUnit:degC,81,49,,,SV,A,Severe Thunderstorm Watch,Severe,Future,2025-05-27T00:00:00-05:00
Potter,35.40128927,-101.8940484,17.22222222222222,wmoUnit:degC,87,40,,,SV,A,Severe Thunderstorm Watch,Severe,Future,2025-05-27T00:00:00-05:00
Childress,34.52929257,-100.2075664,21.11111111111111,wmoUnit:degC,76,21,16093.44,wmoUnit:m,,,,,,
Willacy,26.47132899,-97.64303323,33.888888888888886,wmoUnit:degC,60,2,,,,,,,,
Bastrop,30.10353518,-97.31187705,23.333333333333332,wmoUnit:degC,88,19,16093.44,wmoUnit:m,,,,,,
Kimble,30.48676251,-99.74892716,29.444444444444443,wmoUnit:degC,61,18,16093.44,wmoUnit:m,TO,A,Special Weather Statement,Moderate,Expected,2025-05-26T19:45:00-05:00
Scurry,32.74720063,-100.9165071,20.555555555555557,wmoUnit:degC,84,14,11265.408,wmoUnit:m,,,,,,
Ochiltree,36.27846334,-100.815653,16.666666666666668,wmoUnit:degC,81,65,,,,,,,,
Hansford,36.27753179,-101.3545624,15.555555555555555,wmoUnit:degC,84,74,,,,,,,,
Hartley,35.83996755,-102.6028835,13.333333333333334,wmoUnit:degC,90,74,,,SV,A,Severe Thunderstorm Watch,Severe,Future,2025-05-27T00:00:00-05:00
Cameron,26.13847728,-97.51499968,33.333333333333336,wmoUnit:degC,60,1,,,,,,,,
Matagorda,28.86711039,-95.98533866,30.555555555555557,wmoUnit:degC,72,10,16093.44,wmoUnit:m,,,Rip Current Statement,Moderate,Expected,2025-05-26T23:00:00-05:00
Burnet,30.78843382,-98.18252382,22.22222222222222,wmoUnit:degC,88,22,16093.44,wmoUnit:m,TO,A,Severe Thunderstorm Warning,Severe,Immediate,2025-05-26T20:15:00-05:00
Rains,32.87004212,-95.79347545,22.22222222222222,wmoUnit:degC,84,24,16093.44,wmoUnit:m,FA,A,Flood Watch,Severe,Future,2025-05-26T20:30:00-05:00
Hays,30.05782657,-98.03104087,21.11111111111111,wmoUnit:degC,96,22,16093.44,wmoUnit:m,TO,A,Tornado Watch,Extreme,Future,2025-05-26T22:00:00-05:00
Mason,30.71742293,-99.2263026,22.77777777777778,wmoUnit:degC,84,22,16093.44,wmoUnit:m,TO,A,Flash Flood Warning,Severe,Immediate,2025-05-26T21:00:00-05:00
Ward,31.509424,-103.1024636,25.555555555555557,wmoUnit:degC,56,0,16093.44,wmoUnit:m,,,,,,
Delta,33.38623601,-95.67221685,22.77777777777778,wmoUnit:degC,81,13,16093.44,wmoUnit:m,FA,A,Flood Watch,Severe,Future,2025-05-26T20:30:00-05:00
Nueces,27.72621549,-97.61767326,32.77777777777778,wmoUnit:degC,62,4,16093.44,wmoUnit:m,,,,,,
Callahan,32.2977738,-99.37359692,21.11111111111111,wmoUnit:degC,76,33,11265.408,wmoUnit:m,,,,,,
Bell,31.03778267,-97.47790776,22.77777777777778,wmoUnit:degC,81,32,16093.44,wmoUnit:m,FA,A,Flood Watch,Severe,Future,2025-05-26T20:30:00-05:00
Cherokee,31.83695632,-95.16515234,18.88888888888889,wmoUnit:degC,100,83,4683.191178131122,wmoUnit:m,FA,A,Flood Warning,Severe,Immediate,2025-05-27T13:45:00-05:00
Ellis,32.34839264,-96.79467417,20.555555555555557,wmoUnit:degC,97,47,16093.44,wmoUnit:m,FA,A,Flood Advisory,Minor,Expected,2025-05-26T21:00:00-05:00
Lubbock,33.6101944,-101.8205745,22.22222222222222,wmoUnit:degC,66,13,16093.44,wmoUnit:m,SV,A,Severe Thunderstorm Watch,Severe,Future,2025-05-27T00:00:00-05:00
Terrell,30.22502597,-102.0764533,32.22222222222222,wmoUnit:degC,28,0,16093.44,wmoUnit:m,,,,,,
Crockett,30.72291931,-101.4118364,31.666666666666668,wmoUnit:degC,39,6,16093.44,wmoUnit:m,TO,A,Tornado Watch,Extreme,Future,2025-05-26T22:00:00-05:00
Atascosa,28.89418432,-98.52741302,29.444444444444443,wmoUnit:degC,67,6,16093.44,wmoUnit:m,TO,A,Tornado Watch,Extreme,Future,2025-05-26T22:00:00-05:00
Ector,31.86908156,-102.5430907,23.88888888888889,wmoUnit:degC,66,0,16093.44,wmoUnit:m,,,,,,
Brazos,30.6610425,-96.3022943,20.0,wmoUnit:degC,97,37,11265.408,wmoUnit:m,,,,,,
Aransas,28.12709562,-96.99258951,28.88888888888889,wmoUnit:degC,85,8,11265.408,wmoUnit:m,SC,Y,,,,
Dallas,32.76653746,-96.77781862,22.22222222222222,wmoUnit:degC,79,60,16093.44,wmoUnit:m,FA,A,Flood Advisory,Minor,Expected,2025-05-26T21:00:00-05:00
Howard,32.30610232,-101.4355097,21.666666666666668,wmoUnit:degC,79,3,16093.44,wmoUnit:m,,,,,,
Motley,34.07409017,-100.7798961,21.11111111111111,wmoUnit:degC,78,22,16093.44,wmoUnit:m,,,,,,
San Augustine,31.39427005,-94.16809762,21.666666666666668,wmoUnit:degC,90,86,6356.908876739477,wmoUnit:m,FA,A,Flood Watch,Severe,Future,2025-05-27T07:00:00-05:00
Maverick,28.74260943,-100.3144638,33.888888888888886,wmoUnit:degC,57,0,16093.44,wmoUnit:m,,,,,,
Erath,32.23640361,-98.21722756,21.666666666666668,wmoUnit:degC,79,43,16093.44,wmoUnit:m,,,,,,
Dickens,33.61663428,-100.7788138,20.0,wmoUnit:degC,81,26,16093.44,wmoUnit:m,,,,,,
Caldwell,29.83677935,-97.61983479,25.0,wmoUnit:degC,84,18,16093.44,wmoUnit:m,,,,,,
Dawson,32.74258137,-101.9476136,20.555555555555557,wmoUnit:degC,76,3,16093.44,wmoUnit:m,,,,,,
Camp,32.97321771,-94.97860185,21.666666666666668,wmoUnit:degC,87,24,16093.44,wmoUnit:m,FA,A,Flood Watch,Severe,Future,2025-05-27T07:00:00-05:00
Duval,27.68133382,-98.50889672,35.55555555555556,wmoUnit:degC,46,4,16093.44,wmoUnit:m,,,,,,
Hunt,33.123531,-96.08550014,21.666666666666668,wmoUnit:degC,87,34,16093.44,wmoUnit:m,FA,A,Flood Warning,Severe,Immediate,2025-05-27T08:15:00-05:00
Mills,31.49524259,-98.59552736,24.444444444444443,wmoUnit:degC,74,33,16093.44,wmoUnit:m,,,,,,
Val Verde,29.89300587,-101.15171,31.11111111111111,wmoUnit:degC,55,3,16093.44,wmoUnit:m,,,,,,
Pecos,30.78100044,-102.7235743,27.22222222222222,wmoUnit:degC,39,0,16093.44,wmoUnit:m,,,,,,
Baylor,33.61648147,-99.21351964,24.444444444444443,wmoUnit:degC,69,15,,,,,,,,
Gregg,32.48036452,-94.81723694,21.666666666666668,wmoUnit:degC,84,26,16093.44,wmoUnit:m,FA,A,Flood Warning,Severe,Immediate,2025-05-27T14:15:00-05:00
Cochran,33.60410808,-102.8285264,21.11111111111111,wmoUnit:degC,59,5,16093.44,wmoUnit:m,SV,A,Severe Thunderstorm Watch,Severe,Future,2025-05-27T00:00:00-05:00
Jasper,30.74391255,-94.02495849,28.88888888888889,wmoUnit:degC,70,57,1915.1194520874683,wmoUnit:m,,,,,,
Hamilton,31.70479181,-98.11066654,23.88888888888889,wmoUnit:degC,87,32,16093.44,wmoUnit:m,,,,,,
Castro,34.53000304,-102.2617608,19.444444444444443,wmoUnit:degC,73,30,16093.44,wmoUnit:m,SV,A,Severe Thunderstorm Watch,Severe,Future,2025-05-27T00:00:00-05:00
Sterling,31.82786516,-101.0500699,26.666666666666668,wmoUnit:degC,65,9,16093.44,wmoUnit:m,TO,A,Tornado Watch,Extreme,Future,2025-05-26T22:00:00-05:00
Starr,26.56212627,-98.73834895,35.0,wmoUnit:degC,54,0,,,,,,,,
Crane,31.42846287,-102.5156425,27.77777777777778,wmoUnit:degC,53,0,16093.44,wmoUnit:m,,,,,,
Morris,33.11368507,-94.73205137,21.11111111111111,wmoUnit:degC,90,24,16093.44,wmoUnit:m,FA,A,Flood Warning,Severe,Immediate,2025-05-27T09:45:00-05:00
Briscoe,34.53041048,-101.2085769,18.333333333333332,wmoUnit:degC,84,27,16093.44,wmoUnit:m,SV,A,Severe Thunderstorm Watch,Severe,Future,2025-05-27T00:00:00-05:00
Tom Green,31.4044442,-100.4620678,27.22222222222222,wmoUnit:degC,65,19,16093.44,wmoUnit:m,TO,A,Flood Advisory,Minor,Expected,2025-05-26T19:30:00-05:00
Menard,30.88981785,-99.82061472,27.22222222222222,wmoUnit:degC,72,20,16093.44,wmoUnit:m,TO,A,Severe Thunderstorm Warning,Severe,Immediate,2025-05-26T19:30:00-05:00
Parker,32.77852261,-97.80472194,20.555555555555557,wmoUnit:degC,93,62,16093.44,wmoUnit:m,,,Flood Advisory,Minor,Expected,2025-05-26T19:30:00-05:00
Walker,30.73899492,-95.57224172,20.555555555555557,wmoUnit:degC,93,48,13454.115287475512,wmoUnit:m,,,,,,
Brooks,27.0315669,-98.21874127,35.0,wmoUnit:degC,51,1,,,,,,,,
La Salle,28.34621032,-99.1034773,36.111111111111114,wmoUnit:degC,48,7,16093.44,wmoUnit:m,,,,,,
Edwards,29.98248216,-100.3048937,30.0,wmoUnit:degC,49,10,16093.44,wmoUnit:m,TO,A,Severe Thunderstorm Warning,Severe,Immediate,2025-05-26T20:15:00-05:00
Lee,30.31065065,-96.96568735,22.77777777777778,wmoUnit:degC,85,22,16093.44,wmoUnit:m,,,,,,
Robertson,31.02705415,-96.51272568,21.666666666666668,wmoUnit:degC,84,32,12697.7239451294,wmoUnit:m,FA,A,Flood Watch,Severe,Future,2025-05-26T20:30:00-05:00
Young,33.17670764,-98.68781396,22.22222222222222,wmoUnit:degC,81,62,16093.44,wmoUnit:m,,,,,,
Bee,28.41736675,-97.74116811,33.333333333333336,wmoUnit:degC,52,15,16093.44,wmoUnit:m,,,,,,
Clay,33.78379717,-98.208958,22.77777777777778,wmoUnit:degC,73,2,,,,,,,,
San Jacinto,30.57948905,-95.16683273,20.555555555555557,wmoUnit:degC,93,46,11265.408,wmoUnit:m,,,,,,
Uvalde,29.35669829,-99.76203107,30.0,wmoUnit:degC,65,15,16093.44,wmoUnit:m,TO,A,Tornado Watch,Extreme,Future,2025-05-26T22:00:00-05:00
Haskell,33.17824805,-99.73029401,20.555555555555557,wmoUnit:degC,87,19,11265.408,wmoUnit:m,,,,,,
Somervell,32.22229511,-97.77456553,22.77777777777778,wmoUnit:degC,79,44,16093.44,wmoUnit:m,,,,,,
Bexar,29.44884523,-98.51966309,29.444444444444443,wmoUnit:degC,70,13,16093.44,wmoUnit:m,TO,A,Tornado Watch,Extreme,Future,2025-05-26T22:00:00-05:00
Grayson,33.62684371,-96.67764864,22.22222222222222,wmoUnit:degC,81,37,16093.44,wmoUnit:m,,,,,,
Bailey,34.0684915,-102.8299069,18.333333333333332,wmoUnit:degC,75,13,16093.44,wmoUnit:m,SV,A,Severe Thunderstorm Watch,Severe,Future,2025-05-27T00:00:00-05:00
Jones,32.73970429,-99.87850599,19.444444444444443,wmoUnit:degC,93,25,11265.408,wmoUnit:m,,,,,,
Jefferson,29.88425832,-94.1708778,30.0,wmoUnit:degC,70,31,16093.44,wmoUnit:m,,,,,,
Rusk,32.10803224,-94.76169577,21.11111111111111,wmoUnit:degC,93,84,9656.064,wmoUnit:m,FA,A,Flood Warning,Severe,Immediate,2025-05-27T14:15:00-05:00
Glasscock,31.8694238,-101.520742,27.22222222222222,wmoUnit:degC,63,1,16093.44,wmoUnit:m,TO,A,Tornado Watch,Extreme,Future,2025-05-26T22:00:00-05:00
Gillespie,30.31800246,-98.94627245,25.555555555555557,wmoUnit:degC,80,13,16093.44,wmoUnit:m,TO,A,Severe Thunderstorm Warning,Severe,Immediate,2025-05-26T20:15:00-05:00
Fisher,32.74305155,-100.4019503,21.666666666666668,wmoUnit:degC,79,18,11265.408,wmoUnit:m,,,,,,
Henderson,32.21188078,-95.85356847,21.11111111111111,wmoUnit:degC,87,32,14484.096,wmoUnit:m,FA,A,Flood Warning,Severe,Immediate,2025-05-27T08:45:00-05:00
Shackelford,32.7360276,-99.35403034,17.77777777777778,wmoUnit:degC,100,31,11265.408,wmoUnit:m,,,,,,
Palo Pinto,32.75316856,-98.31299522,20.555555555555557,wmoUnit:degC,93,59,16093.44,wmoUnit:m,,,,,,
Wilbarger,34.08044953,-99.24089568,23.333333333333332,wmoUnit:degC,71,15,,,,,,,,
Floyd,34.07239775,-101.3033037,20.0,wmoUnit:degC,76,19,16093.44,wmoUnit:m,SV,A,Severe Thunderstorm Watch,Severe,Future,2025-05-27T00:00:00-05:00
Orange,30.12807126,-93.89653794,30.0,wmoUnit:degC,68,39,16093.44,wmoUnit:m,,,Flood Warning,Severe,Immediate,2025-05-27T10:15:00-05:00
Runnels,31.83105393,-99.97624799,24.444444444444443,wmoUnit:degC,64,28,12729.91079443358,wmoUnit:m,TO,A,Tornado Watch,Extreme,Future,2025-05-26T22:00:00-05:00
Coleman,31.77329421,-99.45362579,22.77777777777778,wmoUnit:degC,71,30,11265.408,wmoUnit:m,TO,A,Tornado Watch,Extreme,Future,2025-05-26T22:00:00-05:00
Martin,32.30605847,-101.9512464,22.77777777777778,wmoUnit:degC,73,0,16093.44,wmoUnit:m,,,,,,
Wheeler,35.40129002,-100.2697634,19.444444444444443,wmoUnit:degC,87,33,,,SV,A,Severe Thunderstorm Watch,Severe,Future,2025-05-27T00:00:00-05:00
Culberson,31.44709817,-104.5177421,26.11111111111111,wmoUnit:degC,18,0,16093.44,wmoUnit:m,,,,,,
Mitchell,32.30636024,-100.9211128,23.88888888888889,wmoUnit:degC,76,13,16093.44,wmoUnit:m,,,,,,
Hudspeth,31.45613738,-105.3869428,26.11111111111111,wmoUnit:degC,13,0,15964.69260278313,wmoUnit:m,,,,,,
Upshur,32.7362827,-94.94132011,21.666666666666668,wmoUnit:degC,87,25,16093.44,wmoUnit:m,FA,A,Flood Watch,Severe,Future,2025-05-27T07:00:00-05:00
Liberty,30.15153187,-94.8120925,22.22222222222222,wmoUnit:degC,71,27,16029.066301391646,wmoUnit:m,,,,,,
Williamson,30.64834941,-97.60105467,24.444444444444443,wmoUnit:degC,84,25,11265.408,wmoUnit:m,,,,,,
Nacogdoches,31.61604108,-94.6158776,21.11111111111111,wmoUnit:degC,93,85,9656.064,wmoUnit:m,FA,A,Flood Watch,Severe,Future,2025-05-27T07:00:00-05:00
Loving,31.84912973,-103.5799063,23.88888888888889,wmoUnit:degC,58,0,16093.44,wmoUnit:m,,,,,,
Jim Wells,27.73131099,-98.0898649,35.0,wmoUnit:degC,51,4,16093.44,wmoUnit:m,,,,,,
Upton,31.36853957,-102.0430005,28.333333333333332,wmoUnit:degC,48,0,16093.44,wmoUnit:m,TO,A,Tornado Watch,Extreme,Future,2025-05-26T22:00:00-05:00
Newton,30.78619977,-93.74462993,28.333333333333332,wmoUnit:degC,72,55,5568.330301391646,wmoUnit:m,,,Flood Warning,Severe,Immediate,2025-05-27T10:15:00-05:00
Lamar,33.66746186,-95.57110784,22.22222222222222,wmoUnit:degC,84,11,16093.44,wmoUnit:m,,,,,,
Polk,30.79250963,-94.82994949,20.555555555555557,wmoUnit:degC,97,56,9656.064,wmoUnit:m,,,,,,
Collin,33.18789055,-96.57248871,22.77777777777778,wmoUnit:degC,79,44,16093.44,wmoUnit:m,FA,A,Flood Watch,Severe,Future,2025-05-26T20:30:00-05:00
Hardeman,34.28865227,-99.7453851,21.666666666666668,wmoUnit:degC,79,26,,,,,,,,
McMullen,28.35351091,-98.56842256,36.111111111111114,wmoUnit:degC,48,15,16093.44,wmoUnit:m,,,,,,
Cottle,34.0776571,-100.2786983,21.11111111111111,wmoUnit:degC,78,26,16093.44,wmoUnit:m,,,,,,
Frio,28.86726774,-99.10826004,30.555555555555557,wmoUnit:degC,66,5,16093.44,wmoUnit:m,TO,A,Tornado Watch,Extreme,Future,2025-05-26T22:00:00-05:00
Gray,35.40130666,-100.812475,19.444444444444443,wmoUnit:degC,78,37,,,SV,A,Tornado Warning,Extreme,Immediate,2025-05-26T19:45:00-05:00
Dallam,36.27777107,-102.6021647,13.333333333333334,wmoUnit:degC,86,55,,,,,,,,
Kenedy,26.92409448,-97.68137783,34.44444444444444,wmoUnit:degC,58,2,,,,,,,,
Fort Bend,29.52763253,-95.77090562,31.666666666666668,wmoUnit:degC,61,19,14741.59079443358,wmoUnit:m,,,,,,
Armstrong,34.96522076,-101.3572412,18.333333333333332,wmoUnit:degC,87,15,,,SV,A,Tornado Warning,Extreme,Immediate,2025-05-26T19:45:00-05:00
Collingsworth,34.96498493,-100.2700733,20.555555555555557,wmoUnit:degC,78,14,,,SV,A,Severe Thunderstorm Watch,Severe,Future,2025-05-27T00:00:00-05:00
Cass,33.07750446,-94.34348771,21.11111111111111,wmoUnit:degC,90,25,16093.44,wmoUnit:m,FA,A,Flood Warning,Severe,Expected,2025-05-27T09:45:00-05:00
Sherman,36.27765824,-101.8933822,14.444444444444445,wmoUnit:degC,87,77,,,,,,,,
Terry,33.17373729,-102.335157,22.77777777777778,wmoUnit:degC,59,5,16093.44,wmoUnit:m,,,,,,
Limestone,31.54541898,-96.58056718,21.11111111111111,wmoUnit:degC,87,32,16093.44,wmoUnit:m,FA,A,Flood Watch,Severe,Future,2025-05-26T20:30:00-05:00
Real,29.83182711,-99.82215881,29.444444444444443,wmoUnit:degC,59,22,16093.44,wmoUnit:m,TO,A,Tornado Watch,Extreme,Future,2025-05-26T22:00:00-05:00
Lynn,33.17685487,-101.8160235,20.555555555555557,wmoUnit:degC,78,11,16093.44,wmoUnit:m,,,,,,
Lavaca,29.38437003,-96.93020993,32.22222222222222,wmoUnit:degC,58,8,16093.44,wmoUnit:m,,,,,,
Nolan,32.3034718,-100.4060989,22.77777777777778,wmoUnit:degC,73,21,11265.408,wmoUnit:m,,,,,,
Gaines,32.74074537,-102.6351246,21.11111111111111,wmoUnit:degC,68,0,16093.44,wmoUnit:m,,,,,,
Montgomery,30.30022409,-95.50301411,21.666666666666668,wmoUnit:degC,93,28,11265.408,wmoUnit:m,,,,,,
Concho,31.32645211,-99.86413426,26.666666666666668,wmoUnit:degC,67,24,16093.44,wmoUnit:m,TO,A,Severe Thunderstorm Warning,Severe,Immediate,2025-05-26T19:30:00-05:00
Hardin,30.33238431,-94.39021394,30.0,wmoUnit:degC,68,47,16093.44,wmoUnit:m,,,,,,
Harris,29.85967144,-95.39782106,26.11111111111111,wmoUnit:degC,74,22,15771.571506958067,wmoUnit:m,,,,,,
Leon,31.29655719,-95.99554292,19.444444444444443,wmoUnit:degC,100,32,12681.630904174775,wmoUnit:m,FA,A,Flood Watch,Severe,Future,2025-05-26T20:30:00-05:00
Bowie,33.44572786,-94.42324298,21.666666666666668,wmoUnit:degC,90,25,16093.44,wmoUnit:m,FA,A,Flood Warning,Severe,Immediate,2025-05-27T14:45:00-05:00
Kaufman,32.59927808,-96.28779341,21.11111111111111,wmoUnit:degC,84,41,16093.44,wmoUnit:m,FA,A,Flood Watch,Severe,Future,2025-05-26T20:30:00-05:00
Anderson,31.81321543,-95.65251774,19.444444444444443,wmoUnit:degC,93,33,11265.408,wmoUnit:m,FA,A,Flood Warning,Severe,Immediate,2025-05-27T13:45:00-05:00
San Saba,31.15520543,-98.81754295,25.0,wmoUnit:degC,71,36,16093.44,wmoUnit:m,TO,A,Special Weather Statement,Moderate,Expected,2025-05-26T19:45:00-05:00
Schleicher,30.89661056,-100.538097,30.555555555555557,wmoUnit:degC,46,15,16093.44,wmoUnit:m,TO,A,Tornado Watch,Extreme,Future,2025-05-26T22:00:00-05:00
Colorado,29.6208542,-96.52630821,32.22222222222222,wmoUnit:degC,56,24,15787.665315307619,wmoUnit:m,,,,,,
Milam,30.78625299,-96.97683495,24.444444444444443,wmoUnit:degC,76,32,14484.096,wmoUnit:m,FA,A,Flood Watch,Severe,Future,2025-05-26T20:30:00-05:00
Live Oak,28.3514375,-98.12474493,36.111111111111114,wmoUnit:degC,48,15,16093.44,wmoUnit:m,,,,,,
Borden,32.7436916,-101.4317533,20.0,wmoUnit:degC,81,5,14548.469698608355,wmoUnit:m,,,,,,
McCulloch,31.19896752,-99.34754972,25.0,wmoUnit:degC,71,28,16093.44,wmoUnit:m,TO,A,Flood Advisory,Minor,Expected,2025-05-26T20:45:00-05:00
Johnson,32.37899918,-97.36660504,22.22222222222222,wmoUnit:degC,90,49,16093.44,wmoUnit:m,FA,A,Flood Advisory,Minor,Expected,2025-05-26T21:00:00-05:00
Montague,33.67496328,-97.72466993,23.333333333333332,wmoUnit:degC,71,49,16093.44,wmoUnit:m,,,,,,
Stonewall,33.17842158,-100.255259,21.666666666666668,wmoUnit:degC,81,38,16093.44,wmoUnit:m,,,,,,
Comal,29.80816362,-98.27814516,25.0,wmoUnit:degC,85,16,16093.44,wmoUnit:m,TO,A,Tornado Watch,Extreme,Future,2025-05-26T22:00:00-05:00
Eastland,32.32739258,-98.8325713,21.666666666666668,wmoUnit:degC,76,47,16093.44,wmoUnit:m,,,,,,
Comanche,31.9490639,-98.55841538,25.555555555555557,wmoUnit:degC,64,37,16093.44,wmoUnit:m,,,,,,
King,33.61641863,-100.2558584,22.22222222222222,wmoUnit:degC,79,35,16093.44,wmoUnit:m,,,,,,
Washington,30.2145299,-96.40356575,20.555555555555557,wmoUnit:degC,93,28,12118.36065765373,wmoUnit:m,,,,,,
Webb,27.76102524,-99.33170164,36.111111111111114,wmoUnit:degC,45,0,16093.44,wmoUnit:m,,,,,,
Fayette,29.87683207,-96.91968047,25.555555555555557,wmoUnit:degC,75,15,16093.44,wmoUnit:m,,,,,,
Harrison,32.54814898,-94.37155736,21.666666666666668,wmoUnit:degC,97,25,16093.44,wmoUnit:m,FA,A,Flood Watch,Severe,Future,2025-05-27T07:00:00-05:00
Presidio,29.99977786,-104.2405552,28.333333333333332,wmoUnit:degC,5,0,16093.44,wmoUnit:m,,,,,,
Austin,29.88711223,-96.27791829,25.0,wmoUnit:degC,76,24,13389.741588867157,wmoUnit:m,,,,,,
Randall,34.96594288,-101.8968527,17.22222222222222,wmoUnit:degC,90,15,,,SV,A,Severe Thunderstorm Watch,Severe,Future,2025-05-27T00:00:00-05:00
Hood,32.43107878,-97.83280338,21.666666666666668,wmoUnit:degC,79,49,16093.44,wmoUnit:m,,,,,,
Victoria,28.79640594,-96.97176602,32.77777777777778,wmoUnit:degC,58,15,16093.44,wmoUnit:m,,,,,,
Hutchinson,35.84000866,-101.3547257,17.77777777777778,wmoUnit:degC,73,53,,,SV,A,Severe Thunderstorm Watch,Severe,Future,2025-05-27T00:00:00-05:00
Coryell,31.39087578,-97.7991883,22.77777777777778,wmoUnit:degC,97,32,16093.44,wmoUnit:m,FA,A,Flood Watch,Severe,Future,2025-05-26T20:30:00-05:00
Jackson,28.95603133,-96.57883268,31.666666666666668,wmoUnit:degC,68,10,15755.477698608354,wmoUnit:m,,,,,,
Taylor,32.30138229,-99.89003941,20.555555555555557,wmoUnit:degC,81,30,11265.408,wmoUnit:m,,,,,,
Zapata,27.00089072,-99.16860134,35.0,wmoUnit:degC,48,1,,,,,,,,
San Patricio,28.00922186,-97.51859857,32.22222222222222,wmoUnit:degC,66,8,16093.44,wmoUnit:m,,,,,,
Grimes,30.54360689,-95.98557334,22.22222222222222,wmoUnit:degC,87,35,11828.678246521047,wmoUnit:m,,,,,,
Lamb,34.06861242,-102.3517095,18.333333333333332,wmoUnit:degC,78,16,16093.44,wmoUnit:m,SV,A,Severe Thunderstorm Watch,Severe,Future,2025-05-27T00:00:00-05:00
