countyName,latitude,longitude,temperature,temperature_unit,relativeHumidity,precipitationProbability,visibility,visibility_unit,hazard_phenomenon,hazard_significance,alert_event,alert_severity,alert_urgency,alert_expires
Foard,33.97408519,-99.77871109,25.0,wmoUnit:degC,69,0,,,,,,,,
Blanco,30.26636128,-98.39974086,31.11111111111111,wmoUnit:degC,48,9,11265.408,wmoUnit:m,,,,,,
Hockley,33.60750375,-102.3430919,19.444444444444443,wmoUnit:degC,26,0,16093.44,wmoUnit:m,,,,,,
Llano,30.70566579,-98.68387398,29.444444444444443,wmoUnit:degC,59,10,16093.44,wmoUnit:m,,,,,,
Swisher,34.53064989,-101.734951,17.22222222222222,wmoUnit:degC,54,0,16093.44,wmoUnit:m,,,,,,
Titus,33.2160906,-94.96509786,25.555555555555557,wmoUnit:degC,74,56,7885.785753478953,wmoUnit:m,,,,,,
Navarro,32.04695429,-96.47248134,21.666666666666668,wmoUnit:degC,90,38,15900.318904174776,wmoUnit:m,,,,,,
Brazoria,29.19345387,-95.45578479,26.666666666666668,wmoUnit:degC,91,1,11265.408,wmoUnit:m,,,Rip Current Statement,Moderate,Expected,2025-05-18T09:45:00-05:00
Hidalgo,26.396627,-98.18088681,27.77777777777778,wmoUnit:degC,83,4,,,,,,,,
Archer,33.61539176,-98.68783437,23.88888888888889,wmoUnit:degC,69,1,,,,,,,,
Refugio,28.32681413,-97.16546961,26.666666666666668,wmoUnit:degC,85,5,11297.594849304178,wmoUnit:m,,,,,,
Andrews,32.30506283,-102.6378839,31.666666666666668,wmoUnit:degC,11,0,16093.44,wmoUnit:m,,,,,,
Galveston,29.39424415,-94.96474975,26.11111111111111,wmoUnit:degC,88,1,12746.00460278313,wmoUnit:m,,,Rip Current Statement,Moderate,Expected,2025-05-18T09:45:00-05:00
De Witt,29.08201599,-97.35666976,28.88888888888889,wmoUnit:degC,74,9,16093.44,wmoUnit:m,,,,,,
Gonzales,29.45641495,-97.49279927,30.0,wmoUnit:degC,66,11,11265.408,wmoUnit:m,,,,,,
Wharton,29.2778362,-96.22197375,26.666666666666668,wmoUnit:degC,85,4,16093.44,wmoUnit:m,,,,,,
Fannin,33.59396919,-96.10656755,22.22222222222222,wmoUnit:degC,90,32,12923.031890258802,wmoUnit:m,,,,,,
Madison,30.96564645,-95.92818441,26.11111111111111,wmoUnit:degC,88,23,16093.44,wmoUnit:m,,,,,,
Moore,35.83768863,-101.8929556,22.77777777777778,wmoUnit:degC,33,0,,,,,,,,
Tyler,30.7712607,-94.37651432,25.0,wmoUnit:degC,88,7,15449.703013915972,wmoUnit:m,,,Flood Warning,Severe,Immediate,2025-05-18T22:30:00-05:00
Lipscomb,36.27778432,-100.27317,21.666666666666668,wmoUnit:degC,36,20,,,,,,,,
Burleson,30.49246139,-96.62109399,27.77777777777778,wmoUnit:degC,77,17,16093.44,wmoUnit:m,,,,,,
Jim Hogg,27.04340499,-98.6972921,27.77777777777778,wmoUnit:degC,74,4,,,,,,,,
Throckmorton,33.17753907,-99.21236832,22.77777777777778,wmoUnit:degC,68,6,16093.44,wmoUnit:m,,,,,,
Kleberg,27.43274395,-97.72889778,27.77777777777778,wmoUnit:degC,88,3,15787.665315307619,wmoUnit:m,,,,,,
Shelby,31.79242191,-94.14495261,26.11111111111111,wmoUnit:degC,82,34,16093.44,wmoUnit:m,,,,,,
Garza,33.17991074,-101.2984496,25.0,wmoUnit:degC,19,5,16093.44,wmoUnit:m,,,,,,
Karnes,28.90493782,-97.85960621,29.444444444444443,wmoUnit:degC,70,14,16093.44,wmoUnit:m,,,,,,
Reeves,31.32307061,-103.693143,33.333333333333336,wmoUnit:degC,10,0,16093.44,wmoUnit:m,FW,W,Red Flag Warning,Severe,Expected,2025-05-18T15:00:00-05:00
Houston,31.31764137,-95.42225367,26.666666666666668,wmoUnit:degC,88,43,16093.44,wmoUnit:m,,,Flood Warning,Severe,Immediate,2025-05-18T22:30:00-05:00
El Paso,31.7686226,-106.2352229,26.666666666666668,wmoUnit:degC,5,0,16093.44,wmoUnit:m,FW,W,Red Flag Warning,Severe,Expected,2025-05-18T22:00:00-06:00
Carson,35.40346802,-101.3542037,21.11111111111111,wmoUnit:degC,66,0,,,,,,,,
Medina,29.35520493,-99.11008331,33.888888888888886,wmoUnit:degC,45,13,16093.44,wmoUnit:m,,,,,,
Wichita,33.98421585,-98.70153389,23.88888888888889,wmoUnit:degC,71,2,,,,,,,,
Chambers,29.73912276,-94.60891308,26.666666666666668,wmoUnit:degC,88,1,14548.469698608355,wmoUnit:m,,,Flood Warning,Severe,Immediate,2025-05-18T16:00:00-05:00
Donley,34.96540246,-100.8140501,23.333333333333332,wmoUnit:degC,71,2,,,,,,,,
Hopkins,33.14933822,-95.56414173,25.0,wmoUnit:degC,67,45,11925.238794433579,wmoUnit:m,,,,,,
Lampasas,31.19627791,-98.24142711,25.0,wmoUnit:degC,85,27,15707.197808349552,wmoUnit:m,,,,,,
Falls,31.25317017,-96.93579511,26.11111111111111,wmoUnit:degC,77,25,15578.450411132842,wmoUnit:m,,,,,,
Stephens,32.73584155,-98.83612016,26.11111111111111,wmoUnit:degC,58,10,12182.734356262245,wmoUnit:m,,,,,,
Travis,30.33423319,-97.78194654,33.333333333333336,wmoUnit:degC,55,8,16093.44,wmoUnit:m,,,,,,
Roberts,35.8385577,-100.8135689,20.0,wmoUnit:degC,57,13,,,,,,,,
Crosby,33.61459873,-101.2998612,21.666666666666668,wmoUnit:degC,34,2,16093.44,wmoUnit:m,,,,,,
Kerr,30.06153035,-99.35016969,31.11111111111111,wmoUnit:degC,52,11,16093.44,wmoUnit:m,,,,,,
Wood,32.78634374,-95.38206498,21.666666666666668,wmoUnit:degC,87,55,9656.064,wmoUnit:m,,,Flood Warning,Severe,Immediate,2025-05-18T22:30:00-05:00
Jack,33.23345819,-98.1725509,22.77777777777778,wmoUnit:degC,76,12,15771.571506958067,wmoUnit:m,,,,,,
Marion,32.79797929,-94.35725239,25.0,wmoUnit:degC,90,56,9656.064,wmoUnit:m,,,,,,
Hale,34.07051782,-101.8269082,18.88888888888889,wmoUnit:degC,36,0,16093.44,wmoUnit:m,,,,,,
Jeff Davis,30.71559322,-104.1403539,25.0,wmoUnit:degC,14,1,16093.44,wmoUnit:m,FW,W,Red Flag Warning,Severe,Expected,2025-05-18T15:00:00-05:00
Tarrant,32.77185236,-97.29116473,24.444444444444443,wmoUnit:degC,62,19,16061.252383300736,wmoUnit:m,,,,,,
Waller,30.01093722,-95.98768942,27.77777777777778,wmoUnit:degC,79,3,14548.469698608355,wmoUnit:m,,,,,,
Reagan,31.36617698,-101.5230108,31.666666666666668,wmoUnit:degC,21,5,16093.44,wmoUnit:m,,,,,,
Smith,32.37514553,-95.26909511,22.77777777777778,wmoUnit:degC,87,49,11265.408,wmoUnit:m,,,Flood Warning,Severe,Immediate,2025-05-18T22:30:00-05:00
Van Zandt,32.56368961,-95.8364862,22.22222222222222,wmoUnit:degC,84,46,14049.572383300736,wmoUnit:m,,,,,,
Cooke,33.638465,-97.21247642,20.555555555555557,wmoUnit:degC,100,17,15610.636493041933,wmoUnit:m,,,,,,
Zavala,28.86530621,-99.76102001,32.77777777777778,wmoUnit:degC,55,23,16093.44,wmoUnit:m,SV,A,,,,
Hall,34.53074134,-100.6809876,23.88888888888889,wmoUnit:degC,48,0,16093.44,wmoUnit:m,,,,,,
Kendall,29.9446397,-98.71160511,30.0,wmoUnit:degC,63,10,16093.44,wmoUnit:m,,,,,,
Goliad,28.65708563,-97.42646082,27.77777777777778,wmoUnit:degC,74,4,14628.93720556642,wmoUnit:m,,,,,,
Yoakum,33.17293501,-102.8278792,20.555555555555557,wmoUnit:degC,20,0,16093.44,wmoUnit:m,,,,,,
Knox,33.60614755,-99.74144313,26.11111111111111,wmoUnit:degC,58,0,,,,,,,,
McLennan,31.55234489,-97.20184883,23.333333333333332,wmoUnit:degC,90,28,15047.367013915973,wmoUnit:m,,,,,,
Brewster,29.81205836,-103.2518906,35.0,wmoUnit:degC,13,2,16093.44,wmoUnit:m,,,Red Flag Warning,Severe,Expected,2025-05-18T15:00:00-05:00
Panola,32.16222886,-94.30552858,26.11111111111111,wmoUnit:degC,97,41,11265.408,wmoUnit:m,,,,,,
Bandera,29.74724753,-99.24637282,31.666666666666668,wmoUnit:degC,55,10,16093.44,wmoUnit:m,,,,,,
Parmer,34.53014507,-102.784594,16.666666666666668,wmoUnit:degC,39,0,16093.44,wmoUnit:m,,,,,,
Rockwall,32.89786769,-96.40780584,23.333333333333332,wmoUnit:degC,74,39,15031.273205566422,wmoUnit:m,,,,,,
Trinity,31.0885069,-95.13551682,27.22222222222222,wmoUnit:degC,79,28,16093.44,wmoUnit:m,,,Flood Warning,Severe,Immediate,2025-05-18T22:30:00-05:00
Bosque,31.90050476,-97.63437613,21.666666666666668,wmoUnit:degC,97,23,15916.412712524489,wmoUnit:m,,,,,,
Coke,31.88849293,-100.5298747,27.77777777777778,wmoUnit:degC,37,8,16093.44,wmoUnit:m,,,,,,
Franklin,33.17550691,-95.21841437,24.444444444444443,wmoUnit:degC,71,56,9656.064,wmoUnit:m,,,,,,
Hill,31.99079033,-97.1324142,21.11111111111111,wmoUnit:degC,100,30,16012.972493041932,wmoUnit:m,,,,,,
Calhoun,28.48966896,-96.64708119,27.77777777777778,wmoUnit:degC,85,2,14371.442411132843,wmoUnit:m,,,,,,
Irion,31.30393203,-100.9824126,28.88888888888889,wmoUnit:degC,28,8,16093.44,wmoUnit:m,,,,,,
Midland,31.86921148,-102.0315032,32.77777777777778,wmoUnit:degC,14,1,16093.44,wmoUnit:m,,,,,,
Brown,31.77432313,-98.99989649,25.0,wmoUnit:degC,76,14,16093.44,wmoUnit:m,,,,,,
Wilson,29.17315896,-98.08621015,30.0,wmoUnit:degC,62,13,16093.44,wmoUnit:m,,,,,,
Oldham,35.40497586,-102.6029949,21.666666666666668,wmoUnit:degC,34,0,,,,,,,,
Freestone,31.70486443,-96.14918535,23.333333333333332,wmoUnit:degC,82,35,14001.292493041934,wmoUnit:m,,,,,,
Sabine,31.34321941,-93.85170439,26.666666666666668,wmoUnit:degC,77,18,16093.44,wmoUnit:m,,,,,,
Deaf Smith,34.96602014,-102.6048162,21.666666666666668,wmoUnit:degC,34,0,,,,,,,,
Angelina,31.25475875,-94.611742,27.22222222222222,wmoUnit:degC,77,26,16093.44,wmoUnit:m,,,Flood Warning,Severe,Immediate,2025-05-18T22:30:00-05:00
Kent,33.18284492,-100.7791031,25.0,wmoUnit:degC,24,4,16093.44,wmoUnit:m,,,,,,
Red River,33.62074539,-95.0501886,27.22222222222222,wmoUnit:degC,77,56,9656.064,wmoUnit:m,,,,,,
Kinney,29.35000302,-100.4178441,31.666666666666668,wmoUnit:degC,53,18,16093.44,wmoUnit:m,,,,,,
Denton,33.205574,-97.11681154,22.22222222222222,wmoUnit:degC,97,21,15095.646904174775,wmoUnit:m,,,,,,
Sutton,30.49747152,-100.5382263,28.333333333333332,wmoUnit:degC,55,9,16093.44,wmoUnit:m,,,,,,
Guadalupe,29.58257236,-97.94850308,31.11111111111111,wmoUnit:degC,57,14,12746.00460278313,wmoUnit:m,,,,,,
Winkler,31.85008609,-103.0484794,32.22222222222222,wmoUnit:degC,11,0,16093.44,wmoUnit:m,,,,,,
Dimmit,28.42161168,-99.760574,33.888888888888886,wmoUnit:degC,49,34,16093.44,wmoUnit:m,SV,A,,,,
Wise,33.21585061,-97.65444124,22.22222222222222,wmoUnit:degC,90,15,16061.252383300736,wmoUnit:m,,,,,,
Hemphill,35.83750155,-100.2704628,21.666666666666668,wmoUnit:degC,41,31,,,,,,,,
Potter,35.40128927,-101.8940484,23.333333333333332,wmoUnit:degC,30,0,,,,,,,,
Childress,34.52929257,-100.2075664,22.22222222222222,wmoUnit:degC,73,3,16093.44,wmoUnit:m,,,,,,
Willacy,26.47132899,-97.64303323,26.666666666666668,wmoUnit:degC,94,2,,,,,,,,
Bastrop,30.10353518,-97.31187705,31.666666666666668,wmoUnit:degC,56,5,11265.408,wmoUnit:m,,,,,,
Kimble,30.48676251,-99.74892716,28.333333333333332,wmoUnit:degC,57,9,16093.44,wmoUnit:m,,,,,,
Scurry,32.74720063,-100.9165071,30.555555555555557,wmoUnit:degC,19,1,16093.44,wmoUnit:m,,,,,,
Ochiltree,36.27846334,-100.815653,18.88888888888889,wmoUnit:degC,61,7,,,,,,,,
Hansford,36.27753179,-101.3545624,20.555555555555557,wmoUnit:degC,61,1,,,,,,,,
Hartley,35.83996755,-102.6028835,21.11111111111111,wmoUnit:degC,32,0,,,,,,,,
Cameron,26.13847728,-97.51499968,26.666666666666668,wmoUnit:degC,92,1,,,,,,,,
Matagorda,28.86711039,-95.98533866,26.666666666666668,wmoUnit:degC,91,3,12746.00460278313,wmoUnit:m,,,Rip Current Statement,Moderate,Expected,2025-05-18T09:45:00-05:00
Burnet,30.78843382,-98.18252382,26.666666666666668,wmoUnit:degC,64,10,16093.44,wmoUnit:m,,,,,,
Rains,32.87004212,-95.79347545,23.88888888888889,wmoUnit:degC,76,46,14113.947616699264,wmoUnit:m,,,,,,
Hays,30.05782657,-98.03104087,31.11111111111111,wmoUnit:degC,61,10,16093.44,wmoUnit:m,,,,,,
Mason,30.71742293,-99.2263026,25.0,wmoUnit:degC,74,9,16093.44,wmoUnit:m,,,,,,
Ward,31.509424,-103.1024636,33.333333333333336,wmoUnit:degC,11,0,16093.44,wmoUnit:m,,,,,,
Delta,33.38623601,-95.67221685,23.333333333333332,wmoUnit:degC,74,41,11667.744,wmoUnit:m,,,,,,
Nueces,27.72621549,-97.61767326,27.77777777777778,wmoUnit:degC,85,5,13615.050301391646,wmoUnit:m,,,,,,
Callahan,32.2977738,-99.37359692,25.0,wmoUnit:degC,60,12,16093.44,wmoUnit:m,,,,,,
Bell,31.03778267,-97.47790776,30.0,wmoUnit:degC,68,24,14982.993315307618,wmoUnit:m,,,,,,
Cherokee,31.83695632,-95.16515234,27.22222222222222,wmoUnit:degC,85,38,12746.00460278313,wmoUnit:m,,,Flood Warning,Severe,Immediate,2025-05-18T22:30:00-05:00
Ellis,32.34839264,-96.79467417,22.22222222222222,wmoUnit:degC,87,35,16093.44,wmoUnit:m,,,,,,
Lubbock,33.6101944,-101.8205745,20.0,wmoUnit:degC,31,0,16093.44,wmoUnit:m,,,,,,
Terrell,30.22502597,-102.0764533,33.888888888888886,wmoUnit:degC,27,3,16093.44,wmoUnit:m,,,,,,
Crockett,30.72291931,-101.4118364,29.444444444444443,wmoUnit:degC,39,7,16093.44,wmoUnit:m,,,,,,
Atascosa,28.89418432,-98.52741302,31.11111111111111,wmoUnit:degC,59,14,16093.44,wmoUnit:m,,,,,,
Ector,31.86908156,-102.5430907,32.77777777777778,wmoUnit:degC,11,0,16093.44,wmoUnit:m,,,,,,
Brazos,30.6610425,-96.3022943,27.22222222222222,wmoUnit:degC,79,17,16093.44,wmoUnit:m,,,,,,
Aransas,28.12709562,-96.99258951,27.22222222222222,wmoUnit:degC,91,3,9398.569205566422,wmoUnit:m,,,,,,
Dallas,32.76653746,-96.77781862,23.333333333333332,wmoUnit:degC,69,33,15707.197808349552,wmoUnit:m,,,,,,
Howard,32.30610232,-101.4355097,32.22222222222222,wmoUnit:degC,14,1,16093.44,wmoUnit:m,,,,,,
Motley,34.07409017,-100.7798961,21.11111111111111,wmoUnit:degC,39,3,16093.44,wmoUnit:m,,,,,,
San Augustine,31.39427005,-94.16809762,27.22222222222222,wmoUnit:degC,74,26,16093.44,wmoUnit:m,,,,,,
Maverick,28.74260943,-100.3144638,33.333333333333336,wmoUnit:degC,52,37,11265.408,wmoUnit:m,SV,A,,,,
Erath,32.23640361,-98.21722756,21.666666666666668,wmoUnit:degC,81,14,14854.244383300736,wmoUnit:m,,,,,,
Dickens,33.61663428,-100.7788138,22.22222222222222,wmoUnit:degC,33,4,16093.44,wmoUnit:m,,,,,,
Caldwell,29.83677935,-97.61983479,31.11111111111111,wmoUnit:degC,60,8,16093.44,wmoUnit:m,,,,,,
Dawson,32.74258137,-101.9476136,30.555555555555557,wmoUnit:degC,12,0,16093.44,wmoUnit:m,,,,,,
Camp,32.97321771,-94.97860185,22.22222222222222,wmoUnit:degC,84,56,7885.785753478953,wmoUnit:m,,,,,,
Duval,27.68133382,-98.50889672,32.22222222222222,wmoUnit:degC,58,9,15916.412712524489,wmoUnit:m,,,,,,
Hunt,33.123531,-96.08550014,25.0,wmoUnit:degC,79,40,13824.265205566422,wmoUnit:m,,,,,,
Mills,31.49524259,-98.59552736,22.77777777777778,wmoUnit:degC,84,24,14194.413588867157,wmoUnit:m,,,,,,
Val Verde,29.89300587,-101.15171,32.77777777777778,wmoUnit:degC,39,7,16093.44,wmoUnit:m,,,,,,
Pecos,30.78100044,-102.7235743,33.333333333333336,wmoUnit:degC,17,6,16093.44,wmoUnit:m,,,,,,
Baylor,33.61648147,-99.21351964,25.0,wmoUnit:degC,62,0,,,,,,,,
Gregg,32.48036452,-94.81723694,20.555555555555557,wmoUnit:degC,90,49,11265.408,wmoUnit:m,,,,,,
Cochran,33.60410808,-102.8285264,22.22222222222222,wmoUnit:degC,18,0,16093.44,wmoUnit:m,,,,,,
Jasper,30.74391255,-94.02495849,25.555555555555557,wmoUnit:degC,88,5,14966.899506958067,wmoUnit:m,,,,,,
Hamilton,31.70479181,-98.11066654,22.22222222222222,wmoUnit:degC,100,24,15063.459287475513,wmoUnit:m,,,,,,
Castro,34.53000304,-102.2617608,17.77777777777778,wmoUnit:degC,40,0,16093.44,wmoUnit:m,,,,,,
Sterling,31.82786516,-101.0500699,26.666666666666668,wmoUnit:degC,28,8,16093.44,wmoUnit:m,,,,,,
Starr,26.56212627,-98.73834895,27.77777777777778,wmoUnit:degC,74,6,,,,,,,,
Crane,31.42846287,-102.5156425,33.888888888888886,wmoUnit:degC,14,2,16093.44,wmoUnit:m,,,,,,
Morris,33.11368507,-94.73205137,25.0,wmoUnit:degC,79,57,7885.785753478953,wmoUnit:m,,,,,,
Briscoe,34.53041048,-101.2085769,21.11111111111111,wmoUnit:degC,34,0,16093.44,wmoUnit:m,,,,,,
Tom Green,31.4044442,-100.4620678,28.88888888888889,wmoUnit:degC,43,10,16093.44,wmoUnit:m,,,,,,
Menard,30.88981785,-99.82061472,26.666666666666668,wmoUnit:degC,58,11,16093.44,wmoUnit:m,,,,,,
Parker,32.77852261,-97.80472194,22.77777777777778,wmoUnit:degC,73,13,16077.34619165045,wmoUnit:m,,,,,,
Walker,30.73899492,-95.57224172,27.22222222222222,wmoUnit:degC,79,16,16093.44,wmoUnit:m,,,Flood Warning,Severe,Immediate,2025-05-18T16:00:00-05:00
Brooks,27.0315669,-98.21874127,27.22222222222222,wmoUnit:degC,83,3,,,,,,,,
La Salle,28.34621032,-99.1034773,36.111111111111114,wmoUnit:degC,43,25,15530.168986084027,wmoUnit:m,,,,,,
Edwards,29.98248216,-100.3048937,30.0,wmoUnit:degC,57,9,16093.44,wmoUnit:m,,,,,,
Lee,30.31065065,-96.96568735,30.0,wmoUnit:degC,60,4,16093.44,wmoUnit:m,,,,,,
Robertson,31.02705415,-96.51272568,27.77777777777778,wmoUnit:degC,69,21,15723.291616699264,wmoUnit:m,,,,,,
Young,33.17670764,-98.68781396,25.555555555555557,wmoUnit:degC,58,9,14725.496986084027,wmoUnit:m,,,,,,
Bee,28.41736675,-97.74116811,28.333333333333332,wmoUnit:degC,72,4,15514.076712524487,wmoUnit:m,,,,,,
Clay,33.78379717,-98.208958,23.333333333333332,wmoUnit:degC,74,4,,,,,,,,
San Jacinto,30.57948905,-95.16683273,25.555555555555557,wmoUnit:degC,85,8,16093.44,wmoUnit:m,,,Flood Warning,Severe,Immediate,2025-05-18T16:00:00-05:00
Uvalde,29.35669829,-99.76203107,31.666666666666668,wmoUnit:degC,51,15,16093.44,wmoUnit:m,,,,,,
Haskell,33.17824805,-99.73029401,25.555555555555557,wmoUnit:degC,69,3,16093.44,wmoUnit:m,,,,,,
Somervell,32.22229511,-97.77456553,21.666666666666668,wmoUnit:degC,87,15,16012.972493041932,wmoUnit:m,,,,,,
Bexar,29.44884523,-98.51966309,32.77777777777778,wmoUnit:degC,57,13,16093.44,wmoUnit:m,,,,,,
Grayson,33.62684371,-96.67764864,21.666666666666668,wmoUnit:degC,100,23,13759.891506958067,wmoUnit:m,,,,,,
Bailey,34.0684915,-102.8299069,17.77777777777778,wmoUnit:degC,29,0,16093.44,wmoUnit:m,,,,,,
Jones,32.73970429,-99.87850599,27.77777777777778,wmoUnit:degC,58,5,16093.44,wmoUnit:m,,,,,,
Jefferson,29.88425832,-94.1708778,25.555555555555557,wmoUnit:degC,91,1,13647.236383300737,wmoUnit:m,,,,,,
Rusk,32.10803224,-94.76169577,25.555555555555557,wmoUnit:degC,91,43,11265.408,wmoUnit:m,,,,,,
Glasscock,31.8694238,-101.520742,32.22222222222222,wmoUnit:degC,16,5,16093.44,wmoUnit:m,,,,,,
Gillespie,30.31800246,-98.94627245,30.0,wmoUnit:degC,57,9,16093.44,wmoUnit:m,,,,,,
Fisher,32.74305155,-100.4019503,29.444444444444443,wmoUnit:degC,31,5,16093.44,wmoUnit:m,,,,,,
Henderson,32.21188078,-95.85356847,21.11111111111111,wmoUnit:degC,87,44,13373.649315307619,wmoUnit:m,,,,,,
Shackelford,32.7360276,-99.35403034,24.444444444444443,wmoUnit:degC,69,10,16093.44,wmoUnit:m,,,,,,
Palo Pinto,32.75316856,-98.31299522,22.77777777777778,wmoUnit:degC,71,12,15047.367013915973,wmoUnit:m,,,,,,
Wilbarger,34.08044953,-99.24089568,26.666666666666668,wmoUnit:degC,65,1,,,,,,,,
Floyd,34.07239775,-101.3033037,17.77777777777778,wmoUnit:degC,48,0,16093.44,wmoUnit:m,,,,,,
Orange,30.12807126,-93.89653794,25.555555555555557,wmoUnit:degC,91,1,14403.628493041933,wmoUnit:m,,,Flood Warning,Severe,Immediate,2025-05-18T21:30:00-05:00
Runnels,31.83105393,-99.97624799,26.666666666666668,wmoUnit:degC,52,10,16093.44,wmoUnit:m,,,,,,
Coleman,31.77329421,-99.45362579,26.11111111111111,wmoUnit:degC,62,13,16093.44,wmoUnit:m,,,,,,
Martin,32.30605847,-101.9512464,32.77777777777778,wmoUnit:degC,12,0,16093.44,wmoUnit:m,,,,,,
Wheeler,35.40129002,-100.2697634,22.77777777777778,wmoUnit:degC,64,16,,,,,,,,
Culberson,31.44709817,-104.5177421,29.444444444444443,wmoUnit:degC,9,0,16093.44,wmoUnit:m,FW,W,Red Flag Warning,Severe,Expected,2025-05-18T15:00:00-05:00
Mitchell,32.30636024,-100.9211128,32.77777777777778,wmoUnit:degC,18,3,16093.44,wmoUnit:m,,,,,,
Hudspeth,31.45613738,-105.3869428,23.88888888888889,wmoUnit:degC,13,0,16093.44,wmoUnit:m,FW,W,Red Flag Warning,Severe,Expected,2025-05-18T22:00:00-06:00
Upshur,32.7362827,-94.94132011,20.555555555555557,wmoUnit:degC,93,54,11265.408,wmoUnit:m,,,,,,
Liberty,30.15153187,-94.8120925,26.11111111111111,wmoUnit:degC,85,6,16093.44,wmoUnit:m,,,Flood Warning,Severe,Immediate,2025-05-18T16:00:00-05:00
Williamson,30.64834941,-97.60105467,31.11111111111111,wmoUnit:degC,67,10,11265.408,wmoUnit:m,,,,,,
Nacogdoches,31.61604108,-94.6158776,27.22222222222222,wmoUnit:degC,82,36,16093.44,wmoUnit:m,,,Flood Warning,Severe,Immediate,2025-05-18T22:30:00-05:00
Loving,31.84912973,-103.5799063,33.333333333333336,wmoUnit:degC,9,0,16093.44,wmoUnit:m,FW,W,Red Flag Warning,Severe,Expected,2025-05-18T15:00:00-05:00
Jim Wells,27.73131099,-98.0898649,28.88888888888889,wmoUnit:degC,74,8,15514.076712524487,wmoUnit:m,,,,,,
Upton,31.36853957,-102.0430005,32.77777777777778,wmoUnit:degC,16,5,16093.44,wmoUnit:m,,,,,,
Newton,30.78619977,-93.74462993,25.0,wmoUnit:degC,90,3,15658.916383300735,wmoUnit:m,,,Flood Warning,Severe,Immediate,2025-05-18T21:30:00-05:00
Lamar,33.66746186,-95.57110784,20.0,wmoUnit:degC,81,37,11297.594849304178,wmoUnit:m,,,,,,
Polk,30.79250963,-94.82994949,26.666666666666668,wmoUnit:degC,77,14,16093.44,wmoUnit:m,,,Flood Warning,Severe,Immediate,2025-05-18T22:30:00-05:00
Collin,33.18789055,-96.57248871,23.88888888888889,wmoUnit:degC,87,31,12906.939616699265,wmoUnit:m,,,,,,
Hardeman,34.28865227,-99.7453851,25.555555555555557,wmoUnit:degC,71,2,,,,,,,,
McMullen,28.35351091,-98.56842256,32.77777777777778,wmoUnit:degC,60,10,15787.665315307619,wmoUnit:m,,,,,,
Cottle,34.0776571,-100.2786983,24.444444444444443,wmoUnit:degC,50,3,16093.44,wmoUnit:m,,,,,,
Frio,28.86726774,-99.10826004,34.44444444444444,wmoUnit:degC,53,15,11265.408,wmoUnit:m,,,,,,
Gray,35.40130666,-100.812475,22.22222222222222,wmoUnit:degC,73,7,,,,,,,,
Dallam,36.27777107,-102.6021647,20.0,wmoUnit:degC,35,0,,,,,,,,
Kenedy,26.92409448,-97.68137783,26.11111111111111,wmoUnit:degC,96,2,,,,,,,,
Fort Bend,29.52763253,-95.77090562,27.22222222222222,wmoUnit:degC,85,1,12746.00460278313,wmoUnit:m,,,,,,
Armstrong,34.96522076,-101.3572412,21.666666666666668,wmoUnit:degC,64,0,,,,,,,,
Collingsworth,34.96498493,-100.2700733,24.444444444444443,wmoUnit:degC,71,5,,,,,,,,
Cass,33.07750446,-94.34348771,26.666666666666668,wmoUnit:degC,82,57,9656.064,wmoUnit:m,,,,,,
Sherman,36.27765824,-101.8933822,21.11111111111111,wmoUnit:degC,49,1,,,,,,,,
Terry,33.17373729,-102.335157,21.11111111111111,wmoUnit:degC,24,1,16093.44,wmoUnit:m,,,,,,
Limestone,31.54541898,-96.58056718,22.22222222222222,wmoUnit:degC,84,29,15835.94520556642,wmoUnit:m,,,,,,
Real,29.83182711,-99.82215881,30.0,wmoUnit:degC,58,10,16093.44,wmoUnit:m,,,,,,
Lynn,33.17685487,-101.8160235,20.0,wmoUnit:degC,28,3,16093.44,wmoUnit:m,,,,,,
Lavaca,29.38437003,-96.93020993,28.333333333333332,wmoUnit:degC,77,2,16093.44,wmoUnit:m,,,,,,
Nolan,32.3034718,-100.4060989,26.666666666666668,wmoUnit:degC,44,7,16093.44,wmoUnit:m,,,,,,
Gaines,32.74074537,-102.6351246,31.666666666666668,wmoUnit:degC,11,0,16093.44,wmoUnit:m,,,,,,
Montgomery,30.30022409,-95.50301411,27.22222222222222,wmoUnit:degC,82,7,16093.44,wmoUnit:m,,,,,,
Concho,31.32645211,-99.86413426,26.666666666666668,wmoUnit:degC,58,12,16093.44,wmoUnit:m,,,,,,
Hardin,30.33238431,-94.39021394,25.0,wmoUnit:degC,90,2,15143.926794433579,wmoUnit:m,,,,,,
Harris,29.85967144,-95.39782106,27.77777777777778,wmoUnit:degC,77,1,16093.44,wmoUnit:m,,,,,,
Leon,31.29655719,-95.99554292,27.22222222222222,wmoUnit:degC,77,28,14017.386301391645,wmoUnit:m,,,,,,
Bowie,33.44572786,-94.42324298,27.77777777777778,wmoUnit:degC,79,56,9656.064,wmoUnit:m,,,,,,
Kaufman,32.59927808,-96.28779341,22.77777777777778,wmoUnit:degC,81,43,15884.225095825224,wmoUnit:m,,,,,,
Anderson,31.81321543,-95.65251774,24.444444444444443,wmoUnit:degC,87,40,11297.594849304178,wmoUnit:m,,,Flood Warning,Severe,Immediate,2025-05-18T22:30:00-05:00
San Saba,31.15520543,-98.81754295,23.88888888888889,wmoUnit:degC,82,11,16093.44,wmoUnit:m,,,,,,
Schleicher,30.89661056,-100.538097,27.22222222222222,wmoUnit:degC,49,10,16093.44,wmoUnit:m,,,,,,
Colorado,29.6208542,-96.52630821,26.666666666666668,wmoUnit:degC,79,3,16093.44,wmoUnit:m,,,,,,
Milam,30.78625299,-96.97683495,30.0,wmoUnit:degC,63,18,15401.421588867157,wmoUnit:m,,,,,,
Live Oak,28.3514375,-98.12474493,30.555555555555557,wmoUnit:degC,68,4,15723.291616699264,wmoUnit:m,,,,,,
Borden,32.7436916,-101.4317533,31.11111111111111,wmoUnit:degC,15,0,16093.44,wmoUnit:m,,,,,,
McCulloch,31.19896752,-99.34754972,24.444444444444443,wmoUnit:degC,74,12,16093.44,wmoUnit:m,,,,,,
Johnson,32.37899918,-97.36660504,22.22222222222222,wmoUnit:degC,84,21,16093.44,wmoUnit:m,,,,,,
Montague,33.67496328,-97.72466993,21.666666666666668,wmoUnit:degC,84,14,15884.225095825224,wmoUnit:m,,,,,,
Stonewall,33.17842158,-100.255259,26.666666666666668,wmoUnit:degC,44,3,16093.44,wmoUnit:m,,,,,,
Comal,29.80816362,-98.27814516,31.11111111111111,wmoUnit:degC,62,12,16093.44,wmoUnit:m,,,,,,
Eastland,32.32739258,-98.8325713,22.77777777777778,wmoUnit:degC,73,13,12070.08,wmoUnit:m,,,,,,
Comanche,31.9490639,-98.55841538,22.22222222222222,wmoUnit:degC,79,17,12520.696657653729,wmoUnit:m,,,,,,
King,33.61641863,-100.2558584,22.22222222222222,wmoUnit:degC,57,4,16093.44,wmoUnit:m,,,,,,
Washington,30.2145299,-96.40356575,27.22222222222222,wmoUnit:degC,77,9,16093.44,wmoUnit:m,,,,,,
Webb,27.76102524,-99.33170164,36.111111111111114,wmoUnit:degC,40,12,15803.757588867158,wmoUnit:m,,,,,,
Fayette,29.87683207,-96.91968047,29.444444444444443,wmoUnit:degC,63,1,12746.00460278313,wmoUnit:m,,,,,,
Harrison,32.54814898,-94.37155736,25.555555555555557,wmoUnit:degC,100,49,11265.408,wmoUnit:m,,,,,,
Presidio,29.99977786,-104.2405552,29.444444444444443,wmoUnit:degC,13,1,16093.44,wmoUnit:m,FW,W,Red Flag Warning,Severe,Expected,2025-05-18T15:00:00-05:00
Austin,29.88711223,-96.27791829,27.77777777777778,wmoUnit:degC,77,2,16093.44,wmoUnit:m,,,,,,
Randall,34.96594288,-101.8968527,22.77777777777778,wmoUnit:degC,37,0,,,,,,,,
Hood,32.43107878,-97.83280338,22.22222222222222,wmoUnit:degC,81,13,16029.066301391646,wmoUnit:m,,,,,,
Victoria,28.79640594,-96.97176602,27.77777777777778,wmoUnit:degC,79,3,13566.770411132842,wmoUnit:m,,,,,,
Hutchinson,35.84000866,-101.3547257,21.666666666666668,wmoUnit:degC,53,0,,,,,,,,
Coryell,31.39087578,-97.7991883,26.666666666666668,wmoUnit:degC,79,27,15256.580383300736,wmoUnit:m,,,,,,
Jackson,28.95603133,-96.57883268,26.666666666666668,wmoUnit:degC,88,4,12746.00460278313,wmoUnit:m,,,,,,
Taylor,32.30138229,-99.89003941,26.11111111111111,wmoUnit:degC,58,9,16093.44,wmoUnit:m,,,,,,
Zapata,27.00089072,-99.16860134,29.444444444444443,wmoUnit:degC,66,5,,,,,,,,
San Patricio,28.00922186,-97.51859857,27.22222222222222,wmoUnit:degC,88,6,12939.125698608354,wmoUnit:m,,,,,,
Grimes,30.54360689,-95.98557334,28.333333333333332,wmoUnit:degC,74,14,16093.44,wmoUnit:m,,,,,,
Lamb,34.06861242,-102.3517095,19.444444444444443,wmoUnit:degC,28,0,16093.44,wmoUnit:m,,,,,,
