countyName,latitude,longitude,temperature,temperature_unit,relativeHumidity,precipitationProbability,visibility,visibility_unit,hazard_phenomenon,hazard_significance,alert_event,alert_severity,alert_urgency,alert_expires
Foard,33.97408519,-99.77871109,26.11111111111111,wmoUnit:degC,70,21,,,,,,,,
Blanco,30.26636128,-98.39974086,26.11111111111111,wmoUnit:degC,79,33,16093.44,wmoUnit:m,,,,,,
Hockley,33.60750375,-102.3430919,26.666666666666668,wmoUnit:degC,44,9,16093.44,wmoUnit:m,,,,,,
Llano,30.70566579,-98.68387398,26.666666666666668,wmoUnit:degC,67,34,16093.44,wmoUnit:m,,,Special Weather Statement,Moderate,Expected,2025-06-11T21:00:00-05:00
Swisher,34.53064989,-101.734951,26.666666666666668,wmoUnit:degC,45,10,16093.44,wmoUnit:m,,,,,,
Titus,33.2160906,-94.96509786,25.555555555555557,wmoUnit:degC,85,90,11136.66060278313,wmoUnit:m,FA,A,Flood Warning,Severe,Immediate,2025-06-12T20:30:00-05:00
Navarro,32.04695429,-96.47248134,25.555555555555557,wmoUnit:degC,79,54,16093.44,wmoUnit:m,FA,A,Flood Warning,Severe,Expected,2025-06-12T10:30:00-05:00
Brazoria,29.19345387,-95.45578479,23.88888888888889,wmoUnit:degC,100,74,9656.064,wmoUnit:m,,,,,,
Hidalgo,26.396627,-98.18088681,36.111111111111114,wmoUnit:degC,46,38,,,,,,,,
Archer,33.61539176,-98.68783437,25.0,wmoUnit:degC,80,53,,,,,,,,
Refugio,28.32681413,-97.16546961,25.555555555555557,wmoUnit:degC,90,37,16093.44,wmoUnit:m,,,,,,
Andrews,32.30506283,-102.6378839,25.0,wmoUnit:degC,58,0,16093.44,wmoUnit:m,,,,,,
Galveston,29.39424415,-94.96474975,25.0,wmoUnit:degC,97,75,9656.064,wmoUnit:m,,,,,,
De Witt,29.08201599,-97.35666976,26.666666666666668,wmoUnit:degC,82,29,14468.002191650448,wmoUnit:m,,,,,,
Gonzales,29.45641495,-97.49279927,26.11111111111111,wmoUnit:degC,82,31,14468.002191650448,wmoUnit:m,,,,,,
Wharton,29.2778362,-96.22197375,23.333333333333332,wmoUnit:degC,93,69,9656.064,wmoUnit:m,,,,,,
Fannin,33.59396919,-96.10656755,22.77777777777778,wmoUnit:degC,90,79,9656.064,wmoUnit:m,FA,A,Flood Watch,Severe,Future,2025-06-11T20:45:00-05:00
Madison,30.96564645,-95.92818441,25.0,wmoUnit:degC,82,77,9656.064,wmoUnit:m,FA,A,Flood Watch,Severe,Future,2025-06-12T03:45:00-05:00
Moore,35.83768863,-101.8929556,22.77777777777778,wmoUnit:degC,68,0,,,,,,,,
Tyler,30.7712607,-94.37651432,28.88888888888889,wmoUnit:degC,77,61,11780.398356262243,wmoUnit:m,,,,,,
Lipscomb,36.27778432,-100.27317,22.77777777777778,wmoUnit:degC,73,0,,,,,,,,
Burleson,30.49246139,-96.62109399,27.22222222222222,wmoUnit:degC,67,66,9656.064,wmoUnit:m,FA,A,Flood Watch,Severe,Future,2025-06-12T03:45:00-05:00
Jim Hogg,27.04340499,-98.6972921,33.888888888888886,wmoUnit:degC,49,40,,,,,,,,
Throckmorton,33.17753907,-99.21236832,21.11111111111111,wmoUnit:degC,97,56,,,,,,,,
Kleberg,27.43274395,-97.72889778,25.555555555555557,wmoUnit:degC,90,17,16093.44,wmoUnit:m,,,,,,
Shelby,31.79242191,-94.14495261,26.666666666666668,wmoUnit:degC,83,59,16093.44,wmoUnit:m,FA,A,Flood Watch,Severe,Future,2025-06-12T19:00:00-05:00
Garza,33.17991074,-101.2984496,25.555555555555557,wmoUnit:degC,56,25,16093.44,wmoUnit:m,,,,,,
Karnes,28.90493782,-97.85960621,25.555555555555557,wmoUnit:degC,74,24,16093.44,wmoUnit:m,,,,,,
Reeves,31.32307061,-103.693143,24.444444444444443,wmoUnit:degC,64,0,16093.44,wmoUnit:m,,,,,,
Houston,31.31764137,-95.42225367,22.77777777777778,wmoUnit:degC,100,87,9656.064,wmoUnit:m,FA,A,Flood Warning,Severe,Immediate,2025-06-12T20:15:00-05:00
El Paso,31.7686226,-106.2352229,28.88888888888889,wmoUnit:degC,27,0,16093.44,wmoUnit:m,,,,,,
Carson,35.40346802,-101.3542037,21.666666666666668,wmoUnit:degC,76,0,,,,,,,,
Medina,29.35520493,-99.11008331,27.77777777777778,wmoUnit:degC,65,23,16093.44,wmoUnit:m,,,,,,
Wichita,33.98421585,-98.70153389,26.11111111111111,wmoUnit:degC,71,37,,,,,,,,
Chambers,29.73912276,-94.60891308,23.333333333333332,wmoUnit:degC,100,78,9656.064,wmoUnit:m,,,Flood Warning,Severe,Immediate,2025-06-12T03:30:00-05:00
Donley,34.96540246,-100.8140501,21.666666666666668,wmoUnit:degC,73,0,,,,,,,,
Hopkins,33.14933822,-95.56414173,23.88888888888889,wmoUnit:degC,84,89,9656.064,wmoUnit:m,FA,A,Flood Warning,Severe,Immediate,2025-06-12T12:00:00-05:00
Lampasas,31.19627791,-98.24142711,24.444444444444443,wmoUnit:degC,82,82,9656.064,wmoUnit:m,FA,A,Flood Watch,Severe,Future,2025-06-11T20:45:00-05:00
Falls,31.25317017,-96.93579511,26.11111111111111,wmoUnit:degC,82,93,9656.064,wmoUnit:m,FA,A,Flood Watch,Severe,Future,2025-06-11T20:45:00-05:00
Stephens,32.73584155,-98.83612016,23.333333333333332,wmoUnit:degC,87,77,9656.064,wmoUnit:m,,,,,,
Travis,30.33423319,-97.78194654,27.77777777777778,wmoUnit:degC,74,37,16093.44,wmoUnit:m,FA,A,Flood Watch,Severe,Future,2025-06-12T00:00:00-05:00
Roberts,35.8385577,-100.8135689,23.333333333333332,wmoUnit:degC,69,0,,,,,,,,
Crosby,33.61459873,-101.2998612,23.88888888888889,wmoUnit:degC,60,20,16093.44,wmoUnit:m,,,,,,
Kerr,30.06153035,-99.35016969,26.11111111111111,wmoUnit:degC,64,28,16093.44,wmoUnit:m,,,Flood Advisory,Minor,Expected,2025-06-11T22:00:00-05:00
Wood,32.78634374,-95.38206498,25.0,wmoUnit:degC,90,91,9495.129753478954,wmoUnit:m,FA,A,Flood Warning,Severe,Immediate,2025-06-12T20:30:00-05:00
Jack,33.23345819,-98.1725509,22.77777777777778,wmoUnit:degC,93,65,9656.064,wmoUnit:m,,,Flood Advisory,Minor,Expected,2025-06-11T21:00:00-05:00
Marion,32.79797929,-94.35725239,27.22222222222222,wmoUnit:degC,79,84,16093.44,wmoUnit:m,FA,A,Flood Warning,Severe,Expected,2025-06-12T20:45:00-05:00
Hale,34.07051782,-101.8269082,26.11111111111111,wmoUnit:degC,49,12,16093.44,wmoUnit:m,,,,,,
Jeff Davis,30.71559322,-104.1403539,21.11111111111111,wmoUnit:degC,47,0,16093.44,wmoUnit:m,,,,,,
Tarrant,32.77185236,-97.29116473,24.444444444444443,wmoUnit:degC,85,48,16093.44,wmoUnit:m,FA,A,Flood Watch,Severe,Future,2025-06-11T20:45:00-05:00
Waller,30.01093722,-95.98768942,23.88888888888889,wmoUnit:degC,94,69,9656.064,wmoUnit:m,FA,A,Flood Watch,Severe,Future,2025-06-12T03:45:00-05:00
Reagan,31.36617698,-101.5230108,23.88888888888889,wmoUnit:degC,64,0,16093.44,wmoUnit:m,,,,,,
Smith,32.37514553,-95.26909511,25.555555555555557,wmoUnit:degC,89,89,11136.66060278313,wmoUnit:m,FA,A,Flood Warning,Severe,Immediate,2025-06-12T20:30:00-05:00
Van Zandt,32.56368961,-95.8364862,25.0,wmoUnit:degC,82,58,9656.064,wmoUnit:m,FA,A,Flood Watch,Severe,Future,2025-06-11T20:45:00-05:00
Cooke,33.638465,-97.21247642,23.333333333333332,wmoUnit:degC,97,59,9656.064,wmoUnit:m,,,,,,
Zavala,28.86530621,-99.76102001,28.333333333333332,wmoUnit:degC,65,18,16093.44,wmoUnit:m,,,,,,
Hall,34.53074134,-100.6809876,26.666666666666668,wmoUnit:degC,58,16,16093.44,wmoUnit:m,,,,,,
Kendall,29.9446397,-98.71160511,26.11111111111111,wmoUnit:degC,72,27,16093.44,wmoUnit:m,,,,,,
Goliad,28.65708563,-97.42646082,25.0,wmoUnit:degC,88,35,16077.34619165045,wmoUnit:m,,,,,,
Yoakum,33.17293501,-102.8278792,25.0,wmoUnit:degC,48,5,16093.44,wmoUnit:m,,,,,,
Knox,33.60614755,-99.74144313,26.666666666666668,wmoUnit:degC,66,32,,,,,,,,
McLennan,31.55234489,-97.20184883,25.0,wmoUnit:degC,88,93,9656.064,wmoUnit:m,FA,A,Flood Advisory,Minor,Expected,2025-06-11T23:15:00-05:00
Brewster,29.81205836,-103.2518906,26.666666666666668,wmoUnit:degC,39,0,16093.44,wmoUnit:m,,,,,,
Panola,32.16222886,-94.30552858,26.666666666666668,wmoUnit:degC,81,70,16093.44,wmoUnit:m,FA,A,Flood Watch,Severe,Future,2025-06-12T19:00:00-05:00
Bandera,29.74724753,-99.24637282,27.22222222222222,wmoUnit:degC,63,26,16093.44,wmoUnit:m,,,,,,
Parmer,34.53014507,-102.784594,26.11111111111111,wmoUnit:degC,47,2,16093.44,wmoUnit:m,,,,,,
Rockwall,32.89786769,-96.40780584,24.444444444444443,wmoUnit:degC,87,67,9656.064,wmoUnit:m,FA,A,Flood Warning,Severe,Immediate,2025-06-12T12:15:00-05:00
Trinity,31.0885069,-95.13551682,23.88888888888889,wmoUnit:degC,94,87,9656.064,wmoUnit:m,FA,A,Flood Warning,Severe,Immediate,2025-06-12T20:15:00-05:00
Bosque,31.90050476,-97.63437613,23.88888888888889,wmoUnit:degC,87,84,9656.064,wmoUnit:m,FA,A,Flood Advisory,Minor,Expected,2025-06-11T23:15:00-05:00
Coke,31.88849293,-100.5298747,23.88888888888889,wmoUnit:degC,74,25,,,,,,,,
Franklin,33.17550691,-95.21841437,25.0,wmoUnit:degC,89,91,9479.0359451294,wmoUnit:m,FA,A,Flood Warning,Severe,Immediate,2025-06-12T20:30:00-05:00
Hill,31.99079033,-97.1324142,24.444444444444443,wmoUnit:degC,85,70,9656.064,wmoUnit:m,FA,A,Flood Advisory,Minor,Expected,2025-06-11T23:15:00-05:00
Calhoun,28.48966896,-96.64708119,25.555555555555557,wmoUnit:degC,87,49,16093.44,wmoUnit:m,,,,,,
Irion,31.30393203,-100.9824126,23.333333333333332,wmoUnit:degC,74,25,,,,,,,,
Midland,31.86921148,-102.0315032,25.555555555555557,wmoUnit:degC,56,0,16093.44,wmoUnit:m,,,,,,
Brown,31.77432313,-98.99989649,22.22222222222222,wmoUnit:degC,90,83,,,,,,,,
Wilson,29.17315896,-98.08621015,27.22222222222222,wmoUnit:degC,67,23,16093.44,wmoUnit:m,,,,,,
Oldham,35.40497586,-102.6029949,22.77777777777778,wmoUnit:degC,76,0,,,,,,,,
Freestone,31.70486443,-96.14918535,26.666666666666668,wmoUnit:degC,79,79,9656.064,wmoUnit:m,FA,A,Flood Watch,Severe,Future,2025-06-11T20:45:00-05:00
Sabine,31.34321941,-93.85170439,27.77777777777778,wmoUnit:degC,86,48,16093.44,wmoUnit:m,FA,A,Flood Watch,Severe,Future,2025-06-12T19:00:00-05:00
Deaf Smith,34.96602014,-102.6048162,19.444444444444443,wmoUnit:degC,87,0,,,,,,,,
Angelina,31.25475875,-94.611742,28.333333333333332,wmoUnit:degC,86,56,16093.44,wmoUnit:m,FA,A,Flood Warning,Severe,Immediate,2025-06-12T20:15:00-05:00
Kent,33.18284492,-100.7791031,25.0,wmoUnit:degC,67,34,16093.44,wmoUnit:m,,,,,,
Red River,33.62074539,-95.0501886,25.555555555555557,wmoUnit:degC,83,84,7934.065643737756,wmoUnit:m,FA,A,Flood Warning,Severe,Immediate,2025-06-12T20:30:00-05:00
Kinney,29.35000302,-100.4178441,26.666666666666668,wmoUnit:degC,65,17,16093.44,wmoUnit:m,,,,,,
Denton,33.205574,-97.11681154,24.444444444444443,wmoUnit:degC,87,71,9656.064,wmoUnit:m,FA,A,Flood Watch,Severe,Future,2025-06-11T20:45:00-05:00
Sutton,30.49747152,-100.5382263,22.22222222222222,wmoUnit:degC,76,47,,,,,,,,
Guadalupe,29.58257236,-97.94850308,27.77777777777778,wmoUnit:degC,65,29,16093.44,wmoUnit:m,,,,,,
Winkler,31.85008609,-103.0484794,25.0,wmoUnit:degC,54,0,16093.44,wmoUnit:m,,,,,,
Dimmit,28.42161168,-99.760574,28.88888888888889,wmoUnit:degC,67,15,16093.44,wmoUnit:m,,,,,,
Wise,33.21585061,-97.65444124,23.88888888888889,wmoUnit:degC,87,67,9656.064,wmoUnit:m,,,Flood Advisory,Minor,Expected,2025-06-11T21:00:00-05:00
Hemphill,35.83750155,-100.2704628,22.77777777777778,wmoUnit:degC,73,0,,,,,,,,
Potter,35.40128927,-101.8940484,22.22222222222222,wmoUnit:degC,76,0,,,,,,,,
Childress,34.52929257,-100.2075664,27.77777777777778,wmoUnit:degC,51,17,16093.44,wmoUnit:m,,,,,,
Willacy,26.47132899,-97.64303323,34.44444444444444,wmoUnit:degC,54,29,,,,,,,,
Bastrop,30.10353518,-97.31187705,26.11111111111111,wmoUnit:degC,79,41,16093.44,wmoUnit:m,FA,A,Flood Watch,Severe,Future,2025-06-12T00:00:00-05:00
Kimble,30.48676251,-99.74892716,21.11111111111111,wmoUnit:degC,90,72,,,,,Flash Flood Warning,Severe,Immediate,2025-06-11T22:15:00-05:00
Scurry,32.74720063,-100.9165071,22.77777777777778,wmoUnit:degC,87,0,16093.44,wmoUnit:m,,,,,,
Ochiltree,36.27846334,-100.815653,21.666666666666668,wmoUnit:degC,73,0,,,,,,,,
Hansford,36.27753179,-101.3545624,23.333333333333332,wmoUnit:degC,71,0,,,,,,,,
Hartley,35.83996755,-102.6028835,21.666666666666668,wmoUnit:degC,76,0,,,,,,,,
Cameron,26.13847728,-97.51499968,34.44444444444444,wmoUnit:degC,53,12,,,,,,,,
Matagorda,28.86711039,-95.98533866,24.444444444444443,wmoUnit:degC,94,66,9656.064,wmoUnit:m,,,,,,
Burnet,30.78843382,-98.18252382,25.555555555555557,wmoUnit:degC,74,38,16093.44,wmoUnit:m,FA,A,Flood Watch,Severe,Future,2025-06-12T00:00:00-05:00
Rains,32.87004212,-95.79347545,23.88888888888889,wmoUnit:degC,87,82,9656.064,wmoUnit:m,FA,A,Flood Watch,Severe,Future,2025-06-11T20:45:00-05:00
Hays,30.05782657,-98.03104087,26.666666666666668,wmoUnit:degC,74,35,16093.44,wmoUnit:m,,,,,,
Mason,30.71742293,-99.2263026,20.555555555555557,wmoUnit:degC,90,72,,,,,Flash Flood Warning,Severe,Immediate,2025-06-11T22:15:00-05:00
Ward,31.509424,-103.1024636,25.0,wmoUnit:degC,56,0,16093.44,wmoUnit:m,,,,,,
Delta,33.38623601,-95.67221685,23.88888888888889,wmoUnit:degC,84,86,9656.064,wmoUnit:m,FA,A,Flood Warning,Severe,Immediate,2025-06-12T12:00:00-05:00
Nueces,27.72621549,-97.61767326,24.444444444444443,wmoUnit:degC,89,19,16093.44,wmoUnit:m,,,,,,
Callahan,32.2977738,-99.37359692,21.11111111111111,wmoUnit:degC,93,46,,,,,Flash Flood Warning,Severe,Immediate,2025-06-11T21:15:00-05:00
Bell,31.03778267,-97.47790776,26.11111111111111,wmoUnit:degC,79,85,9656.064,wmoUnit:m,FA,A,Flood Watch,Severe,Future,2025-06-11T20:45:00-05:00
Cherokee,31.83695632,-95.16515234,25.555555555555557,wmoUnit:degC,92,77,16093.44,wmoUnit:m,FA,A,Flood Warning,Severe,Immediate,2025-06-12T20:15:00-05:00
Ellis,32.34839264,-96.79467417,23.88888888888889,wmoUnit:degC,84,50,16093.44,wmoUnit:m,FA,A,Flood Watch,Severe,Future,2025-06-11T20:45:00-05:00
Lubbock,33.6101944,-101.8205745,26.11111111111111,wmoUnit:degC,47,14,16093.44,wmoUnit:m,,,,,,
Terrell,30.22502597,-102.0764533,26.666666666666668,wmoUnit:degC,49,0,16093.44,wmoUnit:m,,,,,,
Crockett,30.72291931,-101.4118364,22.22222222222222,wmoUnit:degC,68,23,,,,,,,,
Atascosa,28.89418432,-98.52741302,28.88888888888889,wmoUnit:degC,57,19,16093.44,wmoUnit:m,,,,,,
Ector,31.86908156,-102.5430907,25.555555555555557,wmoUnit:degC,52,0,16093.44,wmoUnit:m,,,,,,
Brazos,30.6610425,-96.3022943,26.666666666666668,wmoUnit:degC,72,72,9656.064,wmoUnit:m,FA,A,Flood Watch,Severe,Future,2025-06-12T03:45:00-05:00
Aransas,28.12709562,-96.99258951,24.444444444444443,wmoUnit:degC,92,39,16093.44,wmoUnit:m,,,,,,
Dallas,32.76653746,-96.77781862,24.444444444444443,wmoUnit:degC,85,50,16093.44,wmoUnit:m,FA,A,Flood Watch,Severe,Future,2025-06-11T20:45:00-05:00
Howard,32.30610232,-101.4355097,24.444444444444443,wmoUnit:degC,71,0,16093.44,wmoUnit:m,,,,,,
Motley,34.07409017,-100.7798961,26.11111111111111,wmoUnit:degC,56,19,16093.44,wmoUnit:m,,,,,,
San Augustine,31.39427005,-94.16809762,27.77777777777778,wmoUnit:degC,85,52,16093.44,wmoUnit:m,FA,A,Flood Watch,Severe,Future,2025-06-12T19:00:00-05:00
Maverick,28.74260943,-100.3144638,27.77777777777778,wmoUnit:degC,72,14,16093.44,wmoUnit:m,,,,,,
Erath,32.23640361,-98.21722756,23.333333333333332,wmoUnit:degC,82,72,9656.064,wmoUnit:m,FA,A,Flood Watch,Severe,Future,2025-06-11T20:45:00-05:00
Dickens,33.61663428,-100.7788138,25.0,wmoUnit:degC,62,26,16093.44,wmoUnit:m,,,,,,
Caldwell,29.83677935,-97.61983479,27.77777777777778,wmoUnit:degC,69,35,16093.44,wmoUnit:m,,,,,,
Dawson,32.74258137,-101.9476136,22.77777777777778,wmoUnit:degC,73,0,16093.44,wmoUnit:m,,,,,,
Camp,32.97321771,-94.97860185,25.555555555555557,wmoUnit:degC,85,91,7934.065643737756,wmoUnit:m,FA,A,Flood Watch,Severe,Future,2025-06-12T19:00:00-05:00
Duval,27.68133382,-98.50889672,23.88888888888889,wmoUnit:degC,86,33,16093.44,wmoUnit:m,,,,,,
Hunt,33.123531,-96.08550014,23.88888888888889,wmoUnit:degC,87,84,9656.064,wmoUnit:m,FA,A,Flood Warning,Severe,Immediate,2025-06-12T12:15:00-05:00
Mills,31.49524259,-98.59552736,23.333333333333332,wmoUnit:degC,90,87,9656.064,wmoUnit:m,FA,A,Flood Watch,Severe,Future,2025-06-11T20:45:00-05:00
Val Verde,29.89300587,-101.15171,26.666666666666668,wmoUnit:degC,54,12,16093.44,wmoUnit:m,,,,,,
Pecos,30.78100044,-102.7235743,22.77777777777778,wmoUnit:degC,59,0,16093.44,wmoUnit:m,,,,,,
Baylor,33.61648147,-99.21351964,26.11111111111111,wmoUnit:degC,70,44,,,,,,,,
Gregg,32.48036452,-94.81723694,26.666666666666668,wmoUnit:degC,79,87,16093.44,wmoUnit:m,FA,A,Flood Warning,Severe,Immediate,2025-06-12T20:30:00-05:00
Cochran,33.60410808,-102.8285264,25.555555555555557,wmoUnit:degC,43,4,16093.44,wmoUnit:m,,,,,,
Jasper,30.74391255,-94.02495849,30.0,wmoUnit:degC,72,47,15691.104,wmoUnit:m,,,,,,
Hamilton,31.70479181,-98.11066654,23.88888888888889,wmoUnit:degC,87,87,9656.064,wmoUnit:m,FA,A,Flood Watch,Severe,Future,2025-06-11T20:45:00-05:00
Castro,34.53000304,-102.2617608,26.11111111111111,wmoUnit:degC,49,4,16093.44,wmoUnit:m,,,,,,
Sterling,31.82786516,-101.0500699,22.77777777777778,wmoUnit:degC,79,31,,,,,,,,
Starr,26.56212627,-98.73834895,35.55555555555556,wmoUnit:degC,46,36,,,,,,,,
Crane,31.42846287,-102.5156425,26.11111111111111,wmoUnit:degC,56,0,16093.44,wmoUnit:m,,,,,,
Morris,33.11368507,-94.73205137,26.11111111111111,wmoUnit:degC,82,89,11136.66060278313,wmoUnit:m,FA,A,Flood Warning,Severe,Immediate,2025-06-12T20:30:00-05:00
Briscoe,34.53041048,-101.2085769,25.0,wmoUnit:degC,58,14,16093.44,wmoUnit:m,,,,,,
Tom Green,31.4044442,-100.4620678,24.444444444444443,wmoUnit:degC,76,37,,,,,,,,
Menard,30.88981785,-99.82061472,22.22222222222222,wmoUnit:degC,79,62,,,,,,,,
Parker,32.77852261,-97.80472194,23.333333333333332,wmoUnit:degC,87,63,9656.064,wmoUnit:m,FA,A,Flood Watch,Severe,Future,2025-06-11T20:45:00-05:00
Walker,30.73899492,-95.57224172,22.77777777777778,wmoUnit:degC,93,81,9543.409643737756,wmoUnit:m,FA,A,Flood Watch,Severe,Future,2025-06-12T03:45:00-05:00
Brooks,27.0315669,-98.21874127,35.0,wmoUnit:degC,47,54,,,,,,,,
La Salle,28.34621032,-99.1034773,25.555555555555557,wmoUnit:degC,83,31,16093.44,wmoUnit:m,,,,,,
Edwards,29.98248216,-100.3048937,26.11111111111111,wmoUnit:degC,58,23,16093.44,wmoUnit:m,,,Flood Advisory,Minor,Expected,2025-06-11T22:00:00-05:00
Lee,30.31065065,-96.96568735,26.666666666666668,wmoUnit:degC,74,44,16093.44,wmoUnit:m,FA,A,Flood Watch,Severe,Future,2025-06-12T00:00:00-05:00
Robertson,31.02705415,-96.51272568,26.666666666666668,wmoUnit:degC,85,84,9656.064,wmoUnit:m,FA,A,Flood Warning,Severe,Immediate,2025-06-12T09:45:00-05:00
Young,33.17670764,-98.68781396,22.77777777777778,wmoUnit:degC,90,65,9656.064,wmoUnit:m,,,,,,
Bee,28.41736675,-97.74116811,25.555555555555557,wmoUnit:degC,80,26,16077.34619165045,wmoUnit:m,,,,,,
Clay,33.78379717,-98.208958,23.333333333333332,wmoUnit:degC,90,56,,,,,,,,
San Jacinto,30.57948905,-95.16683273,22.22222222222222,wmoUnit:degC,93,87,8754.831452087468,wmoUnit:m,,,,,,
Uvalde,29.35669829,-99.76203107,27.22222222222222,wmoUnit:degC,60,23,16093.44,wmoUnit:m,,,,,,
Haskell,33.17824805,-99.73029401,21.11111111111111,wmoUnit:degC,93,41,,,,,,,,
Somervell,32.22229511,-97.77456553,23.88888888888889,wmoUnit:degC,87,77,9656.064,wmoUnit:m,FA,A,Flood Watch,Severe,Future,2025-06-11T20:45:00-05:00
Bexar,29.44884523,-98.51966309,28.333333333333332,wmoUnit:degC,65,22,16093.44,wmoUnit:m,,,,,,
Grayson,33.62684371,-96.67764864,23.333333333333332,wmoUnit:degC,93,73,9656.064,wmoUnit:m,FA,A,Flood Watch,Severe,Future,2025-06-11T20:45:00-05:00
Bailey,34.0684915,-102.8299069,26.11111111111111,wmoUnit:degC,47,3,16093.44,wmoUnit:m,,,,,,
Jones,32.73970429,-99.87850599,21.666666666666668,wmoUnit:degC,90,51,,,,,Flash Flood Warning,Severe,Immediate,2025-06-11T21:15:00-05:00
Jefferson,29.88425832,-94.1708778,30.0,wmoUnit:degC,75,44,15852.039013915974,wmoUnit:m,,,,,,
Rusk,32.10803224,-94.76169577,26.666666666666668,wmoUnit:degC,82,79,16093.44,wmoUnit:m,FA,A,Flood Warning,Severe,Immediate,2025-06-12T20:30:00-05:00
Glasscock,31.8694238,-101.520742,23.88888888888889,wmoUnit:degC,64,0,16093.44,wmoUnit:m,,,,,,
Gillespie,30.31800246,-98.94627245,25.0,wmoUnit:degC,74,30,16093.44,wmoUnit:m,,,Special Weather Statement,Moderate,Expected,2025-06-11T21:00:00-05:00
Fisher,32.74305155,-100.4019503,20.555555555555557,wmoUnit:degC,97,36,,,,,,,,
Henderson,32.21188078,-95.85356847,25.555555555555557,wmoUnit:degC,79,50,11265.408,wmoUnit:m,FA,A,Flood Warning,Severe,Immediate,2025-06-12T10:30:00-05:00
Shackelford,32.7360276,-99.35403034,21.11111111111111,wmoUnit:degC,93,63,,,,,Flash Flood Warning,Severe,Immediate,2025-06-11T21:15:00-05:00
Palo Pinto,32.75316856,-98.31299522,23.333333333333332,wmoUnit:degC,87,81,9656.064,wmoUnit:m,,,,,,
Wilbarger,34.08044953,-99.24089568,25.0,wmoUnit:degC,73,28,,,,,,,,
Floyd,34.07239775,-101.3033037,25.555555555555557,wmoUnit:degC,52,16,16093.44,wmoUnit:m,,,,,,
Orange,30.12807126,-93.89653794,30.0,wmoUnit:degC,75,43,16093.44,wmoUnit:m,,,,,,
Runnels,31.83105393,-99.97624799,23.333333333333332,wmoUnit:degC,82,40,,,,,,,,
Coleman,31.77329421,-99.45362579,22.22222222222222,wmoUnit:degC,87,65,,,,,,,,
Martin,32.30605847,-101.9512464,23.88888888888889,wmoUnit:degC,69,0,16093.44,wmoUnit:m,,,,,,
Wheeler,35.40129002,-100.2697634,21.666666666666668,wmoUnit:degC,84,0,,,,,,,,
Culberson,31.44709817,-104.5177421,22.22222222222222,wmoUnit:degC,53,0,16093.44,wmoUnit:m,,,,,,
Mitchell,32.30636024,-100.9211128,26.11111111111111,wmoUnit:degC,72,0,16093.44,wmoUnit:m,,,,,,
Hudspeth,31.45613738,-105.3869428,23.88888888888889,wmoUnit:degC,43,0,16093.44,wmoUnit:m,,,,,,
Upshur,32.7362827,-94.94132011,26.11111111111111,wmoUnit:degC,83,90,7934.065643737756,wmoUnit:m,FA,A,Flood Watch,Severe,Future,2025-06-12T19:00:00-05:00
Liberty,30.15153187,-94.8120925,22.22222222222222,wmoUnit:degC,97,90,9382.47539721687,wmoUnit:m,,,Flood Warning,Severe,Immediate,2025-06-12T03:30:00-05:00
Williamson,30.64834941,-97.60105467,25.0,wmoUnit:degC,88,43,16093.44,wmoUnit:m,FA,A,Flood Watch,Severe,Future,2025-06-12T00:00:00-05:00
Nacogdoches,31.61604108,-94.6158776,27.22222222222222,wmoUnit:degC,89,63,16093.44,wmoUnit:m,FA,A,Flood Warning,Severe,Immediate,2025-06-12T20:15:00-05:00
Loving,31.84912973,-103.5799063,23.333333333333332,wmoUnit:degC,71,0,16093.44,wmoUnit:m,,,,,,
Jim Wells,27.73131099,-98.0898649,24.444444444444443,wmoUnit:degC,82,28,16093.44,wmoUnit:m,,,,,,
Upton,31.36853957,-102.0430005,23.88888888888889,wmoUnit:degC,71,0,16093.44,wmoUnit:m,,,,,,
Newton,30.78619977,-93.74462993,29.444444444444443,wmoUnit:degC,75,39,16093.44,wmoUnit:m,,,,,,
Lamar,33.66746186,-95.57110784,22.22222222222222,wmoUnit:degC,93,76,9656.064,wmoUnit:m,FA,A,Flood Watch,Severe,Future,2025-06-11T20:45:00-05:00
Polk,30.79250963,-94.82994949,25.555555555555557,wmoUnit:degC,85,89,9656.064,wmoUnit:m,,,Flood Warning,Severe,Immediate,2025-06-12T20:15:00-05:00
Collin,33.18789055,-96.57248871,24.444444444444443,wmoUnit:degC,87,77,9656.064,wmoUnit:m,FA,A,Flood Warning,Severe,Expected,2025-06-12T10:30:00-05:00
Hardeman,34.28865227,-99.7453851,26.666666666666668,wmoUnit:degC,63,15,,,,,,,,
McMullen,28.35351091,-98.56842256,24.444444444444443,wmoUnit:degC,83,36,16093.44,wmoUnit:m,,,,,,
Cottle,34.0776571,-100.2786983,26.11111111111111,wmoUnit:degC,58,23,16093.44,wmoUnit:m,,,,,,
Frio,28.86726774,-99.10826004,28.333333333333332,wmoUnit:degC,63,17,16093.44,wmoUnit:m,,,,,,
Gray,35.40130666,-100.812475,21.666666666666668,wmoUnit:degC,76,0,,,,,,,,
Dallam,36.27777107,-102.6021647,21.666666666666668,wmoUnit:degC,71,0,,,,,,,,
Kenedy,26.92409448,-97.68137783,34.44444444444444,wmoUnit:degC,61,47,,,,,,,,
Fort Bend,29.52763253,-95.77090562,24.444444444444443,wmoUnit:degC,94,75,9656.064,wmoUnit:m,,,,,,
Armstrong,34.96522076,-101.3572412,21.11111111111111,wmoUnit:degC,76,0,,,,,,,,
Collingsworth,34.96498493,-100.2700733,22.77777777777778,wmoUnit:degC,76,0,,,,,,,,
Cass,33.07750446,-94.34348771,26.666666666666668,wmoUnit:degC,79,81,16093.44,wmoUnit:m,FA,A,Flood Watch,Severe,Future,2025-06-12T19:00:00-05:00
Sherman,36.27765824,-101.8933822,23.88888888888889,wmoUnit:degC,64,0,,,,,,,,
Terry,33.17373729,-102.335157,25.555555555555557,wmoUnit:degC,48,10,16093.44,wmoUnit:m,,,,,,
Limestone,31.54541898,-96.58056718,25.555555555555557,wmoUnit:degC,88,87,9656.064,wmoUnit:m,FA,A,Flood Warning,Severe,Immediate,2025-06-12T09:45:00-05:00
Real,29.83182711,-99.82215881,23.88888888888889,wmoUnit:degC,71,25,16093.44,wmoUnit:m,,,,,,
Lynn,33.17685487,-101.8160235,25.0,wmoUnit:degC,54,16,16093.44,wmoUnit:m,,,,,,
Lavaca,29.38437003,-96.93020993,25.555555555555557,wmoUnit:degC,88,32,11265.408,wmoUnit:m,,,,,,
Nolan,32.3034718,-100.4060989,21.11111111111111,wmoUnit:degC,87,32,,,,,,,,
Gaines,32.74074537,-102.6351246,25.0,wmoUnit:degC,54,0,16093.44,wmoUnit:m,,,,,,
Montgomery,30.30022409,-95.50301411,22.77777777777778,wmoUnit:degC,100,80,9623.877150695822,wmoUnit:m,FA,A,Flood Watch,Severe,Future,2025-06-12T03:45:00-05:00
Concho,31.32645211,-99.86413426,22.77777777777778,wmoUnit:degC,81,57,,,,,,,,
Hardin,30.33238431,-94.39021394,29.444444444444443,wmoUnit:degC,77,54,15465.795287475512,wmoUnit:m,,,,,,
Harris,29.85967144,-95.39782106,23.88888888888889,wmoUnit:degC,87,81,9656.064,wmoUnit:m,,,,,,
Leon,31.29655719,-95.99554292,26.666666666666668,wmoUnit:degC,91,91,9656.064,wmoUnit:m,FA,A,Flood Warning,Severe,Immediate,2025-06-12T09:45:00-05:00
Bowie,33.44572786,-94.42324298,27.77777777777778,wmoUnit:degC,75,76,16093.44,wmoUnit:m,FA,A,Flood Warning,Severe,Immediate,2025-06-12T20:30:00-05:00
Kaufman,32.59927808,-96.28779341,24.444444444444443,wmoUnit:degC,82,51,16093.44,wmoUnit:m,FA,A,Flood Watch,Severe,Future,2025-06-11T20:45:00-05:00
Anderson,31.81321543,-95.65251774,25.555555555555557,wmoUnit:degC,82,83,9656.064,wmoUnit:m,FA,A,Flood Warning,Severe,Immediate,2025-06-12T20:15:00-05:00
San Saba,31.15520543,-98.81754295,21.666666666666668,wmoUnit:degC,90,74,,,,,,,,
Schleicher,30.89661056,-100.538097,22.77777777777778,wmoUnit:degC,71,45,,,,,,,,
Colorado,29.6208542,-96.52630821,24.444444444444443,wmoUnit:degC,90,66,9656.064,wmoUnit:m,FA,A,Flood Watch,Severe,Future,2025-06-12T03:45:00-05:00
Milam,30.78625299,-96.97683495,27.22222222222222,wmoUnit:degC,74,89,9656.064,wmoUnit:m,FA,A,Flood Warning,Severe,Immediate,2025-06-12T09:45:00-05:00
Live Oak,28.3514375,-98.12474493,26.11111111111111,wmoUnit:degC,78,30,16077.34619165045,wmoUnit:m,,,,,,
Borden,32.7436916,-101.4317533,23.333333333333332,wmoUnit:degC,71,0,16093.44,wmoUnit:m,,,,,,
McCulloch,31.19896752,-99.34754972,21.666666666666668,wmoUnit:degC,87,82,,,,,,,,
Johnson,32.37899918,-97.36660504,23.88888888888889,wmoUnit:degC,87,58,9656.064,wmoUnit:m,FA,A,Flood Watch,Severe,Future,2025-06-11T20:45:00-05:00
Montague,33.67496328,-97.72466993,23.88888888888889,wmoUnit:degC,90,52,16093.44,wmoUnit:m,,,,,,
Stonewall,33.17842158,-100.255259,25.0,wmoUnit:degC,71,44,16093.44,wmoUnit:m,,,,,,
Comal,29.80816362,-98.27814516,26.11111111111111,wmoUnit:degC,74,29,16093.44,wmoUnit:m,,,,,,
Eastland,32.32739258,-98.8325713,21.666666666666668,wmoUnit:degC,93,80,9656.064,wmoUnit:m,,,,,,
Comanche,31.9490639,-98.55841538,23.333333333333332,wmoUnit:degC,93,81,9656.064,wmoUnit:m,FA,A,Flood Watch,Severe,Future,2025-06-11T20:45:00-05:00
King,33.61641863,-100.2558584,25.0,wmoUnit:degC,71,33,16093.44,wmoUnit:m,,,,,,
Washington,30.2145299,-96.40356575,25.0,wmoUnit:degC,79,65,9656.064,wmoUnit:m,FA,A,Flood Watch,Severe,Future,2025-06-12T03:45:00-05:00
Webb,27.76102524,-99.33170164,26.11111111111111,wmoUnit:degC,80,22,16093.44,wmoUnit:m,,,,,,
Fayette,29.87683207,-96.91968047,26.11111111111111,wmoUnit:degC,79,39,16093.44,wmoUnit:m,FA,A,Flood Watch,Severe,Future,2025-06-12T00:00:00-05:00
Harrison,32.54814898,-94.37155736,26.666666666666668,wmoUnit:degC,81,82,16093.44,wmoUnit:m,FA,A,Flood Warning,Severe,Expected,2025-06-12T20:45:00-05:00
Presidio,29.99977786,-104.2405552,26.666666666666668,wmoUnit:degC,33,0,16093.44,wmoUnit:m,,,,,,
Austin,29.88711223,-96.27791829,23.88888888888889,wmoUnit:degC,94,65,9656.064,wmoUnit:m,FA,A,Flood Watch,Severe,Future,2025-06-12T03:45:00-05:00
Randall,34.96594288,-101.8968527,20.0,wmoUnit:degC,93,0,,,,,,,,
Hood,32.43107878,-97.83280338,23.333333333333332,wmoUnit:degC,90,62,9656.064,wmoUnit:m,FA,A,Flood Watch,Severe,Future,2025-06-11T20:45:00-05:00
Victoria,28.79640594,-96.97176602,25.0,wmoUnit:degC,85,44,16093.44,wmoUnit:m,,,,,,
Hutchinson,35.84000866,-101.3547257,22.22222222222222,wmoUnit:degC,79,0,,,,,,,,
Coryell,31.39087578,-97.7991883,25.0,wmoUnit:degC,88,85,9656.064,wmoUnit:m,FA,A,Flood Watch,Severe,Future,2025-06-11T20:45:00-05:00
Jackson,28.95603133,-96.57883268,25.0,wmoUnit:degC,97,64,9656.064,wmoUnit:m,,,,,,
Taylor,32.30138229,-99.89003941,20.555555555555557,wmoUnit:degC,93,40,,,,,Flash Flood Warning,Severe,Immediate,2025-06-11T21:15:00-05:00
Zapata,27.00089072,-99.16860134,33.888888888888886,wmoUnit:degC,49,20,,,,,,,,
San Patricio,28.00922186,-97.51859857,25.0,wmoUnit:degC,88,29,16093.44,wmoUnit:m,,,,,,
Grimes,30.54360689,-95.98557334,24.444444444444443,wmoUnit:degC,90,74,9656.064,wmoUnit:m,FA,A,Flood Watch,Severe,Future,2025-06-12T03:45:00-05:00
Lamb,34.06861242,-102.3517095,25.555555555555557,wmoUnit:degC,52,6,16093.44,wmoUnit:m,,,,,,
