countyName,latitude,longitude,temperature,temperature_unit,relativeHumidity,precipitationProbability,visibility,visibility_unit,hazard_phenomenon,hazard_significance,alert_event,alert_severity,alert_urgency,alert_expires
Foard,33.97408519,-99.77871109,24.444444444444443,wmoUnit:degC,69,4,,,,,,,,
Blanco,30.26636128,-98.39974086,28.88888888888889,wmoUnit:degC,60,16,16093.44,wmoUnit:m,,,,,,
Hockley,33.60750375,-102.3430919,25.0,wmoUnit:degC,45,12,16093.44,wmoUnit:m,,,,,,
Llano,30.70566579,-98.68387398,30.0,wmoUnit:degC,50,11,16093.44,wmoUnit:m,,,,,,
Swisher,34.53064989,-101.734951,21.11111111111111,wmoUnit:degC,71,7,16093.44,wmoUnit:m,,,,,,
Titus,33.2160906,-94.96509786,26.11111111111111,wmoUnit:degC,70,11,11265.408,wmoUnit:m,,,,,,
Navarro,32.04695429,-96.47248134,27.22222222222222,wmoUnit:degC,60,0,16093.44,wmoUnit:m,,,Flood Warning,Severe,Immediate,2025-05-28T15:00:00-05:00
Brazoria,29.19345387,-95.45578479,26.11111111111111,wmoUnit:degC,86,10,16093.44,wmoUnit:m,,,,,,
Hidalgo,26.396627,-98.18088681,31.666666666666668,wmoUnit:degC,62,6,,,SV,A,Severe Thunderstorm Watch,Severe,Future,2025-05-28T08:00:00-05:00
Archer,33.61539176,-98.68783437,25.555555555555557,wmoUnit:degC,71,8,,,,,,,,
Refugio,28.32681413,-97.16546961,30.0,wmoUnit:degC,68,10,16093.44,wmoUnit:m,,,,,,
Andrews,32.30506283,-102.6378839,27.22222222222222,wmoUnit:degC,47,14,16093.44,wmoUnit:m,SV,A,,,,
Galveston,29.39424415,-94.96474975,27.22222222222222,wmoUnit:degC,82,9,16093.44,wmoUnit:m,,,,,,
De Witt,29.08201599,-97.35666976,30.0,wmoUnit:degC,63,14,16093.44,wmoUnit:m,,,,,,
Gonzales,29.45641495,-97.49279927,31.11111111111111,wmoUnit:degC,61,12,16093.44,wmoUnit:m,,,,,,
Wharton,29.2778362,-96.22197375,27.22222222222222,wmoUnit:degC,79,12,16093.44,wmoUnit:m,,,,,,
Fannin,33.59396919,-96.10656755,25.0,wmoUnit:degC,69,1,16093.44,wmoUnit:m,,,,,,
Madison,30.96564645,-95.92818441,25.0,wmoUnit:degC,85,4,16093.44,wmoUnit:m,,,,,,
Moore,35.83768863,-101.8929556,21.666666666666668,wmoUnit:degC,47,2,,,,,,,,
Tyler,30.7712607,-94.37651432,27.22222222222222,wmoUnit:degC,72,13,16077.34619165045,wmoUnit:m,,,,,,
Lipscomb,36.27778432,-100.27317,19.444444444444443,wmoUnit:degC,65,8,,,,,,,,
Burleson,30.49246139,-96.62109399,26.666666666666668,wmoUnit:degC,70,3,16093.44,wmoUnit:m,,,,,,
Jim Hogg,27.04340499,-98.6972921,31.11111111111111,wmoUnit:degC,60,22,,,SV,A,Severe Thunderstorm Watch,Severe,Future,2025-05-28T08:00:00-05:00
Throckmorton,33.17753907,-99.21236832,26.11111111111111,wmoUnit:degC,60,3,,,,,,,,
Kleberg,27.43274395,-97.72889778,30.555555555555557,wmoUnit:degC,72,7,16093.44,wmoUnit:m,SV,A,Severe Thunderstorm Watch,Severe,Future,2025-05-28T08:00:00-05:00
Shelby,31.79242191,-94.14495261,27.22222222222222,wmoUnit:degC,62,20,16093.44,wmoUnit:m,,,,,,
Garza,33.17991074,-101.2984496,23.88888888888889,wmoUnit:degC,58,5,16093.44,wmoUnit:m,,,,,,
Karnes,28.90493782,-97.85960621,30.555555555555557,wmoUnit:degC,60,15,16093.44,wmoUnit:m,,,,,,
Reeves,31.32307061,-103.693143,28.333333333333332,wmoUnit:degC,41,24,16093.44,wmoUnit:m,SV,A,,,,
Houston,31.31764137,-95.42225367,25.555555555555557,wmoUnit:degC,83,3,16093.44,wmoUnit:m,,,,,,
El Paso,31.7686226,-106.2352229,33.333333333333336,wmoUnit:degC,6,9,15884.225095825224,wmoUnit:m,,,,,,
Carson,35.40346802,-101.3542037,19.444444444444443,wmoUnit:degC,59,3,,,,,,,,
Medina,29.35520493,-99.11008331,29.444444444444443,wmoUnit:degC,63,8,16093.44,wmoUnit:m,,,,,,
Wichita,33.98421585,-98.70153389,25.555555555555557,wmoUnit:degC,64,11,,,,,,,,
Chambers,29.73912276,-94.60891308,25.0,wmoUnit:degC,85,8,16093.44,wmoUnit:m,,,,,,
Donley,34.96540246,-100.8140501,21.11111111111111,wmoUnit:degC,68,4,,,,,,,,
Hopkins,33.14933822,-95.56414173,26.11111111111111,wmoUnit:degC,60,1,16093.44,wmoUnit:m,,,,,,
Lampasas,31.19627791,-98.24142711,27.22222222222222,wmoUnit:degC,65,3,16093.44,wmoUnit:m,,,,,,
Falls,31.25317017,-96.93579511,27.77777777777778,wmoUnit:degC,67,1,16093.44,wmoUnit:m,,,,,,
Stephens,32.73584155,-98.83612016,26.666666666666668,wmoUnit:degC,54,1,11265.408,wmoUnit:m,,,,,,
Travis,30.33423319,-97.78194654,30.555555555555557,wmoUnit:degC,58,14,16093.44,wmoUnit:m,,,,,,
Roberts,35.8385577,-100.8135689,21.11111111111111,wmoUnit:degC,51,2,,,,,,,,
Crosby,33.61459873,-101.2998612,21.666666666666668,wmoUnit:degC,68,7,16093.44,wmoUnit:m,,,,,,
Kerr,30.06153035,-99.35016969,30.0,wmoUnit:degC,52,33,16093.44,wmoUnit:m,,,Special Weather Statement,Moderate,Expected,2025-05-28T02:30:00-05:00
Wood,32.78634374,-95.38206498,26.11111111111111,wmoUnit:degC,68,8,16093.44,wmoUnit:m,,,,,,
Jack,33.23345819,-98.1725509,26.666666666666668,wmoUnit:degC,58,2,16093.44,wmoUnit:m,,,,,,
Marion,32.79797929,-94.35725239,27.77777777777778,wmoUnit:degC,68,11,16093.44,wmoUnit:m,,,Flood Warning,Severe,Immediate,2025-05-28T20:45:00-05:00
Hale,34.07051782,-101.8269082,23.88888888888889,wmoUnit:degC,60,10,16093.44,wmoUnit:m,,,,,,
Jeff Davis,30.71559322,-104.1403539,20.0,wmoUnit:degC,44,32,16093.44,wmoUnit:m,SV,A,,,,
Tarrant,32.77185236,-97.29116473,27.77777777777778,wmoUnit:degC,56,1,16093.44,wmoUnit:m,,,,,,
Waller,30.01093722,-95.98768942,26.666666666666668,wmoUnit:degC,79,8,16093.44,wmoUnit:m,,,,,,
Reagan,31.36617698,-101.5230108,27.77777777777778,wmoUnit:degC,49,27,16093.44,wmoUnit:m,SV,A,,,,
Smith,32.37514553,-95.26909511,28.333333333333332,wmoUnit:degC,65,8,16093.44,wmoUnit:m,,,Flood Warning,Severe,Immediate,2025-05-28T20:45:00-05:00
Van Zandt,32.56368961,-95.8364862,26.11111111111111,wmoUnit:degC,69,0,16093.44,wmoUnit:m,,,,,,
Cooke,33.638465,-97.21247642,25.555555555555557,wmoUnit:degC,64,2,16093.44,wmoUnit:m,,,,,,
Zavala,28.86530621,-99.76102001,31.11111111111111,wmoUnit:degC,56,38,9656.064,wmoUnit:m,,,,,,
Hall,34.53074134,-100.6809876,23.88888888888889,wmoUnit:degC,60,4,16093.44,wmoUnit:m,,,,,,
Kendall,29.9446397,-98.71160511,28.88888888888889,wmoUnit:degC,62,18,16093.44,wmoUnit:m,,,,,,
Goliad,28.65708563,-97.42646082,30.0,wmoUnit:degC,63,10,16093.44,wmoUnit:m,,,,,,
Yoakum,33.17293501,-102.8278792,25.555555555555557,wmoUnit:degC,45,16,16093.44,wmoUnit:m,,,,,,
Knox,33.60614755,-99.74144313,25.0,wmoUnit:degC,67,2,,,,,,,,
McLennan,31.55234489,-97.20184883,28.333333333333332,wmoUnit:degC,61,1,16093.44,wmoUnit:m,,,,,,
Brewster,29.81205836,-103.2518906,23.88888888888889,wmoUnit:degC,60,49,16093.44,wmoUnit:m,SV,A,,,,
Panola,32.16222886,-94.30552858,28.333333333333332,wmoUnit:degC,63,12,16093.44,wmoUnit:m,,,,,,
Bandera,29.74724753,-99.24637282,29.444444444444443,wmoUnit:degC,59,22,16093.44,wmoUnit:m,,,,,,
Parmer,34.53014507,-102.784594,22.77777777777778,wmoUnit:degC,57,6,16093.44,wmoUnit:m,,,,,,
Rockwall,32.89786769,-96.40780584,26.11111111111111,wmoUnit:degC,60,1,16093.44,wmoUnit:m,,,,,,
Trinity,31.0885069,-95.13551682,25.555555555555557,wmoUnit:degC,80,6,16093.44,wmoUnit:m,,,Flood Warning,Severe,Immediate,2025-05-28T20:45:00-05:00
Bosque,31.90050476,-97.63437613,27.77777777777778,wmoUnit:degC,58,1,16093.44,wmoUnit:m,,,,,,
Coke,31.88849293,-100.5298747,28.88888888888889,wmoUnit:degC,46,27,,,,,,,,
Franklin,33.17550691,-95.21841437,26.11111111111111,wmoUnit:degC,70,10,11265.408,wmoUnit:m,,,,,,
Hill,31.99079033,-97.1324142,27.77777777777778,wmoUnit:degC,58,0,16093.44,wmoUnit:m,,,,,,
Calhoun,28.48966896,-96.64708119,30.555555555555557,wmoUnit:degC,68,9,16093.44,wmoUnit:m,,,,,,
Irion,31.30393203,-100.9824126,28.333333333333332,wmoUnit:degC,48,40,,,SV,A,Flood Advisory,Minor,Expected,2025-05-28T02:45:00-05:00
Midland,31.86921148,-102.0315032,28.333333333333332,wmoUnit:degC,46,25,16093.44,wmoUnit:m,SV,A,,,,
Brown,31.77432313,-98.99989649,27.22222222222222,wmoUnit:degC,56,2,,,,,Special Weather Statement,Moderate,Expected,2025-05-28T02:45:00-05:00
Wilson,29.17315896,-98.08621015,29.444444444444443,wmoUnit:degC,73,8,16093.44,wmoUnit:m,,,,,,
Oldham,35.40497586,-102.6029949,21.11111111111111,wmoUnit:degC,66,1,,,,,,,,
Freestone,31.70486443,-96.14918535,27.22222222222222,wmoUnit:degC,63,0,16093.44,wmoUnit:m,,,,,,
Sabine,31.34321941,-93.85170439,29.444444444444443,wmoUnit:degC,69,34,16093.44,wmoUnit:m,,,,,,
Deaf Smith,34.96602014,-102.6048162,20.0,wmoUnit:degC,68,15,,,,,,,,
Angelina,31.25475875,-94.611742,29.444444444444443,wmoUnit:degC,65,24,16093.44,wmoUnit:m,,,Flood Warning,Severe,Immediate,2025-05-28T20:45:00-05:00
Kent,33.18284492,-100.7791031,24.444444444444443,wmoUnit:degC,62,3,16093.44,wmoUnit:m,,,,,,
Red River,33.62074539,-95.0501886,25.555555555555557,wmoUnit:degC,69,13,16093.44,wmoUnit:m,,,Flood Warning,Severe,Immediate,2025-05-28T20:45:00-05:00
Kinney,29.35000302,-100.4178441,30.555555555555557,wmoUnit:degC,47,50,9656.064,wmoUnit:m,SV,A,Severe Thunderstorm Watch,Severe,Future,2025-05-28T08:00:00-05:00
Denton,33.205574,-97.11681154,26.666666666666668,wmoUnit:degC,60,2,16093.44,wmoUnit:m,,,Flood Warning,Severe,Immediate,2025-05-28T15:00:00-05:00
Sutton,30.49747152,-100.5382263,29.444444444444443,wmoUnit:degC,45,47,,,SV,A,Flood Advisory,Minor,Expected,2025-05-28T03:30:00-05:00
Guadalupe,29.58257236,-97.94850308,30.0,wmoUnit:degC,67,5,16093.44,wmoUnit:m,,,,,,
Winkler,31.85008609,-103.0484794,26.666666666666668,wmoUnit:degC,52,19,16093.44,wmoUnit:m,SV,A,,,,
Dimmit,28.42161168,-99.760574,32.22222222222222,wmoUnit:degC,52,53,9656.064,wmoUnit:m,SV,A,Severe Thunderstorm Watch,Severe,Future,2025-05-28T08:00:00-05:00
Wise,33.21585061,-97.65444124,26.666666666666668,wmoUnit:degC,60,1,16093.44,wmoUnit:m,,,Flood Warning,Severe,Immediate,2025-05-28T15:00:00-05:00
Hemphill,35.83750155,-100.2704628,19.444444444444443,wmoUnit:degC,68,12,,,,,,,,
Potter,35.40128927,-101.8940484,18.333333333333332,wmoUnit:degC,68,6,,,,,,,,
Childress,34.52929257,-100.2075664,23.88888888888889,wmoUnit:degC,62,2,16093.44,wmoUnit:m,,,,,,
Willacy,26.47132899,-97.64303323,28.88888888888889,wmoUnit:degC,81,6,,,SV,A,Severe Thunderstorm Watch,Severe,Future,2025-05-28T08:00:00-05:00
Bastrop,30.10353518,-97.31187705,31.11111111111111,wmoUnit:degC,54,10,16093.44,wmoUnit:m,,,,,,
Kimble,30.48676251,-99.74892716,28.88888888888889,wmoUnit:degC,59,37,,,,,Severe Thunderstorm Warning,Severe,Immediate,2025-05-28T02:15:00-05:00
Scurry,32.74720063,-100.9165071,26.11111111111111,wmoUnit:degC,50,2,16093.44,wmoUnit:m,,,,,,
Ochiltree,36.27846334,-100.815653,20.0,wmoUnit:degC,54,3,,,,,,,,
Hansford,36.27753179,-101.3545624,20.555555555555557,wmoUnit:degC,57,0,,,,,,,,
Hartley,35.83996755,-102.6028835,21.11111111111111,wmoUnit:degC,53,0,,,,,,,,
Cameron,26.13847728,-97.51499968,28.88888888888889,wmoUnit:degC,81,6,,,SV,A,Severe Thunderstorm Watch,Severe,Future,2025-05-28T08:00:00-05:00
Matagorda,28.86711039,-95.98533866,27.22222222222222,wmoUnit:degC,83,10,16093.44,wmoUnit:m,,,,,,
Burnet,30.78843382,-98.18252382,27.22222222222222,wmoUnit:degC,64,8,16093.44,wmoUnit:m,,,,,,
Rains,32.87004212,-95.79347545,26.11111111111111,wmoUnit:degC,64,1,16093.44,wmoUnit:m,,,,,,
Hays,30.05782657,-98.03104087,29.444444444444443,wmoUnit:degC,66,15,16093.44,wmoUnit:m,,,,,,
Mason,30.71742293,-99.2263026,27.22222222222222,wmoUnit:degC,67,31,,,,,Special Weather Statement,Moderate,Expected,2025-05-28T02:15:00-05:00
Ward,31.509424,-103.1024636,26.666666666666668,wmoUnit:degC,44,28,16093.44,wmoUnit:m,SV,A,,,,
Delta,33.38623601,-95.67221685,25.555555555555557,wmoUnit:degC,64,1,16093.44,wmoUnit:m,,,,,,
Nueces,27.72621549,-97.61767326,30.555555555555557,wmoUnit:degC,70,9,16093.44,wmoUnit:m,SV,A,Severe Thunderstorm Watch,Severe,Future,2025-05-28T08:00:00-05:00
Callahan,32.2977738,-99.37359692,25.555555555555557,wmoUnit:degC,60,2,,,,,Special Weather Statement,Moderate,Expected,2025-05-28T02:45:00-05:00
Bell,31.03778267,-97.47790776,27.77777777777778,wmoUnit:degC,63,2,16093.44,wmoUnit:m,,,,,,
Cherokee,31.83695632,-95.16515234,27.77777777777778,wmoUnit:degC,64,10,16093.44,wmoUnit:m,,,Flood Warning,Severe,Immediate,2025-05-28T20:45:00-05:00
Ellis,32.34839264,-96.79467417,27.22222222222222,wmoUnit:degC,67,1,16093.44,wmoUnit:m,,,,,,
Lubbock,33.6101944,-101.8205745,24.444444444444443,wmoUnit:degC,52,9,16093.44,wmoUnit:m,,,,,,
Terrell,30.22502597,-102.0764533,27.77777777777778,wmoUnit:degC,47,56,16093.44,wmoUnit:m,SV,A,,,,
Crockett,30.72291931,-101.4118364,28.88888888888889,wmoUnit:degC,41,60,,,SV,A,,,,
Atascosa,28.89418432,-98.52741302,30.0,wmoUnit:degC,65,15,16093.44,wmoUnit:m,,,,,,
Ector,31.86908156,-102.5430907,26.666666666666668,wmoUnit:degC,47,27,16093.44,wmoUnit:m,SV,A,,,,
Brazos,30.6610425,-96.3022943,26.11111111111111,wmoUnit:degC,79,4,16093.44,wmoUnit:m,,,,,,
Aransas,28.12709562,-96.99258951,28.88888888888889,wmoUnit:degC,82,9,16093.44,wmoUnit:m,,,,,,
Dallas,32.76653746,-96.77781862,27.77777777777778,wmoUnit:degC,55,2,16093.44,wmoUnit:m,,,,,,
Howard,32.30610232,-101.4355097,28.333333333333332,wmoUnit:degC,39,8,16093.44,wmoUnit:m,,,,,,
Motley,34.07409017,-100.7798961,22.77777777777778,wmoUnit:degC,71,6,16093.44,wmoUnit:m,,,,,,
San Augustine,31.39427005,-94.16809762,29.444444444444443,wmoUnit:degC,66,27,16093.44,wmoUnit:m,,,,,,
Maverick,28.74260943,-100.3144638,33.333333333333336,wmoUnit:degC,51,54,9656.064,wmoUnit:m,SV,A,Severe Thunderstorm Watch,Severe,Future,2025-05-28T08:00:00-05:00
Erath,32.23640361,-98.21722756,26.666666666666668,wmoUnit:degC,60,0,16093.44,wmoUnit:m,,,,,,
Dickens,33.61663428,-100.7788138,23.333333333333332,wmoUnit:degC,64,5,16093.44,wmoUnit:m,,,,,,
Caldwell,29.83677935,-97.61983479,30.555555555555557,wmoUnit:degC,63,11,16093.44,wmoUnit:m,,,,,,
Dawson,32.74258137,-101.9476136,26.666666666666668,wmoUnit:degC,44,6,16093.44,wmoUnit:m,,,,,,
Camp,32.97321771,-94.97860185,26.666666666666668,wmoUnit:degC,63,10,11265.408,wmoUnit:m,,,,,,
Duval,27.68133382,-98.50889672,32.77777777777778,wmoUnit:degC,54,11,16093.44,wmoUnit:m,SV,A,Severe Thunderstorm Watch,Severe,Future,2025-05-28T08:00:00-05:00
Hunt,33.123531,-96.08550014,25.555555555555557,wmoUnit:degC,67,1,11265.408,wmoUnit:m,,,,,,
Mills,31.49524259,-98.59552736,26.11111111111111,wmoUnit:degC,64,2,16093.44,wmoUnit:m,,,,,,
Val Verde,29.89300587,-101.15171,28.88888888888889,wmoUnit:degC,53,68,9656.064,wmoUnit:m,SV,A,Flood Advisory,Minor,Expected,2025-05-28T06:00:00-05:00
Pecos,30.78100044,-102.7235743,18.88888888888889,wmoUnit:degC,57,64,16093.44,wmoUnit:m,SV,A,,,,
Baylor,33.61648147,-99.21351964,25.0,wmoUnit:degC,69,6,,,,,,,,
Gregg,32.48036452,-94.81723694,27.77777777777778,wmoUnit:degC,59,8,16093.44,wmoUnit:m,,,Flood Warning,Severe,Immediate,2025-05-28T20:45:00-05:00
Cochran,33.60410808,-102.8285264,25.555555555555557,wmoUnit:degC,42,16,16093.44,wmoUnit:m,,,,,,
Jasper,30.74391255,-94.02495849,28.333333333333332,wmoUnit:degC,67,12,16093.44,wmoUnit:m,,,,,,
Hamilton,31.70479181,-98.11066654,27.22222222222222,wmoUnit:degC,60,1,16093.44,wmoUnit:m,,,,,,
Castro,34.53000304,-102.2617608,22.22222222222222,wmoUnit:degC,66,7,16093.44,wmoUnit:m,,,,,,
Sterling,31.82786516,-101.0500699,28.88888888888889,wmoUnit:degC,46,38,,,,,,,,
Starr,26.56212627,-98.73834895,31.666666666666668,wmoUnit:degC,59,25,,,SV,A,Severe Thunderstorm Watch,Severe,Future,2025-05-28T08:00:00-05:00
Crane,31.42846287,-102.5156425,28.333333333333332,wmoUnit:degC,66,44,16093.44,wmoUnit:m,SV,A,,,,
Morris,33.11368507,-94.73205137,26.11111111111111,wmoUnit:degC,67,11,11265.408,wmoUnit:m,,,,,,
Briscoe,34.53041048,-101.2085769,20.0,wmoUnit:degC,76,6,16093.44,wmoUnit:m,,,,,,
Tom Green,31.4044442,-100.4620678,28.333333333333332,wmoUnit:degC,53,35,,,SV,A,Flood Advisory,Minor,Expected,2025-05-28T02:45:00-05:00
Menard,30.88981785,-99.82061472,27.77777777777778,wmoUnit:degC,61,33,,,,,Special Weather Statement,Moderate,Expected,2025-05-28T02:15:00-05:00
Parker,32.77852261,-97.80472194,26.11111111111111,wmoUnit:degC,58,1,16093.44,wmoUnit:m,,,,,,
Walker,30.73899492,-95.57224172,26.11111111111111,wmoUnit:degC,73,6,16093.44,wmoUnit:m,,,,,,
Brooks,27.0315669,-98.21874127,30.555555555555557,wmoUnit:degC,67,10,,,SV,A,Severe Thunderstorm Watch,Severe,Future,2025-05-28T08:00:00-05:00
La Salle,28.34621032,-99.1034773,33.333333333333336,wmoUnit:degC,52,32,16093.44,wmoUnit:m,SV,A,Special Weather Statement,Moderate,Expected,2025-05-28T02:45:00-05:00
Edwards,29.98248216,-100.3048937,28.88888888888889,wmoUnit:degC,50,37,9656.064,wmoUnit:m,,,,,,
Lee,30.31065065,-96.96568735,30.555555555555557,wmoUnit:degC,53,2,16093.44,wmoUnit:m,,,,,,
Robertson,31.02705415,-96.51272568,28.333333333333332,wmoUnit:degC,63,1,16093.44,wmoUnit:m,,,Flood Warning,Severe,Immediate,2025-05-28T15:00:00-05:00
Young,33.17670764,-98.68781396,27.77777777777778,wmoUnit:degC,55,2,16093.44,wmoUnit:m,,,,,,
Bee,28.41736675,-97.74116811,30.555555555555557,wmoUnit:degC,61,9,16093.44,wmoUnit:m,SV,A,Severe Thunderstorm Watch,Severe,Future,2025-05-28T08:00:00-05:00
Clay,33.78379717,-98.208958,25.555555555555557,wmoUnit:degC,69,11,,,,,,,,
San Jacinto,30.57948905,-95.16683273,25.0,wmoUnit:degC,83,7,16093.44,wmoUnit:m,,,,,,
Uvalde,29.35669829,-99.76203107,30.0,wmoUnit:degC,49,18,9656.064,wmoUnit:m,,,,,,
Haskell,33.17824805,-99.73029401,25.555555555555557,wmoUnit:degC,60,4,,,,,,,,
Somervell,32.22229511,-97.77456553,28.333333333333332,wmoUnit:degC,53,0,16093.44,wmoUnit:m,,,,,,
Bexar,29.44884523,-98.51966309,31.11111111111111,wmoUnit:degC,56,4,16093.44,wmoUnit:m,,,,,,
Grayson,33.62684371,-96.67764864,25.0,wmoUnit:degC,69,2,16093.44,wmoUnit:m,,,,,,
Bailey,34.0684915,-102.8299069,23.88888888888889,wmoUnit:degC,50,11,16093.44,wmoUnit:m,,,,,,
Jones,32.73970429,-99.87850599,26.11111111111111,wmoUnit:degC,56,3,,,,,,,,
Jefferson,29.88425832,-94.1708778,28.333333333333332,wmoUnit:degC,70,13,16093.44,wmoUnit:m,,,,,,
Rusk,32.10803224,-94.76169577,29.444444444444443,wmoUnit:degC,62,10,16093.44,wmoUnit:m,,,Flood Warning,Severe,Immediate,2025-05-28T20:45:00-05:00
Glasscock,31.8694238,-101.520742,28.333333333333332,wmoUnit:degC,44,17,16093.44,wmoUnit:m,SV,A,,,,
Gillespie,30.31800246,-98.94627245,27.22222222222222,wmoUnit:degC,69,22,16093.44,wmoUnit:m,,,,,,
Fisher,32.74305155,-100.4019503,26.666666666666668,wmoUnit:degC,52,4,,,,,,,,
Henderson,32.21188078,-95.85356847,27.77777777777778,wmoUnit:degC,61,0,16093.44,wmoUnit:m,,,Flood Warning,Severe,Immediate,2025-05-28T15:00:00-05:00
Shackelford,32.7360276,-99.35403034,25.0,wmoUnit:degC,64,3,,,,,,,,
Palo Pinto,32.75316856,-98.31299522,26.666666666666668,wmoUnit:degC,62,1,16093.44,wmoUnit:m,,,,,,
Wilbarger,34.08044953,-99.24089568,25.555555555555557,wmoUnit:degC,62,8,,,,,,,,
Floyd,34.07239775,-101.3033037,21.11111111111111,wmoUnit:degC,71,9,16093.44,wmoUnit:m,,,,,,
Orange,30.12807126,-93.89653794,28.333333333333332,wmoUnit:degC,70,13,16093.44,wmoUnit:m,,,Flood Warning,Severe,Immediate,2025-05-28T21:45:00-05:00
Runnels,31.83105393,-99.97624799,28.333333333333332,wmoUnit:degC,51,18,,,,,,,,
Coleman,31.77329421,-99.45362579,27.22222222222222,wmoUnit:degC,53,8,,,,,Special Weather Statement,Moderate,Expected,2025-05-28T02:45:00-05:00
Martin,32.30605847,-101.9512464,27.77777777777778,wmoUnit:degC,38,9,16093.44,wmoUnit:m,,,,,,
Wheeler,35.40129002,-100.2697634,20.0,wmoUnit:degC,68,10,,,,,,,,
Culberson,31.44709817,-104.5177421,24.444444444444443,wmoUnit:degC,45,18,16093.44,wmoUnit:m,SV,A,,,,
Mitchell,32.30636024,-100.9211128,28.333333333333332,wmoUnit:degC,46,7,16093.44,wmoUnit:m,,,,,,
Hudspeth,31.45613738,-105.3869428,30.555555555555557,wmoUnit:degC,12,16,16029.066301391646,wmoUnit:m,,,,,,
Upshur,32.7362827,-94.94132011,27.22222222222222,wmoUnit:degC,61,8,11265.408,wmoUnit:m,,,,,,
Liberty,30.15153187,-94.8120925,26.666666666666668,wmoUnit:degC,75,8,16093.44,wmoUnit:m,,,,,,
Williamson,30.64834941,-97.60105467,28.88888888888889,wmoUnit:degC,64,6,16093.44,wmoUnit:m,,,,,,
Nacogdoches,31.61604108,-94.6158776,29.444444444444443,wmoUnit:degC,65,17,16093.44,wmoUnit:m,,,Flood Warning,Severe,Immediate,2025-05-28T20:45:00-05:00
Loving,31.84912973,-103.5799063,28.333333333333332,wmoUnit:degC,46,13,16093.44,wmoUnit:m,SV,A,,,,
Jim Wells,27.73131099,-98.0898649,31.666666666666668,wmoUnit:degC,64,11,16093.44,wmoUnit:m,SV,A,Severe Thunderstorm Watch,Severe,Future,2025-05-28T08:00:00-05:00
Upton,31.36853957,-102.0430005,27.77777777777778,wmoUnit:degC,58,40,16093.44,wmoUnit:m,SV,A,,,,
Newton,30.78619977,-93.74462993,27.22222222222222,wmoUnit:degC,74,11,16093.44,wmoUnit:m,,,Flood Warning,Severe,Immediate,2025-05-28T21:45:00-05:00
Lamar,33.66746186,-95.57110784,25.0,wmoUnit:degC,67,1,16093.44,wmoUnit:m,,,,,,
Polk,30.79250963,-94.82994949,25.0,wmoUnit:degC,78,8,16093.44,wmoUnit:m,,,Flood Warning,Severe,Immediate,2025-05-28T20:45:00-05:00
Collin,33.18789055,-96.57248871,26.666666666666668,wmoUnit:degC,60,2,16093.44,wmoUnit:m,,,,,,
Hardeman,34.28865227,-99.7453851,24.444444444444443,wmoUnit:degC,66,6,,,,,,,,
McMullen,28.35351091,-98.56842256,33.333333333333336,wmoUnit:degC,52,13,16093.44,wmoUnit:m,SV,A,Severe Thunderstorm Watch,Severe,Future,2025-05-28T08:00:00-05:00
Cottle,34.0776571,-100.2786983,23.333333333333332,wmoUnit:degC,66,4,16093.44,wmoUnit:m,,,,,,
Frio,28.86726774,-99.10826004,31.666666666666668,wmoUnit:degC,55,13,16093.44,wmoUnit:m,,,,,,
Gray,35.40130666,-100.812475,18.333333333333332,wmoUnit:degC,75,5,,,,,,,,
Dallam,36.27777107,-102.6021647,21.11111111111111,wmoUnit:degC,51,9,,,,,,,,
Kenedy,26.92409448,-97.68137783,28.333333333333332,wmoUnit:degC,83,4,,,SV,A,Severe Thunderstorm Watch,Severe,Future,2025-05-28T08:00:00-05:00
Fort Bend,29.52763253,-95.77090562,27.22222222222222,wmoUnit:degC,81,12,16093.44,wmoUnit:m,,,,,,
Armstrong,34.96522076,-101.3572412,20.0,wmoUnit:degC,68,2,,,,,,,,
Collingsworth,34.96498493,-100.2700733,23.333333333333332,wmoUnit:degC,55,7,,,,,,,,
Cass,33.07750446,-94.34348771,26.11111111111111,wmoUnit:degC,67,13,16093.44,wmoUnit:m,,,Flood Warning,Severe,Immediate,2025-05-28T20:45:00-05:00
Sherman,36.27765824,-101.8933822,20.0,wmoUnit:degC,59,0,,,,,,,,
Terry,33.17373729,-102.335157,25.0,wmoUnit:degC,47,11,16093.44,wmoUnit:m,,,,,,
Limestone,31.54541898,-96.58056718,27.22222222222222,wmoUnit:degC,60,0,16093.44,wmoUnit:m,,,,,,
Real,29.83182711,-99.82215881,28.88888888888889,wmoUnit:degC,48,35,9656.064,wmoUnit:m,,,Special Weather Statement,Moderate,Expected,2025-05-28T02:30:00-05:00
Lynn,33.17685487,-101.8160235,23.88888888888889,wmoUnit:degC,56,8,16093.44,wmoUnit:m,,,,,,
Lavaca,29.38437003,-96.93020993,30.0,wmoUnit:degC,69,9,16093.44,wmoUnit:m,,,,,,
Nolan,32.3034718,-100.4060989,25.555555555555557,wmoUnit:degC,52,16,,,,,,,,
Gaines,32.74074537,-102.6351246,26.666666666666668,wmoUnit:degC,39,14,16093.44,wmoUnit:m,SV,A,,,,
Montgomery,30.30022409,-95.50301411,26.666666666666668,wmoUnit:degC,81,8,16093.44,wmoUnit:m,,,,,,
Concho,31.32645211,-99.86413426,26.666666666666668,wmoUnit:degC,67,28,,,,,Flood Advisory,Minor,Expected,2025-05-28T02:45:00-05:00
Hardin,30.33238431,-94.39021394,27.77777777777778,wmoUnit:degC,72,13,16061.252383300736,wmoUnit:m,,,,,,
Harris,29.85967144,-95.39782106,27.22222222222222,wmoUnit:degC,75,9,16093.44,wmoUnit:m,,,,,,
Leon,31.29655719,-95.99554292,28.333333333333332,wmoUnit:degC,65,0,16093.44,wmoUnit:m,,,Flood Warning,Severe,Immediate,2025-05-28T15:00:00-05:00
Bowie,33.44572786,-94.42324298,26.11111111111111,wmoUnit:degC,74,16,16093.44,wmoUnit:m,,,Flood Warning,Severe,Immediate,2025-05-28T20:45:00-05:00
Kaufman,32.59927808,-96.28779341,27.22222222222222,wmoUnit:degC,60,1,16093.44,wmoUnit:m,,,,,,
Anderson,31.81321543,-95.65251774,27.22222222222222,wmoUnit:degC,65,0,16093.44,wmoUnit:m,,,Flood Warning,Severe,Immediate,2025-05-28T20:30:00-05:00
San Saba,31.15520543,-98.81754295,26.11111111111111,wmoUnit:degC,72,16,,,,,Special Weather Statement,Moderate,Expected,2025-05-28T02:30:00-05:00
Schleicher,30.89661056,-100.538097,27.77777777777778,wmoUnit:degC,51,40,,,SV,A,Flood Advisory,Minor,Expected,2025-05-28T02:45:00-05:00
Colorado,29.6208542,-96.52630821,26.666666666666668,wmoUnit:degC,77,7,16093.44,wmoUnit:m,,,,,,
Milam,30.78625299,-96.97683495,28.333333333333332,wmoUnit:degC,63,2,16093.44,wmoUnit:m,,,,,,
Live Oak,28.3514375,-98.12474493,32.77777777777778,wmoUnit:degC,54,9,16093.44,wmoUnit:m,SV,A,Severe Thunderstorm Watch,Severe,Future,2025-05-28T08:00:00-05:00
Borden,32.7436916,-101.4317533,25.555555555555557,wmoUnit:degC,50,10,16093.44,wmoUnit:m,,,,,,
McCulloch,31.19896752,-99.34754972,26.666666666666668,wmoUnit:degC,60,24,,,,,Special Weather Statement,Moderate,Expected,2025-05-28T02:30:00-05:00
Johnson,32.37899918,-97.36660504,27.77777777777778,wmoUnit:degC,61,0,16093.44,wmoUnit:m,,,,,,
Montague,33.67496328,-97.72466993,25.0,wmoUnit:degC,64,2,16093.44,wmoUnit:m,,,,,,
Stonewall,33.17842158,-100.255259,25.0,wmoUnit:degC,67,2,16093.44,wmoUnit:m,,,,,,
Comal,29.80816362,-98.27814516,28.333333333333332,wmoUnit:degC,67,9,16093.44,wmoUnit:m,,,,,,
Eastland,32.32739258,-98.8325713,25.555555555555557,wmoUnit:degC,62,1,16093.44,wmoUnit:m,,,,,,
Comanche,31.9490639,-98.55841538,27.77777777777778,wmoUnit:degC,53,1,16093.44,wmoUnit:m,,,,,,
King,33.61641863,-100.2558584,23.88888888888889,wmoUnit:degC,74,3,16093.44,wmoUnit:m,,,,,,
Washington,30.2145299,-96.40356575,26.11111111111111,wmoUnit:degC,75,6,16093.44,wmoUnit:m,,,,,,
Webb,27.76102524,-99.33170164,34.44444444444444,wmoUnit:degC,46,43,16093.44,wmoUnit:m,SV,A,Special Weather Statement,Moderate,Expected,2025-05-28T02:45:00-05:00
Fayette,29.87683207,-96.91968047,30.555555555555557,wmoUnit:degC,63,4,16093.44,wmoUnit:m,,,,,,
Harrison,32.54814898,-94.37155736,27.77777777777778,wmoUnit:degC,67,10,16093.44,wmoUnit:m,,,,,,
Presidio,29.99977786,-104.2405552,21.666666666666668,wmoUnit:degC,44,30,16093.44,wmoUnit:m,SV,A,,,,
Austin,29.88711223,-96.27791829,26.11111111111111,wmoUnit:degC,77,7,16093.44,wmoUnit:m,,,,,,
Randall,34.96594288,-101.8968527,20.555555555555557,wmoUnit:degC,63,7,,,,,,,,
Hood,32.43107878,-97.83280338,27.22222222222222,wmoUnit:degC,56,0,16093.44,wmoUnit:m,,,,,,
Victoria,28.79640594,-96.97176602,30.555555555555557,wmoUnit:degC,65,10,16093.44,wmoUnit:m,,,,,,
Hutchinson,35.84000866,-101.3547257,21.11111111111111,wmoUnit:degC,55,0,,,,,,,,
Coryell,31.39087578,-97.7991883,28.333333333333332,wmoUnit:degC,67,2,16093.44,wmoUnit:m,,,,,,
Jackson,28.95603133,-96.57883268,27.22222222222222,wmoUnit:degC,83,9,16093.44,wmoUnit:m,,,,,,
Taylor,32.30138229,-99.89003941,25.0,wmoUnit:degC,62,4,,,,,,,,
Zapata,27.00089072,-99.16860134,32.77777777777778,wmoUnit:degC,53,37,,,SV,A,Severe Thunderstorm Watch,Severe,Future,2025-05-28T08:00:00-05:00
San Patricio,28.00922186,-97.51859857,30.0,wmoUnit:degC,75,10,16093.44,wmoUnit:m,SV,A,Severe Thunderstorm Watch,Severe,Future,2025-05-28T08:00:00-05:00
Grimes,30.54360689,-95.98557334,27.22222222222222,wmoUnit:degC,74,6,16093.44,wmoUnit:m,,,,,,
Lamb,34.06861242,-102.3517095,23.88888888888889,wmoUnit:degC,58,11,16093.44,wmoUnit:m,,,,,,
