countyName,latitude,longitude,temperature,temperature_unit,relativeHumidity,precipitationProbability,visibility,visibility_unit,hazard_phenomenon,hazard_significance,alert_event,alert_severity,alert_urgency,alert_expires
Foard,33.97408519,-99.77871109,18.88888888888889,wmoUnit:degC,95,32,,,,,,,,
Blanco,30.26636128,-98.39974086,20.555555555555557,wmoUnit:degC,89,13,15980.786411132844,wmoUnit:m,SV,A,Severe Thunderstorm Watch,Severe,Future,2025-05-28T22:00:00-05:00
Hockley,33.60750375,-102.3430919,19.444444444444443,wmoUnit:degC,59,16,16093.44,wmoUnit:m,,,,,,
Llano,30.70566579,-98.68387398,21.666666666666668,wmoUnit:degC,95,10,15514.076712524487,wmoUnit:m,SV,A,Severe Thunderstorm Watch,Severe,Future,2025-05-28T22:00:00-05:00
Swisher,34.53064989,-101.734951,16.666666666666668,wmoUnit:degC,97,12,16093.44,wmoUnit:m,,,,,,
Titus,33.2160906,-94.96509786,18.88888888888889,wmoUnit:degC,97,8,14548.469698608355,wmoUnit:m,,,,,,
Navarro,32.04695429,-96.47248134,22.22222222222222,wmoUnit:degC,87,20,16093.44,wmoUnit:m,,,Flood Warning,Severe,Immediate,2025-05-29T08:30:00-05:00
Brazoria,29.19345387,-95.45578479,25.0,wmoUnit:degC,100,72,16093.44,wmoUnit:m,,,,,,
Hidalgo,26.396627,-98.18088681,26.666666666666668,wmoUnit:degC,92,58,,,,,,,,
Archer,33.61539176,-98.68783437,19.444444444444443,wmoUnit:degC,94,32,,,,,,,,
Refugio,28.32681413,-97.16546961,23.333333333333332,wmoUnit:degC,100,83,14323.160986084027,wmoUnit:m,,,,,,
Andrews,32.30506283,-102.6378839,16.11111111111111,wmoUnit:degC,75,19,16093.44,wmoUnit:m,,,,,,
Galveston,29.39424415,-94.96474975,26.666666666666668,wmoUnit:degC,97,46,16093.44,wmoUnit:m,,,,,,
De Witt,29.08201599,-97.35666976,21.666666666666668,wmoUnit:degC,86,67,8947.952547912531,wmoUnit:m,,,,,,
Gonzales,29.45641495,-97.49279927,22.22222222222222,wmoUnit:degC,87,64,9656.064,wmoUnit:m,,,,,,
Wharton,29.2778362,-96.22197375,22.77777777777778,wmoUnit:degC,97,92,14548.469698608355,wmoUnit:m,,,,,,
Fannin,33.59396919,-96.10656755,17.77777777777778,wmoUnit:degC,97,14,12746.00460278313,wmoUnit:m,,,,,,
Madison,30.96564645,-95.92818441,21.666666666666668,wmoUnit:degC,100,19,14548.469698608355,wmoUnit:m,,,,,,
Moore,35.83768863,-101.8929556,15.0,wmoUnit:degC,96,4,,,SV,A,Severe Thunderstorm Watch,Severe,Future,2025-05-28T21:00:00-05:00
Tyler,30.7712607,-94.37651432,22.22222222222222,wmoUnit:degC,93,7,9479.0359451294,wmoUnit:m,,,,,,
Lipscomb,36.27778432,-100.27317,13.88888888888889,wmoUnit:degC,96,12,,,,,,,,
Burleson,30.49246139,-96.62109399,22.77777777777778,wmoUnit:degC,97,44,16093.44,wmoUnit:m,,,,,,
Jim Hogg,27.04340499,-98.6972921,25.0,wmoUnit:degC,90,44,,,,,,,,
Throckmorton,33.17753907,-99.21236832,20.0,wmoUnit:degC,97,20,16093.44,wmoUnit:m,,,,,,
Kleberg,27.43274395,-97.72889778,25.0,wmoUnit:degC,97,85,12568.97654791253,wmoUnit:m,,,,,,
Shelby,31.79242191,-94.14495261,20.0,wmoUnit:degC,97,20,16093.44,wmoUnit:m,,,,,,
Garza,33.17991074,-101.2984496,18.333333333333332,wmoUnit:degC,84,29,16093.44,wmoUnit:m,,,,,,
Karnes,28.90493782,-97.85960621,22.22222222222222,wmoUnit:degC,81,12,13936.918794433579,wmoUnit:m,,,,,,
Reeves,31.32307061,-103.693143,16.666666666666668,wmoUnit:degC,65,0,16093.44,wmoUnit:m,,,,,,
Houston,31.31764137,-95.42225367,21.666666666666668,wmoUnit:degC,100,11,14548.469698608355,wmoUnit:m,,,,,,
El Paso,31.7686226,-106.2352229,16.666666666666668,wmoUnit:degC,62,0,16045.160109741197,wmoUnit:m,,,,,,
Carson,35.40346802,-101.3542037,15.0,wmoUnit:degC,100,3,,,,,,,,
Medina,29.35520493,-99.11008331,20.0,wmoUnit:degC,89,10,15932.504986084026,wmoUnit:m,,,,,,
Wichita,33.98421585,-98.70153389,18.88888888888889,wmoUnit:degC,90,32,,,,,,,,
Chambers,29.73912276,-94.60891308,24.444444444444443,wmoUnit:degC,100,24,14548.469698608355,wmoUnit:m,,,,,,
Donley,34.96540246,-100.8140501,15.555555555555555,wmoUnit:degC,100,5,,,,,,,,
Hopkins,33.14933822,-95.56414173,18.88888888888889,wmoUnit:degC,97,12,12746.00460278313,wmoUnit:m,,,,,,
Lampasas,31.19627791,-98.24142711,22.77777777777778,wmoUnit:degC,90,44,16093.44,wmoUnit:m,,,Severe Thunderstorm Watch,Severe,Future,2025-05-28T22:00:00-05:00
Falls,31.25317017,-96.93579511,21.666666666666668,wmoUnit:degC,90,26,16093.44,wmoUnit:m,,,Severe Thunderstorm Watch,Severe,Future,2025-05-28T22:00:00-05:00
Stephens,32.73584155,-98.83612016,21.11111111111111,wmoUnit:degC,93,28,16093.44,wmoUnit:m,,,,,,
Travis,30.33423319,-97.78194654,21.666666666666668,wmoUnit:degC,93,64,9656.064,wmoUnit:m,SV,A,Severe Thunderstorm Watch,Severe,Future,2025-05-28T22:00:00-05:00
Roberts,35.8385577,-100.8135689,16.11111111111111,wmoUnit:degC,97,4,,,,,,,,
Crosby,33.61459873,-101.2998612,18.88888888888889,wmoUnit:degC,65,22,16093.44,wmoUnit:m,,,,,,
Kerr,30.06153035,-99.35016969,19.444444444444443,wmoUnit:degC,92,10,15594.542684692382,wmoUnit:m,SV,A,Severe Thunderstorm Watch,Severe,Future,2025-05-28T22:00:00-05:00
Wood,32.78634374,-95.38206498,19.444444444444443,wmoUnit:degC,93,14,12746.00460278313,wmoUnit:m,,,,,,
Jack,33.23345819,-98.1725509,18.88888888888889,wmoUnit:degC,100,23,16093.44,wmoUnit:m,,,,,,
Marion,32.79797929,-94.35725239,19.444444444444443,wmoUnit:degC,100,9,16093.44,wmoUnit:m,,,,,,
Hale,34.07051782,-101.8269082,18.333333333333332,wmoUnit:degC,81,15,16093.44,wmoUnit:m,,,,,,
Jeff Davis,30.71559322,-104.1403539,13.333333333333334,wmoUnit:degC,66,2,16093.44,wmoUnit:m,,,,,,
Tarrant,32.77185236,-97.29116473,21.666666666666668,wmoUnit:degC,81,31,16093.44,wmoUnit:m,,,,,,
Waller,30.01093722,-95.98768942,23.333333333333332,wmoUnit:degC,93,38,16093.44,wmoUnit:m,,,,,,
Reagan,31.36617698,-101.5230108,17.77777777777778,wmoUnit:degC,75,29,16093.44,wmoUnit:m,,,,,,
Smith,32.37514553,-95.26909511,20.0,wmoUnit:degC,97,18,14548.469698608355,wmoUnit:m,,,Flood Warning,Severe,Immediate,2025-05-29T08:45:00-05:00
Van Zandt,32.56368961,-95.8364862,19.444444444444443,wmoUnit:degC,97,13,16093.44,wmoUnit:m,,,,,,
Cooke,33.638465,-97.21247642,18.333333333333332,wmoUnit:degC,93,16,16093.44,wmoUnit:m,,,,,,
Zavala,28.86530621,-99.76102001,21.11111111111111,wmoUnit:degC,90,10,13357.555506958068,wmoUnit:m,,,,,,
Hall,34.53074134,-100.6809876,17.77777777777778,wmoUnit:degC,97,10,13067.873095825224,wmoUnit:m,,,,,,
Kendall,29.9446397,-98.71160511,18.88888888888889,wmoUnit:degC,96,10,15723.291616699264,wmoUnit:m,SV,A,Severe Thunderstorm Watch,Severe,Future,2025-05-28T22:00:00-05:00
Goliad,28.65708563,-97.42646082,23.88888888888889,wmoUnit:degC,94,69,12472.416,wmoUnit:m,,,,,,
Yoakum,33.17293501,-102.8278792,17.77777777777778,wmoUnit:degC,67,14,16093.44,wmoUnit:m,,,,,,
Knox,33.60614755,-99.74144313,20.0,wmoUnit:degC,91,32,,,,,,,,
McLennan,31.55234489,-97.20184883,21.666666666666668,wmoUnit:degC,93,31,16093.44,wmoUnit:m,,,Severe Thunderstorm Watch,Severe,Future,2025-05-28T22:00:00-05:00
Brewster,29.81205836,-103.2518906,19.444444444444443,wmoUnit:degC,63,1,16093.44,wmoUnit:m,,,,,,
Panola,32.16222886,-94.30552858,20.555555555555557,wmoUnit:degC,97,12,16093.44,wmoUnit:m,,,,,,
Bandera,29.74724753,-99.24637282,20.0,wmoUnit:degC,90,10,15771.571506958067,wmoUnit:m,,,,,,
Parmer,34.53014507,-102.784594,17.22222222222222,wmoUnit:degC,90,10,15497.982904174776,wmoUnit:m,,,,,,
Rockwall,32.89786769,-96.40780584,19.444444444444443,wmoUnit:degC,100,22,16093.44,wmoUnit:m,,,,,,
Trinity,31.0885069,-95.13551682,22.22222222222222,wmoUnit:degC,93,14,16093.44,wmoUnit:m,,,Flood Warning,Severe,Immediate,2025-05-29T08:45:00-05:00
Bosque,31.90050476,-97.63437613,21.666666666666668,wmoUnit:degC,97,32,16093.44,wmoUnit:m,,,Severe Thunderstorm Watch,Severe,Future,2025-05-28T22:00:00-05:00
Coke,31.88849293,-100.5298747,18.333333333333332,wmoUnit:degC,81,10,16093.44,wmoUnit:m,,,,,,
Franklin,33.17550691,-95.21841437,18.88888888888889,wmoUnit:degC,97,9,14548.469698608355,wmoUnit:m,,,,,,
Hill,31.99079033,-97.1324142,21.666666666666668,wmoUnit:degC,100,31,16093.44,wmoUnit:m,,,Severe Thunderstorm Watch,Severe,Future,2025-05-28T22:00:00-05:00
Calhoun,28.48966896,-96.64708119,25.0,wmoUnit:degC,100,86,14468.002191650448,wmoUnit:m,,,,,,
Irion,31.30393203,-100.9824126,18.333333333333332,wmoUnit:degC,87,10,16093.44,wmoUnit:m,,,,,,
Midland,31.86921148,-102.0315032,20.555555555555557,wmoUnit:degC,51,25,16093.44,wmoUnit:m,,,,,,
Brown,31.77432313,-98.99989649,19.444444444444443,wmoUnit:degC,93,10,16093.44,wmoUnit:m,SV,A,Severe Thunderstorm Watch,Severe,Future,2025-05-28T22:00:00-05:00
Wilson,29.17315896,-98.08621015,21.666666666666668,wmoUnit:degC,87,10,15288.768,wmoUnit:m,,,,,,
Oldham,35.40497586,-102.6029949,15.0,wmoUnit:degC,100,7,,,,,,,,
Freestone,31.70486443,-96.14918535,21.666666666666668,wmoUnit:degC,87,15,16093.44,wmoUnit:m,,,Flood Advisory,Minor,Expected,2025-05-28T16:00:00-05:00
Sabine,31.34321941,-93.85170439,21.11111111111111,wmoUnit:degC,100,24,11265.408,wmoUnit:m,,,,,,
Deaf Smith,34.96602014,-102.6048162,15.0,wmoUnit:degC,96,8,,,,,,,,
Angelina,31.25475875,-94.611742,21.11111111111111,wmoUnit:degC,100,31,16093.44,wmoUnit:m,,,Flood Warning,Severe,Immediate,2025-05-29T08:45:00-05:00
Kent,33.18284492,-100.7791031,20.0,wmoUnit:degC,84,32,16093.44,wmoUnit:m,,,,,,
Red River,33.62074539,-95.0501886,18.333333333333332,wmoUnit:degC,97,6,16093.44,wmoUnit:m,,,Flood Warning,Severe,Immediate,2025-05-29T09:15:00-05:00
Kinney,29.35000302,-100.4178441,21.11111111111111,wmoUnit:degC,84,10,14773.778411132842,wmoUnit:m,,,,,,
Denton,33.205574,-97.11681154,19.444444444444443,wmoUnit:degC,93,31,16093.44,wmoUnit:m,,,Flood Warning,Severe,Immediate,2025-05-29T03:00:00-05:00
Sutton,30.49747152,-100.5382263,18.333333333333332,wmoUnit:degC,93,10,16093.44,wmoUnit:m,SV,A,Severe Thunderstorm Watch,Severe,Future,2025-05-28T22:00:00-05:00
Guadalupe,29.58257236,-97.94850308,20.0,wmoUnit:degC,93,18,15530.168986084027,wmoUnit:m,,,,,,
Winkler,31.85008609,-103.0484794,17.22222222222222,wmoUnit:degC,65,4,16093.44,wmoUnit:m,,,,,,
Dimmit,28.42161168,-99.760574,21.666666666666668,wmoUnit:degC,92,10,13936.918794433579,wmoUnit:m,,,,,,
Wise,33.21585061,-97.65444124,18.88888888888889,wmoUnit:degC,93,30,16093.44,wmoUnit:m,,,Flood Warning,Severe,Immediate,2025-05-29T08:30:00-05:00
Hemphill,35.83750155,-100.2704628,15.0,wmoUnit:degC,96,5,,,,,,,,
Potter,35.40128927,-101.8940484,16.666666666666668,wmoUnit:degC,93,6,,,,,,,,
Childress,34.52929257,-100.2075664,18.333333333333332,wmoUnit:degC,93,11,14564.563506958068,wmoUnit:m,,,,,,
Willacy,26.47132899,-97.64303323,26.666666666666668,wmoUnit:degC,96,52,,,,,,,,
Bastrop,30.10353518,-97.31187705,20.0,wmoUnit:degC,96,80,9656.064,wmoUnit:m,,,,,,
Kimble,30.48676251,-99.74892716,18.88888888888889,wmoUnit:degC,100,10,16093.44,wmoUnit:m,SV,A,Severe Thunderstorm Watch,Severe,Future,2025-05-28T22:00:00-05:00
Scurry,32.74720063,-100.9165071,17.77777777777778,wmoUnit:degC,97,25,16093.44,wmoUnit:m,,,,,,
Ochiltree,36.27846334,-100.815653,15.0,wmoUnit:degC,96,8,,,,,,,,
Hansford,36.27753179,-101.3545624,15.0,wmoUnit:degC,100,5,,,,,,,,
Hartley,35.83996755,-102.6028835,13.88888888888889,wmoUnit:degC,96,5,,,SV,A,Severe Thunderstorm Watch,Severe,Future,2025-05-28T21:00:00-05:00
Cameron,26.13847728,-97.51499968,27.22222222222222,wmoUnit:degC,91,42,,,,,,,,
Matagorda,28.86711039,-95.98533866,23.88888888888889,wmoUnit:degC,100,96,16093.44,wmoUnit:m,,,,,,
Burnet,30.78843382,-98.18252382,21.666666666666668,wmoUnit:degC,92,12,14484.096,wmoUnit:m,SV,A,Severe Thunderstorm Watch,Severe,Future,2025-05-28T22:00:00-05:00
Rains,32.87004212,-95.79347545,18.88888888888889,wmoUnit:degC,100,14,14516.283616699264,wmoUnit:m,,,,,,
Hays,30.05782657,-98.03104087,19.444444444444443,wmoUnit:degC,92,27,15932.504986084026,wmoUnit:m,SV,A,Severe Thunderstorm Watch,Severe,Future,2025-05-28T22:00:00-05:00
Mason,30.71742293,-99.2263026,20.0,wmoUnit:degC,90,10,16093.44,wmoUnit:m,SV,A,Severe Thunderstorm Watch,Severe,Future,2025-05-28T22:00:00-05:00
Ward,31.509424,-103.1024636,17.22222222222222,wmoUnit:degC,67,1,16093.44,wmoUnit:m,,,,,,
Delta,33.38623601,-95.67221685,18.88888888888889,wmoUnit:degC,93,12,12746.00460278313,wmoUnit:m,,,,,,
Nueces,27.72621549,-97.61767326,23.88888888888889,wmoUnit:degC,100,84,8803.111342346272,wmoUnit:m,,,,,,
Callahan,32.2977738,-99.37359692,17.77777777777778,wmoUnit:degC,93,20,16093.44,wmoUnit:m,,,,,,
Bell,31.03778267,-97.47790776,22.22222222222222,wmoUnit:degC,93,33,11265.408,wmoUnit:m,,,Severe Thunderstorm Watch,Severe,Future,2025-05-28T22:00:00-05:00
Cherokee,31.83695632,-95.16515234,22.22222222222222,wmoUnit:degC,90,37,16093.44,wmoUnit:m,,,Flood Warning,Severe,Immediate,2025-05-29T08:45:00-05:00
Ellis,32.34839264,-96.79467417,21.11111111111111,wmoUnit:degC,97,25,16093.44,wmoUnit:m,,,,,,
Lubbock,33.6101944,-101.8205745,20.0,wmoUnit:degC,61,19,16077.34619165045,wmoUnit:m,,,,,,
Terrell,30.22502597,-102.0764533,20.0,wmoUnit:degC,63,17,16093.44,wmoUnit:m,,,,,,
Crockett,30.72291931,-101.4118364,17.77777777777778,wmoUnit:degC,73,10,16093.44,wmoUnit:m,,,,,,
Atascosa,28.89418432,-98.52741302,21.11111111111111,wmoUnit:degC,88,10,15626.730301391646,wmoUnit:m,,,,,,
Ector,31.86908156,-102.5430907,18.333333333333332,wmoUnit:degC,60,11,16093.44,wmoUnit:m,,,,,,
Brazos,30.6610425,-96.3022943,22.22222222222222,wmoUnit:degC,97,31,16093.44,wmoUnit:m,,,,,,
Aransas,28.12709562,-96.99258951,26.11111111111111,wmoUnit:degC,97,83,15369.235506958066,wmoUnit:m,,,,,,
Dallas,32.76653746,-96.77781862,21.11111111111111,wmoUnit:degC,84,31,16093.44,wmoUnit:m,,,,,,
Howard,32.30610232,-101.4355097,18.88888888888889,wmoUnit:degC,65,34,16093.44,wmoUnit:m,,,,,,
Motley,34.07409017,-100.7798961,17.77777777777778,wmoUnit:degC,100,15,6984.553205566422,wmoUnit:m,,,,,,
San Augustine,31.39427005,-94.16809762,22.77777777777778,wmoUnit:degC,90,26,16093.44,wmoUnit:m,,,,,,
Maverick,28.74260943,-100.3144638,22.22222222222222,wmoUnit:degC,88,11,11265.408,wmoUnit:m,,,,,,
Erath,32.23640361,-98.21722756,19.444444444444443,wmoUnit:degC,87,33,16093.44,wmoUnit:m,,,,,,
Dickens,33.61663428,-100.7788138,18.88888888888889,wmoUnit:degC,78,24,14902.525808349552,wmoUnit:m,,,,,,
Caldwell,29.83677935,-97.61983479,21.11111111111111,wmoUnit:degC,91,64,9656.064,wmoUnit:m,,,,,,
Dawson,32.74258137,-101.9476136,16.11111111111111,wmoUnit:degC,87,41,14500.18980834955,wmoUnit:m,,,,,,
Camp,32.97321771,-94.97860185,20.555555555555557,wmoUnit:degC,90,10,16093.44,wmoUnit:m,,,,,,
Duval,27.68133382,-98.50889672,22.77777777777778,wmoUnit:degC,100,62,11764.304547912532,wmoUnit:m,,,,,,
Hunt,33.123531,-96.08550014,18.88888888888889,wmoUnit:degC,100,18,12746.00460278313,wmoUnit:m,,,,,,
Mills,31.49524259,-98.59552736,20.0,wmoUnit:degC,93,43,16093.44,wmoUnit:m,,,Severe Thunderstorm Watch,Severe,Future,2025-05-28T22:00:00-05:00
Val Verde,29.89300587,-101.15171,20.555555555555557,wmoUnit:degC,73,10,15980.786411132844,wmoUnit:m,,,,,,
Pecos,30.78100044,-102.7235743,16.666666666666668,wmoUnit:degC,78,8,16093.44,wmoUnit:m,,,,,,
Baylor,33.61648147,-99.21351964,19.444444444444443,wmoUnit:degC,92,32,,,,,,,,
Gregg,32.48036452,-94.81723694,21.666666666666668,wmoUnit:degC,90,13,16093.44,wmoUnit:m,,,Flood Warning,Severe,Immediate,2025-05-29T08:45:00-05:00
Cochran,33.60410808,-102.8285264,19.444444444444443,wmoUnit:degC,54,13,16093.44,wmoUnit:m,,,,,,
Jasper,30.74391255,-94.02495849,22.77777777777778,wmoUnit:degC,93,4,9092.793753478953,wmoUnit:m,,,,,,
Hamilton,31.70479181,-98.11066654,21.11111111111111,wmoUnit:degC,93,38,16093.44,wmoUnit:m,,,Severe Thunderstorm Warning,Severe,Immediate,2025-05-28T15:45:00-05:00
Castro,34.53000304,-102.2617608,16.666666666666668,wmoUnit:degC,93,11,7563.916493041933,wmoUnit:m,,,,,,
Sterling,31.82786516,-101.0500699,17.22222222222222,wmoUnit:degC,78,10,16093.44,wmoUnit:m,,,,,,
Starr,26.56212627,-98.73834895,25.555555555555557,wmoUnit:degC,94,40,,,,,,,,
Crane,31.42846287,-102.5156425,20.0,wmoUnit:degC,59,12,16093.44,wmoUnit:m,,,,,,
Morris,33.11368507,-94.73205137,20.555555555555557,wmoUnit:degC,93,9,16093.44,wmoUnit:m,,,,,,
Briscoe,34.53041048,-101.2085769,15.555555555555555,wmoUnit:degC,100,11,9527.31660278313,wmoUnit:m,,,,,,
Tom Green,31.4044442,-100.4620678,18.333333333333332,wmoUnit:degC,87,10,16093.44,wmoUnit:m,SV,A,Severe Thunderstorm Watch,Severe,Future,2025-05-28T22:00:00-05:00
Menard,30.88981785,-99.82061472,18.333333333333332,wmoUnit:degC,93,10,16093.44,wmoUnit:m,SV,A,Severe Thunderstorm Watch,Severe,Future,2025-05-28T22:00:00-05:00
Parker,32.77852261,-97.80472194,20.0,wmoUnit:degC,90,31,16093.44,wmoUnit:m,,,,,,
Walker,30.73899492,-95.57224172,22.22222222222222,wmoUnit:degC,97,16,14548.469698608355,wmoUnit:m,,,,,,
Brooks,27.0315669,-98.21874127,25.555555555555557,wmoUnit:degC,91,57,,,,,,,,
La Salle,28.34621032,-99.1034773,24.444444444444443,wmoUnit:degC,85,10,15224.394301391645,wmoUnit:m,,,,,,
Edwards,29.98248216,-100.3048937,18.88888888888889,wmoUnit:degC,89,10,15884.225095825224,wmoUnit:m,,,,,,
Lee,30.31065065,-96.96568735,21.666666666666668,wmoUnit:degC,86,73,9656.064,wmoUnit:m,,,,,,
Robertson,31.02705415,-96.51272568,21.666666666666668,wmoUnit:degC,90,20,16093.44,wmoUnit:m,,,Flood Warning,Severe,Immediate,2025-05-29T08:30:00-05:00
Young,33.17670764,-98.68781396,20.0,wmoUnit:degC,93,22,16093.44,wmoUnit:m,,,,,,
Bee,28.41736675,-97.74116811,22.77777777777778,wmoUnit:degC,100,64,12214.921205566421,wmoUnit:m,,,,,,
Clay,33.78379717,-98.208958,18.333333333333332,wmoUnit:degC,95,25,,,,,,,,
San Jacinto,30.57948905,-95.16683273,22.77777777777778,wmoUnit:degC,97,16,11265.408,wmoUnit:m,,,,,,
Uvalde,29.35669829,-99.76203107,21.11111111111111,wmoUnit:degC,80,10,15546.262794433578,wmoUnit:m,,,,,,
Haskell,33.17824805,-99.73029401,20.0,wmoUnit:degC,93,20,16093.44,wmoUnit:m,,,,,,
Somervell,32.22229511,-97.77456553,21.11111111111111,wmoUnit:degC,93,32,16093.44,wmoUnit:m,,,,,,
Bexar,29.44884523,-98.51966309,20.555555555555557,wmoUnit:degC,92,10,15771.571506958067,wmoUnit:m,,,,,,
Grayson,33.62684371,-96.67764864,17.77777777777778,wmoUnit:degC,97,16,16093.44,wmoUnit:m,,,,,,
Bailey,34.0684915,-102.8299069,18.333333333333332,wmoUnit:degC,73,12,16093.44,wmoUnit:m,,,,,,
Jones,32.73970429,-99.87850599,20.0,wmoUnit:degC,84,20,16093.44,wmoUnit:m,,,,,,
Jefferson,29.88425832,-94.1708778,24.444444444444443,wmoUnit:degC,94,8,13212.714301391645,wmoUnit:m,,,,,,
Rusk,32.10803224,-94.76169577,22.22222222222222,wmoUnit:degC,93,15,16093.44,wmoUnit:m,,,Flood Warning,Severe,Immediate,2025-05-29T08:45:00-05:00
Glasscock,31.8694238,-101.520742,18.333333333333332,wmoUnit:degC,70,29,16093.44,wmoUnit:m,,,,,,
Gillespie,30.31800246,-98.94627245,19.444444444444443,wmoUnit:degC,91,10,15916.412712524489,wmoUnit:m,SV,A,Severe Thunderstorm Watch,Severe,Future,2025-05-28T22:00:00-05:00
Fisher,32.74305155,-100.4019503,18.333333333333332,wmoUnit:degC,90,10,16093.44,wmoUnit:m,,,,,,
Henderson,32.21188078,-95.85356847,21.11111111111111,wmoUnit:degC,90,12,16093.44,wmoUnit:m,,,Flood Warning,Severe,Immediate,2025-05-29T08:30:00-05:00
Shackelford,32.7360276,-99.35403034,20.0,wmoUnit:degC,87,20,16093.44,wmoUnit:m,,,,,,
Palo Pinto,32.75316856,-98.31299522,20.555555555555557,wmoUnit:degC,90,31,16093.44,wmoUnit:m,,,,,,
Wilbarger,34.08044953,-99.24089568,18.333333333333332,wmoUnit:degC,96,32,,,,,,,,
Floyd,34.07239775,-101.3033037,18.333333333333332,wmoUnit:degC,84,16,15691.104,wmoUnit:m,,,,,,
Orange,30.12807126,-93.89653794,24.444444444444443,wmoUnit:degC,90,5,13228.808109741198,wmoUnit:m,,,Flood Warning,Severe,Immediate,2025-05-29T11:15:00-05:00
Runnels,31.83105393,-99.97624799,18.333333333333332,wmoUnit:degC,90,10,16093.44,wmoUnit:m,,,,,,
Coleman,31.77329421,-99.45362579,18.333333333333332,wmoUnit:degC,90,10,16093.44,wmoUnit:m,SV,A,Severe Thunderstorm Watch,Severe,Future,2025-05-28T22:00:00-05:00
Martin,32.30605847,-101.9512464,15.555555555555555,wmoUnit:degC,90,33,16093.44,wmoUnit:m,,,,,,
Wheeler,35.40129002,-100.2697634,15.555555555555555,wmoUnit:degC,96,3,,,,,,,,
Culberson,31.44709817,-104.5177421,15.0,wmoUnit:degC,57,0,16093.44,wmoUnit:m,,,,,,
Mitchell,32.30636024,-100.9211128,19.444444444444443,wmoUnit:degC,68,20,16093.44,wmoUnit:m,,,,,,
Hudspeth,31.45613738,-105.3869428,12.777777777777779,wmoUnit:degC,86,0,16093.44,wmoUnit:m,,,,,,
Upshur,32.7362827,-94.94132011,21.11111111111111,wmoUnit:degC,90,12,16093.44,wmoUnit:m,,,,,,
Liberty,30.15153187,-94.8120925,23.333333333333332,wmoUnit:degC,93,23,11265.408,wmoUnit:m,,,,,,
Williamson,30.64834941,-97.60105467,22.22222222222222,wmoUnit:degC,93,70,9543.409643737756,wmoUnit:m,SV,A,Severe Thunderstorm Watch,Severe,Future,2025-05-28T22:00:00-05:00
Nacogdoches,31.61604108,-94.6158776,22.22222222222222,wmoUnit:degC,93,25,16093.44,wmoUnit:m,,,Flood Warning,Severe,Immediate,2025-05-29T08:45:00-05:00
Loving,31.84912973,-103.5799063,17.22222222222222,wmoUnit:degC,60,0,16093.44,wmoUnit:m,,,,,,
Jim Wells,27.73131099,-98.0898649,23.333333333333332,wmoUnit:degC,100,70,10187.14739721687,wmoUnit:m,,,,,,
Upton,31.36853957,-102.0430005,18.333333333333332,wmoUnit:degC,70,25,16093.44,wmoUnit:m,,,,,,
Newton,30.78619977,-93.74462993,22.22222222222222,wmoUnit:degC,97,1,10074.49380834955,wmoUnit:m,,,Flood Warning,Severe,Immediate,2025-05-29T11:15:00-05:00
Lamar,33.66746186,-95.57110784,17.77777777777778,wmoUnit:degC,93,7,12746.00460278313,wmoUnit:m,,,,,,
Polk,30.79250963,-94.82994949,22.77777777777778,wmoUnit:degC,90,12,11265.408,wmoUnit:m,,,Flood Warning,Severe,Immediate,2025-05-29T08:45:00-05:00
Collin,33.18789055,-96.57248871,18.88888888888889,wmoUnit:degC,93,23,16093.44,wmoUnit:m,,,,,,
Hardeman,34.28865227,-99.7453851,17.77777777777778,wmoUnit:degC,97,32,,,,,,,,
McMullen,28.35351091,-98.56842256,22.77777777777778,wmoUnit:degC,100,17,14516.283616699264,wmoUnit:m,,,,,,
Cottle,34.0776571,-100.2786983,18.88888888888889,wmoUnit:degC,93,16,14146.133698608355,wmoUnit:m,,,,,,
Frio,28.86726774,-99.10826004,21.666666666666668,wmoUnit:degC,88,10,14822.058301391646,wmoUnit:m,,,,,,
Gray,35.40130666,-100.812475,15.555555555555555,wmoUnit:degC,100,3,,,,,,,,
Dallam,36.27777107,-102.6021647,13.333333333333334,wmoUnit:degC,96,2,,,SV,A,Severe Thunderstorm Watch,Severe,Future,2025-05-28T21:00:00-05:00
Kenedy,26.92409448,-97.68137783,25.555555555555557,wmoUnit:degC,96,57,,,,,,,,
Fort Bend,29.52763253,-95.77090562,25.0,wmoUnit:degC,94,71,16093.44,wmoUnit:m,,,,,,
Armstrong,34.96522076,-101.3572412,15.555555555555555,wmoUnit:degC,100,4,,,,,,,,
Collingsworth,34.96498493,-100.2700733,16.666666666666668,wmoUnit:degC,93,4,,,,,,,,
Cass,33.07750446,-94.34348771,21.11111111111111,wmoUnit:degC,90,8,16093.44,wmoUnit:m,,,,,,
Sherman,36.27765824,-101.8933822,14.444444444444445,wmoUnit:degC,100,3,,,SV,A,Severe Thunderstorm Watch,Severe,Future,2025-05-28T21:00:00-05:00
Terry,33.17373729,-102.335157,19.444444444444443,wmoUnit:degC,56,19,15916.412712524489,wmoUnit:m,,,,,,
Limestone,31.54541898,-96.58056718,20.555555555555557,wmoUnit:degC,90,20,16093.44,wmoUnit:m,,,Flood Advisory,Minor,Expected,2025-05-28T16:00:00-05:00
Real,29.83182711,-99.82215881,18.88888888888889,wmoUnit:degC,89,10,15900.318904174776,wmoUnit:m,,,,,,
Lynn,33.17685487,-101.8160235,18.333333333333332,wmoUnit:degC,78,25,15819.85139721687,wmoUnit:m,,,,,,
Lavaca,29.38437003,-96.93020993,21.666666666666668,wmoUnit:degC,93,68,9656.064,wmoUnit:m,,,,,,
Nolan,32.3034718,-100.4060989,17.77777777777778,wmoUnit:degC,81,10,16093.44,wmoUnit:m,,,,,,
Gaines,32.74074537,-102.6351246,15.555555555555555,wmoUnit:degC,84,21,16093.44,wmoUnit:m,,,,,,
Montgomery,30.30022409,-95.50301411,23.88888888888889,wmoUnit:degC,90,29,16093.44,wmoUnit:m,,,,,,
Concho,31.32645211,-99.86413426,17.77777777777778,wmoUnit:degC,93,10,16093.44,wmoUnit:m,SV,A,Severe Thunderstorm Watch,Severe,Future,2025-05-28T22:00:00-05:00
Hardin,30.33238431,-94.39021394,23.333333333333332,wmoUnit:degC,93,8,9994.026301391645,wmoUnit:m,,,,,,
Harris,29.85967144,-95.39782106,25.0,wmoUnit:degC,94,61,16093.44,wmoUnit:m,,,,,,
Leon,31.29655719,-95.99554292,22.22222222222222,wmoUnit:degC,93,14,16093.44,wmoUnit:m,,,Flood Warning,Severe,Immediate,2025-05-29T08:30:00-05:00
Bowie,33.44572786,-94.42324298,20.555555555555557,wmoUnit:degC,93,6,16093.44,wmoUnit:m,,,Flood Warning,Severe,Immediate,2025-05-29T09:15:00-05:00
Kaufman,32.59927808,-96.28779341,19.444444444444443,wmoUnit:degC,97,19,14548.469698608355,wmoUnit:m,,,,,,
Anderson,31.81321543,-95.65251774,22.22222222222222,wmoUnit:degC,87,11,16093.44,wmoUnit:m,,,Flood Warning,Severe,Immediate,2025-05-29T08:45:00-05:00
San Saba,31.15520543,-98.81754295,21.11111111111111,wmoUnit:degC,87,10,16093.44,wmoUnit:m,SV,A,Severe Thunderstorm Warning,Severe,Immediate,2025-05-28T15:15:00-05:00
Schleicher,30.89661056,-100.538097,17.77777777777778,wmoUnit:degC,87,10,16093.44,wmoUnit:m,SV,A,Severe Thunderstorm Watch,Severe,Future,2025-05-28T22:00:00-05:00
Colorado,29.6208542,-96.52630821,22.77777777777778,wmoUnit:degC,100,57,14548.469698608355,wmoUnit:m,,,,,,
Milam,30.78625299,-96.97683495,22.22222222222222,wmoUnit:degC,93,28,16093.44,wmoUnit:m,,,Severe Thunderstorm Watch,Severe,Future,2025-05-28T22:00:00-05:00
Live Oak,28.3514375,-98.12474493,22.77777777777778,wmoUnit:degC,100,35,12665.537095825224,wmoUnit:m,,,,,,
Borden,32.7436916,-101.4317533,18.88888888888889,wmoUnit:degC,78,43,16093.44,wmoUnit:m,,,,,,
McCulloch,31.19896752,-99.34754972,19.444444444444443,wmoUnit:degC,87,10,16093.44,wmoUnit:m,SV,A,Severe Thunderstorm Watch,Severe,Future,2025-05-28T22:00:00-05:00
Johnson,32.37899918,-97.36660504,21.11111111111111,wmoUnit:degC,97,31,16093.44,wmoUnit:m,,,,,,
Montague,33.67496328,-97.72466993,18.333333333333332,wmoUnit:degC,93,14,16093.44,wmoUnit:m,,,,,,
Stonewall,33.17842158,-100.255259,19.444444444444443,wmoUnit:degC,97,32,15787.665315307619,wmoUnit:m,,,,,,
Comal,29.80816362,-98.27814516,18.333333333333332,wmoUnit:degC,97,11,15932.504986084026,wmoUnit:m,,,,,,
Eastland,32.32739258,-98.8325713,17.22222222222222,wmoUnit:degC,97,32,16093.44,wmoUnit:m,,,,,,
Comanche,31.9490639,-98.55841538,18.88888888888889,wmoUnit:degC,93,38,16093.44,wmoUnit:m,,,Severe Thunderstorm Watch,Severe,Future,2025-05-28T22:00:00-05:00
King,33.61641863,-100.2558584,20.0,wmoUnit:degC,93,26,14419.722301391646,wmoUnit:m,,,,,,
Washington,30.2145299,-96.40356575,22.77777777777778,wmoUnit:degC,97,35,16093.44,wmoUnit:m,,,,,,
Webb,27.76102524,-99.33170164,23.88888888888889,wmoUnit:degC,87,20,14982.993315307618,wmoUnit:m,,,,,,
Fayette,29.87683207,-96.91968047,23.333333333333332,wmoUnit:degC,93,67,9656.064,wmoUnit:m,,,,,,
Harrison,32.54814898,-94.37155736,21.11111111111111,wmoUnit:degC,97,9,16093.44,wmoUnit:m,,,,,,
Presidio,29.99977786,-104.2405552,15.555555555555555,wmoUnit:degC,67,1,16093.44,wmoUnit:m,,,,,,
Austin,29.88711223,-96.27791829,22.77777777777778,wmoUnit:degC,100,45,16093.44,wmoUnit:m,,,,,,
Randall,34.96594288,-101.8968527,15.555555555555555,wmoUnit:degC,96,6,,,,,,,,
Hood,32.43107878,-97.83280338,20.555555555555557,wmoUnit:degC,90,32,16093.44,wmoUnit:m,,,,,,
Victoria,28.79640594,-96.97176602,24.444444444444443,wmoUnit:degC,100,76,12504.602849304178,wmoUnit:m,,,,,,
Hutchinson,35.84000866,-101.3547257,16.11111111111111,wmoUnit:degC,93,2,,,,,,,,
Coryell,31.39087578,-97.7991883,22.77777777777778,wmoUnit:degC,97,35,16093.44,wmoUnit:m,,,Severe Thunderstorm Watch,Severe,Future,2025-05-28T22:00:00-05:00
Jackson,28.95603133,-96.57883268,22.22222222222222,wmoUnit:degC,100,84,12746.00460278313,wmoUnit:m,,,,,,
Taylor,32.30138229,-99.89003941,18.333333333333332,wmoUnit:degC,81,20,16093.44,wmoUnit:m,,,,,,
Zapata,27.00089072,-99.16860134,25.0,wmoUnit:degC,86,38,,,,,,,,
San Patricio,28.00922186,-97.51859857,23.88888888888889,wmoUnit:degC,100,79,12923.031890258802,wmoUnit:m,,,,,,
Grimes,30.54360689,-95.98557334,23.333333333333332,wmoUnit:degC,90,22,16093.44,wmoUnit:m,,,,,,
Lamb,34.06861242,-102.3517095,17.77777777777778,wmoUnit:degC,87,14,16093.44,wmoUnit:m,,,,,,
