countyName,latitude,longitude,temperature,temperature_unit,relativeHumidity,precipitationProbability,visibility,visibility_unit,hazard_phenomenon,hazard_significance,alert_event,alert_severity,alert_urgency,alert_expires
Foard,33.97408519,-99.77871109,30.555555555555557,wmoUnit:degC,50,2,,,,,,,,
Blanco,30.26636128,-98.39974086,34.44444444444444,wmoUnit:degC,44,0,16093.44,wmoUnit:m,,,,,,
Hockley,33.60750375,-102.3430919,32.22222222222222,wmoUnit:degC,33,1,16093.44,wmoUnit:m,,,,,,
Llano,30.70566579,-98.68387398,35.55555555555556,wmoUnit:degC,39,0,16093.44,wmoUnit:m,,,,,,
Swisher,34.53064989,-101.734951,28.88888888888889,wmoUnit:degC,53,0,16093.44,wmoUnit:m,,,,,,
Titus,33.2160906,-94.96509786,31.11111111111111,wmoUnit:degC,68,11,16093.44,wmoUnit:m,SV,A,Severe Thunderstorm Watch,Severe,Future,2025-06-08T02:00:00-05:00
Navarro,32.04695429,-96.47248134,30.555555555555557,wmoUnit:degC,63,1,16093.44,wmoUnit:m,,,Flood Warning,Severe,Immediate,2025-06-08T14:15:00-05:00
Brazoria,29.19345387,-95.45578479,31.11111111111111,wmoUnit:degC,63,0,16012.972493041932,wmoUnit:m,,,,,,
Hidalgo,26.396627,-98.18088681,35.55555555555556,wmoUnit:degC,44,0,,,,,,,,
Archer,33.61539176,-98.68783437,31.666666666666668,wmoUnit:degC,56,3,,,,,,,,
Refugio,28.32681413,-97.16546961,33.333333333333336,wmoUnit:degC,54,0,16093.44,wmoUnit:m,,,,,,
Andrews,32.30506283,-102.6378839,38.333333333333336,wmoUnit:degC,15,0,16093.44,wmoUnit:m,HT,Y,Heat Advisory,Moderate,Expected,2025-06-08T21:00:00-05:00
Galveston,29.39424415,-94.96474975,30.0,wmoUnit:degC,72,1,11265.408,wmoUnit:m,,,,,,
De Witt,29.08201599,-97.35666976,34.44444444444444,wmoUnit:degC,49,0,16093.44,wmoUnit:m,,,,,,
Gonzales,29.45641495,-97.49279927,35.55555555555556,wmoUnit:degC,46,0,16093.44,wmoUnit:m,,,,,,
Wharton,29.2778362,-96.22197375,31.666666666666668,wmoUnit:degC,59,0,16093.44,wmoUnit:m,,,,,,
Fannin,33.59396919,-96.10656755,27.77777777777778,wmoUnit:degC,74,24,16093.44,wmoUnit:m,,,,,,
Madison,30.96564645,-95.92818441,33.333333333333336,wmoUnit:degC,56,5,16093.44,wmoUnit:m,,,,,,
Moore,35.83768863,-101.8929556,27.22222222222222,wmoUnit:degC,49,2,,,,,,,,
Tyler,30.7712607,-94.37651432,33.888888888888886,wmoUnit:degC,53,3,15192.20668469238,wmoUnit:m,,,,,,
Lipscomb,36.27778432,-100.27317,27.22222222222222,wmoUnit:degC,51,1,,,,,,,,
Burleson,30.49246139,-96.62109399,34.44444444444444,wmoUnit:degC,48,2,16093.44,wmoUnit:m,,,,,,
Jim Hogg,27.04340499,-98.6972921,36.111111111111114,wmoUnit:degC,38,0,,,,,,,,
Throckmorton,33.17753907,-99.21236832,30.0,wmoUnit:degC,68,2,12794.284493041932,wmoUnit:m,,,,,,
Kleberg,27.43274395,-97.72889778,34.44444444444444,wmoUnit:degC,57,0,16093.44,wmoUnit:m,,,,,,
Shelby,31.79242191,-94.14495261,33.333333333333336,wmoUnit:degC,52,4,16093.44,wmoUnit:m,,,,,,
Garza,33.17991074,-101.2984496,32.77777777777778,wmoUnit:degC,42,1,16093.44,wmoUnit:m,,,,,,
Karnes,28.90493782,-97.85960621,36.666666666666664,wmoUnit:degC,41,0,16093.44,wmoUnit:m,,,,,,
Reeves,31.32307061,-103.693143,39.44444444444444,wmoUnit:degC,13,0,16093.44,wmoUnit:m,HT,Y,Heat Advisory,Moderate,Expected,2025-06-08T21:00:00-05:00
Houston,31.31764137,-95.42225367,33.333333333333336,wmoUnit:degC,58,5,15578.450411132842,wmoUnit:m,,,Flood Warning,Severe,Immediate,2025-06-08T21:00:00-05:00
El Paso,31.7686226,-106.2352229,36.111111111111114,wmoUnit:degC,7,0,16093.44,wmoUnit:m,HT,Y,Heat Advisory,Moderate,Expected,2025-06-08T06:00:00-06:00
Carson,35.40346802,-101.3542037,26.666666666666668,wmoUnit:degC,58,6,,,,,,,,
Medina,29.35520493,-99.11008331,36.666666666666664,wmoUnit:degC,38,0,16093.44,wmoUnit:m,,,,,,
Wichita,33.98421585,-98.70153389,32.77777777777778,wmoUnit:degC,49,4,,,,,,,,
Chambers,29.73912276,-94.60891308,31.666666666666668,wmoUnit:degC,64,1,16093.44,wmoUnit:m,,,Flood Warning,Severe,Immediate,2025-06-08T15:15:00-05:00
Donley,34.96540246,-100.8140501,28.333333333333332,wmoUnit:degC,57,2,,,,,,,,
Hopkins,33.14933822,-95.56414173,29.444444444444443,wmoUnit:degC,70,19,16093.44,wmoUnit:m,,,,,,
Lampasas,31.19627791,-98.24142711,28.88888888888889,wmoUnit:degC,67,0,16093.44,wmoUnit:m,,,,,,
Falls,31.25317017,-96.93579511,30.555555555555557,wmoUnit:degC,68,0,16093.44,wmoUnit:m,,,,,,
Stephens,32.73584155,-98.83612016,28.88888888888889,wmoUnit:degC,65,0,11265.408,wmoUnit:m,,,,,,
Travis,30.33423319,-97.78194654,36.666666666666664,wmoUnit:degC,41,0,16093.44,wmoUnit:m,,,,,,
Roberts,35.8385577,-100.8135689,28.333333333333332,wmoUnit:degC,55,2,,,,,,,,
Crosby,33.61459873,-101.2998612,30.0,wmoUnit:degC,50,0,16093.44,wmoUnit:m,,,,,,
Kerr,30.06153035,-99.35016969,34.44444444444444,wmoUnit:degC,41,1,16093.44,wmoUnit:m,,,,,,
Wood,32.78634374,-95.38206498,31.666666666666668,wmoUnit:degC,64,3,16093.44,wmoUnit:m,,,Flood Warning,Severe,Immediate,2025-06-08T20:45:00-05:00
Jack,33.23345819,-98.1725509,26.666666666666668,wmoUnit:degC,72,16,16093.44,wmoUnit:m,,,,,,
Marion,32.79797929,-94.35725239,32.77777777777778,wmoUnit:degC,60,6,16093.44,wmoUnit:m,,,,,,
Hale,34.07051782,-101.8269082,30.0,wmoUnit:degC,46,0,16093.44,wmoUnit:m,,,,,,
Jeff Davis,30.71559322,-104.1403539,33.333333333333336,wmoUnit:degC,13,6,16093.44,wmoUnit:m,HT,Y,Heat Advisory,Moderate,Expected,2025-06-08T21:00:00-05:00
Tarrant,32.77185236,-97.29116473,30.555555555555557,wmoUnit:degC,59,4,16093.44,wmoUnit:m,,,,,,
Waller,30.01093722,-95.98768942,33.888888888888886,wmoUnit:degC,49,1,12375.855452087468,wmoUnit:m,,,,,,
Reagan,31.36617698,-101.5230108,37.77777777777778,wmoUnit:degC,31,2,16093.44,wmoUnit:m,,,,,,
Smith,32.37514553,-95.26909511,31.666666666666668,wmoUnit:degC,64,2,16093.44,wmoUnit:m,,,Flood Warning,Severe,Immediate,2025-06-08T20:45:00-05:00
Van Zandt,32.56368961,-95.8364862,29.444444444444443,wmoUnit:degC,70,4,16093.44,wmoUnit:m,,,,,,
Cooke,33.638465,-97.21247642,27.22222222222222,wmoUnit:degC,67,20,16093.44,wmoUnit:m,,,,,,
Zavala,28.86530621,-99.76102001,37.77777777777778,wmoUnit:degC,36,0,16093.44,wmoUnit:m,,,,,,
Hall,34.53074134,-100.6809876,30.555555555555557,wmoUnit:degC,50,0,16093.44,wmoUnit:m,,,,,,
Kendall,29.9446397,-98.71160511,33.888888888888886,wmoUnit:degC,47,0,16093.44,wmoUnit:m,,,,,,
Goliad,28.65708563,-97.42646082,33.888888888888886,wmoUnit:degC,47,0,16093.44,wmoUnit:m,,,,,,
Yoakum,33.17293501,-102.8278792,33.888888888888886,wmoUnit:degC,25,2,16093.44,wmoUnit:m,,,,,,
Knox,33.60614755,-99.74144313,31.11111111111111,wmoUnit:degC,54,1,,,,,,,,
McLennan,31.55234489,-97.20184883,31.11111111111111,wmoUnit:degC,66,0,16093.44,wmoUnit:m,,,,,,
Brewster,29.81205836,-103.2518906,40.0,wmoUnit:degC,18,17,16093.44,wmoUnit:m,HT,Y,Heat Advisory,Moderate,Expected,2025-06-08T21:00:00-05:00
Panola,32.16222886,-94.30552858,33.333333333333336,wmoUnit:degC,52,4,16093.44,wmoUnit:m,,,,,,
Bandera,29.74724753,-99.24637282,35.0,wmoUnit:degC,42,1,16093.44,wmoUnit:m,,,,,,
Parmer,34.53014507,-102.784594,28.88888888888889,wmoUnit:degC,44,0,16093.44,wmoUnit:m,,,,,,
Rockwall,32.89786769,-96.40780584,29.444444444444443,wmoUnit:degC,70,7,16093.44,wmoUnit:m,,,,,,
Trinity,31.0885069,-95.13551682,32.77777777777778,wmoUnit:degC,58,4,15916.412712524489,wmoUnit:m,,,Flood Warning,Severe,Immediate,2025-06-08T15:15:00-05:00
Bosque,31.90050476,-97.63437613,30.555555555555557,wmoUnit:degC,63,0,16093.44,wmoUnit:m,,,,,,
Coke,31.88849293,-100.5298747,36.111111111111114,wmoUnit:degC,38,3,16093.44,wmoUnit:m,,,,,,
Franklin,33.17550691,-95.21841437,30.555555555555557,wmoUnit:degC,70,10,16093.44,wmoUnit:m,SV,A,Severe Thunderstorm Watch,Severe,Future,2025-06-08T02:00:00-05:00
Hill,31.99079033,-97.1324142,31.11111111111111,wmoUnit:degC,61,0,16093.44,wmoUnit:m,,,,,,
Calhoun,28.48966896,-96.64708119,32.77777777777778,wmoUnit:degC,62,0,16093.44,wmoUnit:m,,,,,,
Irion,31.30393203,-100.9824126,37.22222222222222,wmoUnit:degC,34,1,16093.44,wmoUnit:m,,,,,,
Midland,31.86921148,-102.0315032,38.333333333333336,wmoUnit:degC,20,2,16093.44,wmoUnit:m,HT,Y,Heat Advisory,Moderate,Expected,2025-06-08T21:00:00-05:00
Brown,31.77432313,-98.99989649,32.77777777777778,wmoUnit:degC,52,0,16093.44,wmoUnit:m,,,,,,
Wilson,29.17315896,-98.08621015,36.111111111111114,wmoUnit:degC,42,0,16093.44,wmoUnit:m,,,,,,
Oldham,35.40497586,-102.6029949,27.77777777777778,wmoUnit:degC,53,2,,,,,,,,
Freestone,31.70486443,-96.14918535,30.0,wmoUnit:degC,68,2,16093.44,wmoUnit:m,,,,,,
Sabine,31.34321941,-93.85170439,33.888888888888886,wmoUnit:degC,58,5,16093.44,wmoUnit:m,,,,,,
Deaf Smith,34.96602014,-102.6048162,27.77777777777778,wmoUnit:degC,55,1,,,,,,,,
Angelina,31.25475875,-94.611742,33.888888888888886,wmoUnit:degC,60,4,16093.44,wmoUnit:m,,,Flood Warning,Severe,Immediate,2025-06-08T21:00:00-05:00
Kent,33.18284492,-100.7791031,32.22222222222222,wmoUnit:degC,47,1,16093.44,wmoUnit:m,,,,,,
Red River,33.62074539,-95.0501886,31.11111111111111,wmoUnit:degC,70,19,16093.44,wmoUnit:m,SV,A,Severe Thunderstorm Watch,Severe,Future,2025-06-08T02:00:00-05:00
Kinney,29.35000302,-100.4178441,36.666666666666664,wmoUnit:degC,35,0,16093.44,wmoUnit:m,,,,,,
Denton,33.205574,-97.11681154,29.444444444444443,wmoUnit:degC,72,20,16093.44,wmoUnit:m,,,,,,
Sutton,30.49747152,-100.5382263,33.888888888888886,wmoUnit:degC,41,0,16093.44,wmoUnit:m,,,,,,
Guadalupe,29.58257236,-97.94850308,36.111111111111114,wmoUnit:degC,42,0,16093.44,wmoUnit:m,,,,,,
Winkler,31.85008609,-103.0484794,38.888888888888886,wmoUnit:degC,13,0,16093.44,wmoUnit:m,HT,Y,Heat Advisory,Moderate,Expected,2025-06-08T21:00:00-05:00
Dimmit,28.42161168,-99.760574,39.44444444444444,wmoUnit:degC,30,0,16093.44,wmoUnit:m,,,,,,
Wise,33.21585061,-97.65444124,26.11111111111111,wmoUnit:degC,72,20,16093.44,wmoUnit:m,,,,,,
Hemphill,35.83750155,-100.2704628,27.22222222222222,wmoUnit:degC,56,1,,,,,,,,
Potter,35.40128927,-101.8940484,28.333333333333332,wmoUnit:degC,55,2,,,,,,,,
Childress,34.52929257,-100.2075664,30.555555555555557,wmoUnit:degC,52,0,16093.44,wmoUnit:m,,,,,,
Willacy,26.47132899,-97.64303323,33.333333333333336,wmoUnit:degC,58,0,,,,,,,,
Bastrop,30.10353518,-97.31187705,36.111111111111114,wmoUnit:degC,43,0,16093.44,wmoUnit:m,,,,,,
Kimble,30.48676251,-99.74892716,34.44444444444444,wmoUnit:degC,46,0,16093.44,wmoUnit:m,,,,,,
Scurry,32.74720063,-100.9165071,36.111111111111114,wmoUnit:degC,35,8,16093.44,wmoUnit:m,,,,,,
Ochiltree,36.27846334,-100.815653,26.666666666666668,wmoUnit:degC,51,1,,,,,,,,
Hansford,36.27753179,-101.3545624,26.666666666666668,wmoUnit:degC,51,1,,,,,,,,
Hartley,35.83996755,-102.6028835,27.77777777777778,wmoUnit:degC,46,4,,,,,,,,
Cameron,26.13847728,-97.51499968,32.77777777777778,wmoUnit:degC,58,0,,,,,,,,
Matagorda,28.86711039,-95.98533866,30.555555555555557,wmoUnit:degC,68,0,16093.44,wmoUnit:m,,,,,,
Burnet,30.78843382,-98.18252382,34.44444444444444,wmoUnit:degC,41,0,16093.44,wmoUnit:m,,,,,,
Rains,32.87004212,-95.79347545,30.0,wmoUnit:degC,68,7,16093.44,wmoUnit:m,,,,,,
Hays,30.05782657,-98.03104087,35.55555555555556,wmoUnit:degC,45,0,16093.44,wmoUnit:m,,,,,,
Mason,30.71742293,-99.2263026,33.333333333333336,wmoUnit:degC,47,0,16093.44,wmoUnit:m,,,,,,
Ward,31.509424,-103.1024636,40.0,wmoUnit:degC,13,0,16093.44,wmoUnit:m,HT,Y,Heat Advisory,Moderate,Expected,2025-06-08T21:00:00-05:00
Delta,33.38623601,-95.67221685,27.77777777777778,wmoUnit:degC,77,22,16093.44,wmoUnit:m,,,,,,
Nueces,27.72621549,-97.61767326,33.888888888888886,wmoUnit:degC,55,0,16093.44,wmoUnit:m,,,,,,
Callahan,32.2977738,-99.37359692,32.22222222222222,wmoUnit:degC,54,1,16093.44,wmoUnit:m,,,Severe Thunderstorm Warning,Severe,Immediate,2025-06-08T00:45:00-05:00
Bell,31.03778267,-97.47790776,31.11111111111111,wmoUnit:degC,61,0,16093.44,wmoUnit:m,,,,,,
Cherokee,31.83695632,-95.16515234,31.666666666666668,wmoUnit:degC,64,4,16093.44,wmoUnit:m,,,Flood Warning,Severe,Immediate,2025-06-08T21:00:00-05:00
Ellis,32.34839264,-96.79467417,30.0,wmoUnit:degC,68,1,16093.44,wmoUnit:m,,,,,,
Lubbock,33.6101944,-101.8205745,32.22222222222222,wmoUnit:degC,39,1,16093.44,wmoUnit:m,,,,,,
Terrell,30.22502597,-102.0764533,38.888888888888886,wmoUnit:degC,30,14,16093.44,wmoUnit:m,HT,Y,Heat Advisory,Moderate,Expected,2025-06-08T21:00:00-05:00
Crockett,30.72291931,-101.4118364,36.111111111111114,wmoUnit:degC,33,0,16093.44,wmoUnit:m,,,,,,
Atascosa,28.89418432,-98.52741302,37.22222222222222,wmoUnit:degC,37,0,16093.44,wmoUnit:m,,,,,,
Ector,31.86908156,-102.5430907,38.888888888888886,wmoUnit:degC,15,1,16093.44,wmoUnit:m,HT,Y,Heat Advisory,Moderate,Expected,2025-06-08T21:00:00-05:00
Brazos,30.6610425,-96.3022943,33.333333333333336,wmoUnit:degC,54,3,16093.44,wmoUnit:m,,,,,,
Aransas,28.12709562,-96.99258951,30.0,wmoUnit:degC,77,0,11104.473753478953,wmoUnit:m,,,,,,
Dallas,32.76653746,-96.77781862,30.0,wmoUnit:degC,65,4,16093.44,wmoUnit:m,,,,,,
Howard,32.30610232,-101.4355097,37.77777777777778,wmoUnit:degC,26,3,16093.44,wmoUnit:m,,,,,,
Motley,34.07409017,-100.7798961,29.444444444444443,wmoUnit:degC,55,0,16093.44,wmoUnit:m,,,,,,
San Augustine,31.39427005,-94.16809762,33.888888888888886,wmoUnit:degC,58,4,16093.44,wmoUnit:m,,,,,,
Maverick,28.74260943,-100.3144638,38.888888888888886,wmoUnit:degC,31,0,16093.44,wmoUnit:m,,,,,,
Erath,32.23640361,-98.21722756,28.88888888888889,wmoUnit:degC,61,0,16093.44,wmoUnit:m,,,,,,
Dickens,33.61663428,-100.7788138,30.555555555555557,wmoUnit:degC,52,0,16093.44,wmoUnit:m,,,,,,
Caldwell,29.83677935,-97.61983479,36.111111111111114,wmoUnit:degC,43,0,16093.44,wmoUnit:m,,,,,,
Dawson,32.74258137,-101.9476136,36.111111111111114,wmoUnit:degC,31,2,16093.44,wmoUnit:m,,,,,,
Camp,32.97321771,-94.97860185,31.11111111111111,wmoUnit:degC,66,6,16093.44,wmoUnit:m,SV,A,Severe Thunderstorm Watch,Severe,Future,2025-06-08T02:00:00-05:00
Duval,27.68133382,-98.50889672,38.333333333333336,wmoUnit:degC,35,0,16093.44,wmoUnit:m,,,,,,
Hunt,33.123531,-96.08550014,28.88888888888889,wmoUnit:degC,74,19,16093.44,wmoUnit:m,,,,,,
Mills,31.49524259,-98.59552736,29.444444444444443,wmoUnit:degC,63,0,16093.44,wmoUnit:m,,,,,,
Val Verde,29.89300587,-101.15171,36.666666666666664,wmoUnit:degC,32,0,16093.44,wmoUnit:m,,,,,,
Pecos,30.78100044,-102.7235743,38.888888888888886,wmoUnit:degC,20,12,16093.44,wmoUnit:m,HT,Y,Heat Advisory,Moderate,Expected,2025-06-08T21:00:00-05:00
Baylor,33.61648147,-99.21351964,31.11111111111111,wmoUnit:degC,55,2,,,,,,,,
Gregg,32.48036452,-94.81723694,32.77777777777778,wmoUnit:degC,58,4,16093.44,wmoUnit:m,,,,,,
Cochran,33.60410808,-102.8285264,32.77777777777778,wmoUnit:degC,29,1,16093.44,wmoUnit:m,,,,,,
Jasper,30.74391255,-94.02495849,35.0,wmoUnit:degC,48,1,14484.096,wmoUnit:m,,,,,,
Hamilton,31.70479181,-98.11066654,30.555555555555557,wmoUnit:degC,61,0,16093.44,wmoUnit:m,,,,,,
Castro,34.53000304,-102.2617608,29.444444444444443,wmoUnit:degC,46,0,16093.44,wmoUnit:m,,,,,,
Sterling,31.82786516,-101.0500699,37.22222222222222,wmoUnit:degC,37,3,16093.44,wmoUnit:m,,,,,,
Starr,26.56212627,-98.73834895,36.666666666666664,wmoUnit:degC,40,0,,,,,,,,
Crane,31.42846287,-102.5156425,40.55555555555556,wmoUnit:degC,17,1,16093.44,wmoUnit:m,HT,Y,Heat Advisory,Moderate,Expected,2025-06-08T21:00:00-05:00
Morris,33.11368507,-94.73205137,31.11111111111111,wmoUnit:degC,66,9,16093.44,wmoUnit:m,SV,A,Severe Thunderstorm Watch,Severe,Future,2025-06-08T02:00:00-05:00
Briscoe,34.53041048,-101.2085769,28.333333333333332,wmoUnit:degC,55,0,16093.44,wmoUnit:m,,,,,,
Tom Green,31.4044442,-100.4620678,35.0,wmoUnit:degC,45,0,16093.44,wmoUnit:m,,,,,,
Menard,30.88981785,-99.82061472,33.333333333333336,wmoUnit:degC,49,0,16093.44,wmoUnit:m,,,,,,
Parker,32.77852261,-97.80472194,28.88888888888889,wmoUnit:degC,70,2,16093.44,wmoUnit:m,,,,,,
Walker,30.73899492,-95.57224172,32.77777777777778,wmoUnit:degC,54,4,16077.34619165045,wmoUnit:m,,,Flood Warning,Severe,Immediate,2025-06-08T15:15:00-05:00
Brooks,27.0315669,-98.21874127,36.111111111111114,wmoUnit:degC,40,0,,,,,,,,
La Salle,28.34621032,-99.1034773,38.888888888888886,wmoUnit:degC,36,0,16093.44,wmoUnit:m,,,,,,
Edwards,29.98248216,-100.3048937,33.333333333333336,wmoUnit:degC,40,0,16093.44,wmoUnit:m,,,,,,
Lee,30.31065065,-96.96568735,35.0,wmoUnit:degC,45,0,16093.44,wmoUnit:m,,,,,,
Robertson,31.02705415,-96.51272568,30.0,wmoUnit:degC,70,1,16093.44,wmoUnit:m,,,,,,
Young,33.17670764,-98.68781396,25.0,wmoUnit:degC,79,1,16093.44,wmoUnit:m,,,,,,
Bee,28.41736675,-97.74116811,35.55555555555556,wmoUnit:degC,43,0,16093.44,wmoUnit:m,,,,,,
Clay,33.78379717,-98.208958,32.22222222222222,wmoUnit:degC,50,5,,,,,,,,
San Jacinto,30.57948905,-95.16683273,32.77777777777778,wmoUnit:degC,56,3,16093.44,wmoUnit:m,,,Flood Warning,Severe,Immediate,2025-06-08T15:15:00-05:00
Uvalde,29.35669829,-99.76203107,36.666666666666664,wmoUnit:degC,38,0,16093.44,wmoUnit:m,,,,,,
Haskell,33.17824805,-99.73029401,31.11111111111111,wmoUnit:degC,59,2,16093.44,wmoUnit:m,,,,,,
Somervell,32.22229511,-97.77456553,30.0,wmoUnit:degC,59,0,16093.44,wmoUnit:m,,,,,,
Bexar,29.44884523,-98.51966309,37.22222222222222,wmoUnit:degC,38,0,16093.44,wmoUnit:m,,,,,,
Grayson,33.62684371,-96.67764864,27.22222222222222,wmoUnit:degC,72,21,16093.44,wmoUnit:m,,,,,,
Bailey,34.0684915,-102.8299069,30.555555555555557,wmoUnit:degC,36,1,16093.44,wmoUnit:m,,,,,,
Jones,32.73970429,-99.87850599,32.22222222222222,wmoUnit:degC,50,3,16093.44,wmoUnit:m,,,,,,
Jefferson,29.88425832,-94.1708778,32.22222222222222,wmoUnit:degC,59,0,16077.34619165045,wmoUnit:m,,,,,,
Rusk,32.10803224,-94.76169577,32.77777777777778,wmoUnit:degC,58,6,16093.44,wmoUnit:m,,,,,,
Glasscock,31.8694238,-101.520742,37.77777777777778,wmoUnit:degC,28,3,16093.44,wmoUnit:m,,,,,,
Gillespie,30.31800246,-98.94627245,32.77777777777778,wmoUnit:degC,45,0,16093.44,wmoUnit:m,,,,,,
Fisher,32.74305155,-100.4019503,33.333333333333336,wmoUnit:degC,49,3,16093.44,wmoUnit:m,,,,,,
Henderson,32.21188078,-95.85356847,30.0,wmoUnit:degC,70,3,16093.44,wmoUnit:m,,,Flood Warning,Severe,Immediate,2025-06-08T14:15:00-05:00
Shackelford,32.7360276,-99.35403034,31.11111111111111,wmoUnit:degC,61,2,16093.44,wmoUnit:m,,,Severe Thunderstorm Warning,Severe,Immediate,2025-06-08T00:45:00-05:00
Palo Pinto,32.75316856,-98.31299522,29.444444444444443,wmoUnit:degC,67,1,16093.44,wmoUnit:m,,,,,,
Wilbarger,34.08044953,-99.24089568,32.22222222222222,wmoUnit:degC,45,3,,,,,,,,
Floyd,34.07239775,-101.3033037,29.444444444444443,wmoUnit:degC,50,0,16093.44,wmoUnit:m,,,,,,
Orange,30.12807126,-93.89653794,32.22222222222222,wmoUnit:degC,57,0,16093.44,wmoUnit:m,,,,,,
Runnels,31.83105393,-99.97624799,35.0,wmoUnit:degC,42,1,16093.44,wmoUnit:m,,,,,,
Coleman,31.77329421,-99.45362579,33.888888888888886,wmoUnit:degC,44,0,16093.44,wmoUnit:m,,,,,,
Martin,32.30605847,-101.9512464,37.77777777777778,wmoUnit:degC,23,1,16093.44,wmoUnit:m,HT,Y,Heat Advisory,Moderate,Expected,2025-06-08T21:00:00-05:00
Wheeler,35.40129002,-100.2697634,27.77777777777778,wmoUnit:degC,55,2,,,,,,,,
Culberson,31.44709817,-104.5177421,36.111111111111114,wmoUnit:degC,9,0,16093.44,wmoUnit:m,HT,Y,Heat Advisory,Moderate,Expected,2025-06-08T21:00:00-05:00
Mitchell,32.30636024,-100.9211128,38.333333333333336,wmoUnit:degC,30,6,16093.44,wmoUnit:m,,,,,,
Hudspeth,31.45613738,-105.3869428,35.0,wmoUnit:degC,9,1,16093.44,wmoUnit:m,,,Heat Advisory,Moderate,Expected,2025-06-08T06:00:00-06:00
Upshur,32.7362827,-94.94132011,31.666666666666668,wmoUnit:degC,61,3,16093.44,wmoUnit:m,,,,,,
Liberty,30.15153187,-94.8120925,32.22222222222222,wmoUnit:degC,58,1,16093.44,wmoUnit:m,,,Flood Warning,Severe,Immediate,2025-06-08T15:15:00-05:00
Williamson,30.64834941,-97.60105467,35.55555555555556,wmoUnit:degC,46,0,16093.44,wmoUnit:m,,,,,,
Nacogdoches,31.61604108,-94.6158776,33.333333333333336,wmoUnit:degC,60,4,16093.44,wmoUnit:m,,,Flood Warning,Severe,Immediate,2025-06-08T20:45:00-05:00
Loving,31.84912973,-103.5799063,38.888888888888886,wmoUnit:degC,13,0,16093.44,wmoUnit:m,,,,,,
Jim Wells,27.73131099,-98.0898649,37.22222222222222,wmoUnit:degC,42,0,16093.44,wmoUnit:m,,,,,,
Upton,31.36853957,-102.0430005,38.333333333333336,wmoUnit:degC,24,2,16093.44,wmoUnit:m,,,,,,
Newton,30.78619977,-93.74462993,33.888888888888886,wmoUnit:degC,51,2,15562.35660278313,wmoUnit:m,,,,,,
Lamar,33.66746186,-95.57110784,25.555555555555557,wmoUnit:degC,82,30,16093.44,wmoUnit:m,,,,,,
Polk,30.79250963,-94.82994949,32.77777777777778,wmoUnit:degC,54,3,15980.786411132844,wmoUnit:m,,,Flood Warning,Severe,Immediate,2025-06-08T15:15:00-05:00
Collin,33.18789055,-96.57248871,28.88888888888889,wmoUnit:degC,67,20,16093.44,wmoUnit:m,,,,,,
Hardeman,34.28865227,-99.7453851,30.555555555555557,wmoUnit:degC,50,1,,,,,,,,
McMullen,28.35351091,-98.56842256,38.888888888888886,wmoUnit:degC,36,0,16093.44,wmoUnit:m,,,,,,
Cottle,34.0776571,-100.2786983,30.555555555555557,wmoUnit:degC,52,0,16093.44,wmoUnit:m,,,,,,
Frio,28.86726774,-99.10826004,38.333333333333336,wmoUnit:degC,33,0,16093.44,wmoUnit:m,,,,,,
Gray,35.40130666,-100.812475,27.22222222222222,wmoUnit:degC,60,4,,,,,,,,
Dallam,36.27777107,-102.6021647,27.77777777777778,wmoUnit:degC,40,6,,,,,,,,
Kenedy,26.92409448,-97.68137783,32.22222222222222,wmoUnit:degC,66,0,,,,,,,,
Fort Bend,29.52763253,-95.77090562,31.666666666666668,wmoUnit:degC,59,0,15868.131287475511,wmoUnit:m,,,,,,
Armstrong,34.96522076,-101.3572412,27.77777777777778,wmoUnit:degC,61,1,,,,,,,,
Collingsworth,34.96498493,-100.2700733,28.88888888888889,wmoUnit:degC,55,1,,,,,,,,
Cass,33.07750446,-94.34348771,32.22222222222222,wmoUnit:degC,62,11,16093.44,wmoUnit:m,SV,A,Severe Thunderstorm Watch,Severe,Future,2025-06-08T02:00:00-05:00
Sherman,36.27765824,-101.8933822,27.22222222222222,wmoUnit:degC,46,2,,,,,,,,
Terry,33.17373729,-102.335157,33.888888888888886,wmoUnit:degC,29,1,16093.44,wmoUnit:m,,,,,,
Limestone,31.54541898,-96.58056718,29.444444444444443,wmoUnit:degC,65,1,16093.44,wmoUnit:m,,,,,,
Real,29.83182711,-99.82215881,33.888888888888886,wmoUnit:degC,40,1,16093.44,wmoUnit:m,,,,,,
Lynn,33.17685487,-101.8160235,33.333333333333336,wmoUnit:degC,37,2,16093.44,wmoUnit:m,,,,,,
Lavaca,29.38437003,-96.93020993,35.0,wmoUnit:degC,49,0,16093.44,wmoUnit:m,,,,,,
Nolan,32.3034718,-100.4060989,33.888888888888886,wmoUnit:degC,39,20,16093.44,wmoUnit:m,,,,,,
Gaines,32.74074537,-102.6351246,35.55555555555556,wmoUnit:degC,22,1,16093.44,wmoUnit:m,,,,,,
Montgomery,30.30022409,-95.50301411,34.44444444444444,wmoUnit:degC,48,1,16093.44,wmoUnit:m,,,,,,
Concho,31.32645211,-99.86413426,33.333333333333336,wmoUnit:degC,47,0,16093.44,wmoUnit:m,,,,,,
Hardin,30.33238431,-94.39021394,33.333333333333336,wmoUnit:degC,54,3,16045.160109741197,wmoUnit:m,,,,,,
Harris,29.85967144,-95.39782106,33.888888888888886,wmoUnit:degC,49,1,16093.44,wmoUnit:m,,,,,,
Leon,31.29655719,-95.99554292,30.555555555555557,wmoUnit:degC,70,2,16093.44,wmoUnit:m,,,,,,
Bowie,33.44572786,-94.42324298,31.666666666666668,wmoUnit:degC,68,19,16093.44,wmoUnit:m,SV,A,Severe Thunderstorm Warning,Severe,Immediate,2025-06-08T00:30:00-05:00
Kaufman,32.59927808,-96.28779341,30.0,wmoUnit:degC,68,3,16093.44,wmoUnit:m,,,,,,
Anderson,31.81321543,-95.65251774,30.0,wmoUnit:degC,70,3,16093.44,wmoUnit:m,,,Flood Warning,Severe,Immediate,2025-06-08T21:00:00-05:00
San Saba,31.15520543,-98.81754295,32.77777777777778,wmoUnit:degC,52,0,16093.44,wmoUnit:m,,,,,,
Schleicher,30.89661056,-100.538097,34.44444444444444,wmoUnit:degC,39,0,16093.44,wmoUnit:m,,,,,,
Colorado,29.6208542,-96.52630821,32.77777777777778,wmoUnit:degC,54,0,16093.44,wmoUnit:m,,,,,,
Milam,30.78625299,-96.97683495,31.11111111111111,wmoUnit:degC,63,0,16093.44,wmoUnit:m,,,,,,
Live Oak,28.3514375,-98.12474493,38.333333333333336,wmoUnit:degC,37,0,16093.44,wmoUnit:m,,,,,,
Borden,32.7436916,-101.4317533,36.111111111111114,wmoUnit:degC,34,4,16093.44,wmoUnit:m,,,,,,
McCulloch,31.19896752,-99.34754972,32.77777777777778,wmoUnit:degC,49,0,16093.44,wmoUnit:m,,,,,,
Johnson,32.37899918,-97.36660504,30.0,wmoUnit:degC,70,0,16093.44,wmoUnit:m,,,,,,
Montague,33.67496328,-97.72466993,26.11111111111111,wmoUnit:degC,60,20,16093.44,wmoUnit:m,,,,,,
Stonewall,33.17842158,-100.255259,34.44444444444444,wmoUnit:degC,44,1,16093.44,wmoUnit:m,,,,,,
Comal,29.80816362,-98.27814516,34.44444444444444,wmoUnit:degC,46,0,16093.44,wmoUnit:m,,,,,,
Eastland,32.32739258,-98.8325713,27.77777777777778,wmoUnit:degC,65,0,16093.44,wmoUnit:m,,,,,,
Comanche,31.9490639,-98.55841538,30.555555555555557,wmoUnit:degC,61,0,16093.44,wmoUnit:m,,,,,,
King,33.61641863,-100.2558584,31.666666666666668,wmoUnit:degC,54,0,16093.44,wmoUnit:m,,,,,,
Washington,30.2145299,-96.40356575,33.333333333333336,wmoUnit:degC,52,1,16093.44,wmoUnit:m,,,,,,
Webb,27.76102524,-99.33170164,38.333333333333336,wmoUnit:degC,34,0,16093.44,wmoUnit:m,,,,,,
Fayette,29.87683207,-96.91968047,35.55555555555556,wmoUnit:degC,45,0,16093.44,wmoUnit:m,,,,,,
Harrison,32.54814898,-94.37155736,32.77777777777778,wmoUnit:degC,60,5,16093.44,wmoUnit:m,,,,,,
Presidio,29.99977786,-104.2405552,36.111111111111114,wmoUnit:degC,15,7,16093.44,wmoUnit:m,HT,Y,Heat Advisory,Moderate,Expected,2025-06-08T21:00:00-05:00
Austin,29.88711223,-96.27791829,33.333333333333336,wmoUnit:degC,51,1,15353.141698608355,wmoUnit:m,,,,,,
Randall,34.96594288,-101.8968527,28.333333333333332,wmoUnit:degC,61,1,,,,,,,,
Hood,32.43107878,-97.83280338,29.444444444444443,wmoUnit:degC,63,0,16093.44,wmoUnit:m,,,,,,
Victoria,28.79640594,-96.97176602,34.44444444444444,wmoUnit:degC,51,0,16093.44,wmoUnit:m,,,,,,
Hutchinson,35.84000866,-101.3547257,27.77777777777778,wmoUnit:degC,51,2,,,,,,,,
Coryell,31.39087578,-97.7991883,30.555555555555557,wmoUnit:degC,68,0,16093.44,wmoUnit:m,,,,,,
Jackson,28.95603133,-96.57883268,31.666666666666668,wmoUnit:degC,64,0,16093.44,wmoUnit:m,,,,,,
Taylor,32.30138229,-99.89003941,31.666666666666668,wmoUnit:degC,50,2,16093.44,wmoUnit:m,,,,,,
Zapata,27.00089072,-99.16860134,37.77777777777778,wmoUnit:degC,34,0,,,,,,,,
San Patricio,28.00922186,-97.51859857,33.333333333333336,wmoUnit:degC,59,0,16093.44,wmoUnit:m,,,,,,
Grimes,30.54360689,-95.98557334,33.333333333333336,wmoUnit:degC,49,2,15964.69260278313,wmoUnit:m,,,,,,
Lamb,34.06861242,-102.3517095,31.11111111111111,wmoUnit:degC,41,1,16093.44,wmoUnit:m,,,,,,
