countyName,latitude,longitude,temperature,temperature_unit,relativeHumidity,precipitationProbability,visibility,visibility_unit,hazard_phenomenon,hazard_significance,alert_event,alert_severity,alert_urgency,alert_expires
Foard,33.97408519,-99.77871109,30.555555555555557,wmoUnit:degC,52,64,,,FA,A,Flood Watch,Severe,Future,2025-05-26T13:00:00-05:00
Blanco,30.26636128,-98.39974086,29.444444444444443,wmoUnit:degC,55,8,16093.44,wmoUnit:m,,,,,,
Hockley,33.60750375,-102.3430919,21.666666666666668,wmoUnit:degC,51,46,16093.44,wmoUnit:m,,,,,,
Llano,30.70566579,-98.68387398,31.666666666666668,wmoUnit:degC,55,7,16093.44,wmoUnit:m,,,,,,
Swisher,34.53064989,-101.734951,17.77777777777778,wmoUnit:degC,97,74,11828.678246521047,wmoUnit:m,,,,,,
Titus,33.2160906,-94.96509786,28.333333333333332,wmoUnit:degC,70,31,16093.44,wmoUnit:m,FA,A,Flood Warning,Severe,Immediate,2025-05-26T21:30:00-05:00
Navarro,32.04695429,-96.47248134,33.333333333333336,wmoUnit:degC,58,14,16093.44,wmoUnit:m,FA,A,Severe Thunderstorm Watch,Severe,Future,2025-05-26T05:00:00-05:00
Brazoria,29.19345387,-95.45578479,28.88888888888889,wmoUnit:degC,88,25,16077.34619165045,wmoUnit:m,,,Rip Current Statement,Moderate,Expected,2025-05-26T09:30:00-05:00
Hidalgo,26.396627,-98.18088681,30.0,wmoUnit:degC,73,2,,,,,,,,
Archer,33.61539176,-98.68783437,33.333333333333336,wmoUnit:degC,46,35,,,FA,A,Flood Watch,Severe,Future,2025-05-26T13:00:00-05:00
Refugio,28.32681413,-97.16546961,30.0,wmoUnit:degC,80,1,11088.379945129402,wmoUnit:m,,,,,,
Andrews,32.30506283,-102.6378839,35.0,wmoUnit:degC,12,0,16093.44,wmoUnit:m,,,,,,
Galveston,29.39424415,-94.96474975,30.0,wmoUnit:degC,82,26,16012.972493041932,wmoUnit:m,,,Rip Current Statement,Moderate,Expected,2025-05-26T09:30:00-05:00
De Witt,29.08201599,-97.35666976,29.444444444444443,wmoUnit:degC,73,4,16093.44,wmoUnit:m,,,,,,
Gonzales,29.45641495,-97.49279927,30.0,wmoUnit:degC,66,5,16093.44,wmoUnit:m,,,,,,
Wharton,29.2778362,-96.22197375,28.88888888888889,wmoUnit:degC,77,7,16093.44,wmoUnit:m,,,,,,
Fannin,33.59396919,-96.10656755,33.333333333333336,wmoUnit:degC,54,14,12794.284493041932,wmoUnit:m,FA,A,Severe Thunderstorm Watch,Severe,Future,2025-05-26T05:00:00-05:00
Madison,30.96564645,-95.92818441,29.444444444444443,wmoUnit:degC,67,0,16093.44,wmoUnit:m,,,,,,
Moore,35.83768863,-101.8929556,16.11111111111111,wmoUnit:degC,87,71,,,SV,A,,,,
Tyler,30.7712607,-94.37651432,27.77777777777778,wmoUnit:degC,77,16,16077.34619165045,wmoUnit:m,,,Flood Warning,Severe,Immediate,2025-05-26T12:00:00-05:00
Lipscomb,36.27778432,-100.27317,18.88888888888889,wmoUnit:degC,81,38,,,SV,A,,,,
Burleson,30.49246139,-96.62109399,31.11111111111111,wmoUnit:degC,57,0,16093.44,wmoUnit:m,,,,,,
Jim Hogg,27.04340499,-98.6972921,30.0,wmoUnit:degC,66,2,,,,,,,,
Throckmorton,33.17753907,-99.21236832,25.555555555555557,wmoUnit:degC,74,60,14532.375890258803,wmoUnit:m,TO,A,Special Weather Statement,Moderate,Expected,2025-05-26T04:00:00-05:00
Kleberg,27.43274395,-97.72889778,29.444444444444443,wmoUnit:degC,80,1,16093.44,wmoUnit:m,,,,,,
Shelby,31.79242191,-94.14495261,27.77777777777778,wmoUnit:degC,74,20,16093.44,wmoUnit:m,FA,A,Flood Watch,Severe,Future,2025-05-26T13:30:00-05:00
Garza,33.17991074,-101.2984496,19.444444444444443,wmoUnit:degC,87,65,10669.950904174775,wmoUnit:m,,,,,,
Karnes,28.90493782,-97.85960621,30.0,wmoUnit:degC,68,4,16093.44,wmoUnit:m,,,,,,
Reeves,31.32307061,-103.693143,35.0,wmoUnit:degC,5,0,16093.44,wmoUnit:m,,,,,,
Houston,31.31764137,-95.42225367,29.444444444444443,wmoUnit:degC,80,0,16093.44,wmoUnit:m,,,Flood Warning,Severe,Immediate,2025-05-26T12:00:00-05:00
El Paso,31.7686226,-106.2352229,30.555555555555557,wmoUnit:degC,5,0,16093.44,wmoUnit:m,,,,,,
Carson,35.40346802,-101.3542037,18.88888888888889,wmoUnit:degC,81,58,,,SV,A,,,,
Medina,29.35520493,-99.11008331,32.77777777777778,wmoUnit:degC,55,3,16093.44,wmoUnit:m,,,,,,
Wichita,33.98421585,-98.70153389,31.666666666666668,wmoUnit:degC,47,47,,,FA,A,Flood Watch,Severe,Future,2025-05-26T13:00:00-05:00
Chambers,29.73912276,-94.60891308,28.88888888888889,wmoUnit:degC,80,28,16093.44,wmoUnit:m,,,,,,
Donley,34.96540246,-100.8140501,22.77777777777778,wmoUnit:degC,73,82,,,SV,A,,,,
Hopkins,33.14933822,-95.56414173,34.44444444444444,wmoUnit:degC,46,16,16093.44,wmoUnit:m,FA,A,Severe Thunderstorm Watch,Severe,Future,2025-05-26T05:00:00-05:00
Lampasas,31.19627791,-98.24142711,34.44444444444444,wmoUnit:degC,40,4,16093.44,wmoUnit:m,,,,,,
Falls,31.25317017,-96.93579511,33.888888888888886,wmoUnit:degC,54,19,16093.44,wmoUnit:m,,,,,,
Stephens,32.73584155,-98.83612016,33.888888888888886,wmoUnit:degC,43,0,11265.408,wmoUnit:m,SV,A,Severe Thunderstorm Watch,Severe,Future,2025-05-26T05:00:00-05:00
Travis,30.33423319,-97.78194654,32.22222222222222,wmoUnit:degC,52,7,16093.44,wmoUnit:m,,,,,,
Roberts,35.8385577,-100.8135689,20.0,wmoUnit:degC,78,63,,,SV,A,,,,
Crosby,33.61459873,-101.2998612,16.666666666666668,wmoUnit:degC,97,73,10766.511452087469,wmoUnit:m,,,,,,
Kerr,30.06153035,-99.35016969,31.666666666666668,wmoUnit:degC,53,4,16093.44,wmoUnit:m,,,,,,
Wood,32.78634374,-95.38206498,30.0,wmoUnit:degC,74,28,16093.44,wmoUnit:m,FA,A,Flood Watch,Severe,Future,2025-05-26T13:30:00-05:00
Jack,33.23345819,-98.1725509,33.333333333333336,wmoUnit:degC,44,10,16093.44,wmoUnit:m,SV,A,Severe Thunderstorm Watch,Severe,Future,2025-05-26T05:00:00-05:00
Marion,32.79797929,-94.35725239,28.88888888888889,wmoUnit:degC,74,30,16093.44,wmoUnit:m,FA,A,Flood Watch,Severe,Future,2025-05-26T13:30:00-05:00
Hale,34.07051782,-101.8269082,19.444444444444443,wmoUnit:degC,65,71,16093.44,wmoUnit:m,,,,,,
Jeff Davis,30.71559322,-104.1403539,26.666666666666668,wmoUnit:degC,6,0,16093.44,wmoUnit:m,,,,,,
Tarrant,32.77185236,-97.29116473,35.0,wmoUnit:degC,42,3,16093.44,wmoUnit:m,FA,A,Flash Flood Warning,Severe,Immediate,2025-05-26T06:00:00-05:00
Waller,30.01093722,-95.98768942,30.555555555555557,wmoUnit:degC,65,1,15803.757588867158,wmoUnit:m,,,,,,
Reagan,31.36617698,-101.5230108,33.333333333333336,wmoUnit:degC,32,0,16093.44,wmoUnit:m,,,,,,
Smith,32.37514553,-95.26909511,30.0,wmoUnit:degC,72,23,16093.44,wmoUnit:m,FA,A,Flood Watch,Severe,Future,2025-05-26T13:30:00-05:00
Van Zandt,32.56368961,-95.8364862,32.77777777777778,wmoUnit:degC,58,16,16093.44,wmoUnit:m,FA,A,Severe Thunderstorm Warning,Severe,Immediate,2025-05-26T03:30:00-05:00
Cooke,33.638465,-97.21247642,32.22222222222222,wmoUnit:degC,56,14,16093.44,wmoUnit:m,FA,A,Severe Thunderstorm Watch,Severe,Future,2025-05-26T05:00:00-05:00
Zavala,28.86530621,-99.76102001,35.55555555555556,wmoUnit:degC,50,9,16093.44,wmoUnit:m,,,,,,
Hall,34.53074134,-100.6809876,24.444444444444443,wmoUnit:degC,71,81,15675.010191650448,wmoUnit:m,,,,,,
Kendall,29.9446397,-98.71160511,29.444444444444443,wmoUnit:degC,67,5,16093.44,wmoUnit:m,,,,,,
Goliad,28.65708563,-97.42646082,30.0,wmoUnit:degC,72,1,16093.44,wmoUnit:m,,,,,,
Yoakum,33.17293501,-102.8278792,22.22222222222222,wmoUnit:degC,57,22,15868.131287475511,wmoUnit:m,,,,,,
Knox,33.60614755,-99.74144313,32.22222222222222,wmoUnit:degC,44,51,,,FA,A,Flood Watch,Severe,Future,2025-05-26T13:00:00-05:00
McLennan,31.55234489,-97.20184883,33.333333333333336,wmoUnit:degC,56,13,16093.44,wmoUnit:m,,,,,,
Brewster,29.81205836,-103.2518906,36.666666666666664,wmoUnit:degC,5,0,16093.44,wmoUnit:m,,,,,,
Panola,32.16222886,-94.30552858,28.88888888888889,wmoUnit:degC,77,21,16093.44,wmoUnit:m,FA,A,Flash Flood Warning,Severe,Immediate,2025-05-26T06:00:00-05:00
Bandera,29.74724753,-99.24637282,31.11111111111111,wmoUnit:degC,53,5,16093.44,wmoUnit:m,,,,,,
Parmer,34.53014507,-102.784594,16.666666666666668,wmoUnit:degC,84,54,13727.703890258803,wmoUnit:m,,,,,,
Rockwall,32.89786769,-96.40780584,33.333333333333336,wmoUnit:degC,54,9,16093.44,wmoUnit:m,FA,A,Severe Thunderstorm Warning,Severe,Immediate,2025-05-26T03:30:00-05:00
Trinity,31.0885069,-95.13551682,29.444444444444443,wmoUnit:degC,70,0,16093.44,wmoUnit:m,,,Flood Warning,Severe,Immediate,2025-05-26T12:00:00-05:00
Bosque,31.90050476,-97.63437613,36.111111111111114,wmoUnit:degC,37,5,16093.44,wmoUnit:m,SV,A,Severe Thunderstorm Watch,Severe,Future,2025-05-26T05:00:00-05:00
Coke,31.88849293,-100.5298747,34.44444444444444,wmoUnit:degC,31,29,16093.44,wmoUnit:m,,,,,,
Franklin,33.17550691,-95.21841437,29.444444444444443,wmoUnit:degC,70,30,16093.44,wmoUnit:m,FA,A,Flood Warning,Severe,Immediate,2025-05-26T21:30:00-05:00
Hill,31.99079033,-97.1324142,35.0,wmoUnit:degC,45,9,16093.44,wmoUnit:m,FA,A,Severe Thunderstorm Watch,Severe,Future,2025-05-26T05:00:00-05:00
Calhoun,28.48966896,-96.64708119,29.444444444444443,wmoUnit:degC,85,1,16093.44,wmoUnit:m,,,,,,
Irion,31.30393203,-100.9824126,34.44444444444444,wmoUnit:degC,32,20,16093.44,wmoUnit:m,,,,,,
Midland,31.86921148,-102.0315032,34.44444444444444,wmoUnit:degC,29,0,16093.44,wmoUnit:m,,,,,,
Brown,31.77432313,-98.99989649,30.555555555555557,wmoUnit:degC,53,7,16093.44,wmoUnit:m,,,,,,
Wilson,29.17315896,-98.08621015,30.555555555555557,wmoUnit:degC,68,5,16093.44,wmoUnit:m,,,,,,
Oldham,35.40497586,-102.6029949,15.0,wmoUnit:degC,93,72,,,SV,A,,,,
Freestone,31.70486443,-96.14918535,32.22222222222222,wmoUnit:degC,60,21,16093.44,wmoUnit:m,,,,,,
Sabine,31.34321941,-93.85170439,28.333333333333332,wmoUnit:degC,77,20,16093.44,wmoUnit:m,FA,A,Flood Watch,Severe,Future,2025-05-26T13:30:00-05:00
Deaf Smith,34.96602014,-102.6048162,16.11111111111111,wmoUnit:degC,90,70,,,SV,A,,,,
Angelina,31.25475875,-94.611742,28.88888888888889,wmoUnit:degC,74,20,16093.44,wmoUnit:m,FA,A,Flood Watch,Severe,Future,2025-05-26T13:30:00-05:00
Kent,33.18284492,-100.7791031,20.0,wmoUnit:degC,78,77,10509.016657653729,wmoUnit:m,,,,,,
Red River,33.62074539,-95.0501886,26.11111111111111,wmoUnit:degC,77,48,16093.44,wmoUnit:m,FA,A,Flood Warning,Severe,Immediate,2025-05-26T21:30:00-05:00
Kinney,29.35000302,-100.4178441,34.44444444444444,wmoUnit:degC,36,12,16093.44,wmoUnit:m,,,,,,
Denton,33.205574,-97.11681154,35.0,wmoUnit:degC,45,9,16093.44,wmoUnit:m,FA,A,Severe Thunderstorm Warning,Severe,Immediate,2025-05-26T03:30:00-05:00
Sutton,30.49747152,-100.5382263,31.11111111111111,wmoUnit:degC,45,14,16093.44,wmoUnit:m,,,,,,
Guadalupe,29.58257236,-97.94850308,31.11111111111111,wmoUnit:degC,61,6,16093.44,wmoUnit:m,,,,,,
Winkler,31.85008609,-103.0484794,34.44444444444444,wmoUnit:degC,9,0,16093.44,wmoUnit:m,,,,,,
Dimmit,28.42161168,-99.760574,35.55555555555556,wmoUnit:degC,44,10,16093.44,wmoUnit:m,,,,,,
Wise,33.21585061,-97.65444124,34.44444444444444,wmoUnit:degC,41,9,16093.44,wmoUnit:m,SV,A,Severe Thunderstorm Watch,Severe,Future,2025-05-26T05:00:00-05:00
Hemphill,35.83750155,-100.2704628,18.88888888888889,wmoUnit:degC,84,53,,,SV,A,,,,
Potter,35.40128927,-101.8940484,16.666666666666668,wmoUnit:degC,87,75,,,SV,A,,,,
Childress,34.52929257,-100.2075664,24.444444444444443,wmoUnit:degC,48,84,16093.44,wmoUnit:m,,,,,,
Willacy,26.47132899,-97.64303323,28.333333333333332,wmoUnit:degC,86,0,,,,,,,,
Bastrop,30.10353518,-97.31187705,31.666666666666668,wmoUnit:degC,56,7,16093.44,wmoUnit:m,,,,,,
Kimble,30.48676251,-99.74892716,32.22222222222222,wmoUnit:degC,42,13,16093.44,wmoUnit:m,,,,,,
Scurry,32.74720063,-100.9165071,26.666666666666668,wmoUnit:degC,44,0,9656.064,wmoUnit:m,,,,,,
Ochiltree,36.27846334,-100.815653,17.22222222222222,wmoUnit:degC,84,33,,,SV,A,,,,
Hansford,36.27753179,-101.3545624,16.11111111111111,wmoUnit:degC,90,37,,,SV,A,,,,
Hartley,35.83996755,-102.6028835,15.555555555555555,wmoUnit:degC,84,54,,,SV,A,,,,
Cameron,26.13847728,-97.51499968,28.333333333333332,wmoUnit:degC,84,0,,,,,,,,
Matagorda,28.86711039,-95.98533866,28.88888888888889,wmoUnit:degC,91,14,16045.160109741197,wmoUnit:m,,,Rip Current Statement,Moderate,Expected,2025-05-26T09:30:00-05:00
Burnet,30.78843382,-98.18252382,31.11111111111111,wmoUnit:degC,47,8,16093.44,wmoUnit:m,,,,,,
Rains,32.87004212,-95.79347545,33.333333333333336,wmoUnit:degC,52,16,16093.44,wmoUnit:m,FA,A,Severe Thunderstorm Warning,Severe,Immediate,2025-05-26T03:30:00-05:00
Hays,30.05782657,-98.03104087,31.11111111111111,wmoUnit:degC,58,7,16093.44,wmoUnit:m,,,,,,
Mason,30.71742293,-99.2263026,31.666666666666668,wmoUnit:degC,42,13,16093.44,wmoUnit:m,,,,,,
Ward,31.509424,-103.1024636,35.0,wmoUnit:degC,8,0,16093.44,wmoUnit:m,,,,,,
Delta,33.38623601,-95.67221685,34.44444444444444,wmoUnit:degC,49,17,16093.44,wmoUnit:m,FA,A,Severe Thunderstorm Watch,Severe,Future,2025-05-26T05:00:00-05:00
Nueces,27.72621549,-97.61767326,29.444444444444443,wmoUnit:degC,80,0,16093.44,wmoUnit:m,,,,,,
Callahan,32.2977738,-99.37359692,30.0,wmoUnit:degC,51,8,16093.44,wmoUnit:m,TO,A,Flood Advisory,Minor,Expected,2025-05-26T05:45:00-05:00
Bell,31.03778267,-97.47790776,33.333333333333336,wmoUnit:degC,54,15,16093.44,wmoUnit:m,,,,,,
Cherokee,31.83695632,-95.16515234,29.444444444444443,wmoUnit:degC,72,20,16093.44,wmoUnit:m,FA,A,Flood Watch,Severe,Future,2025-05-26T13:30:00-05:00
Ellis,32.34839264,-96.79467417,34.44444444444444,wmoUnit:degC,49,7,14468.002191650448,wmoUnit:m,FA,A,Severe Thunderstorm Warning,Severe,Immediate,2025-05-26T03:30:00-05:00
Lubbock,33.6101944,-101.8205745,18.88888888888889,wmoUnit:degC,75,61,15192.20668469238,wmoUnit:m,,,,,,
Terrell,30.22502597,-102.0764533,31.666666666666668,wmoUnit:degC,37,0,16093.44,wmoUnit:m,,,,,,
Crockett,30.72291931,-101.4118364,33.333333333333336,wmoUnit:degC,32,12,16093.44,wmoUnit:m,,,,,,
Atascosa,28.89418432,-98.52741302,30.555555555555557,wmoUnit:degC,64,5,16093.44,wmoUnit:m,,,,,,
Ector,31.86908156,-102.5430907,34.44444444444444,wmoUnit:degC,16,0,16093.44,wmoUnit:m,,,,,,
Brazos,30.6610425,-96.3022943,30.0,wmoUnit:degC,63,0,16093.44,wmoUnit:m,,,,,,
Aransas,28.12709562,-96.99258951,28.88888888888889,wmoUnit:degC,85,1,9559.503452087469,wmoUnit:m,SC,Y,,,,
Dallas,32.76653746,-96.77781862,35.0,wmoUnit:degC,40,6,16093.44,wmoUnit:m,FA,A,Flash Flood Warning,Severe,Immediate,2025-05-26T06:00:00-05:00
Howard,32.30610232,-101.4355097,26.666666666666668,wmoUnit:degC,49,0,16093.44,wmoUnit:m,,,,,,
Motley,34.07409017,-100.7798961,20.0,wmoUnit:degC,76,83,14500.18980834955,wmoUnit:m,,,,,,
San Augustine,31.39427005,-94.16809762,27.77777777777778,wmoUnit:degC,77,20,16093.44,wmoUnit:m,FA,A,Flood Watch,Severe,Future,2025-05-26T13:30:00-05:00
Maverick,28.74260943,-100.3144638,36.111111111111114,wmoUnit:degC,32,14,16093.44,wmoUnit:m,,,,,,
Erath,32.23640361,-98.21722756,34.44444444444444,wmoUnit:degC,34,2,16093.44,wmoUnit:m,SV,A,Severe Thunderstorm Watch,Severe,Future,2025-05-26T05:00:00-05:00
Dickens,33.61663428,-100.7788138,20.0,wmoUnit:degC,78,81,12681.630904174775,wmoUnit:m,,,,,,
Caldwell,29.83677935,-97.61983479,31.11111111111111,wmoUnit:degC,60,6,16093.44,wmoUnit:m,,,,,,
Dawson,32.74258137,-101.9476136,31.11111111111111,wmoUnit:degC,31,0,16093.44,wmoUnit:m,,,,,,
Camp,32.97321771,-94.97860185,29.444444444444443,wmoUnit:degC,72,30,16093.44,wmoUnit:m,FA,A,Flood Watch,Severe,Future,2025-05-26T13:30:00-05:00
Duval,27.68133382,-98.50889672,30.555555555555557,wmoUnit:degC,70,2,16093.44,wmoUnit:m,,,,,,
Hunt,33.123531,-96.08550014,32.77777777777778,wmoUnit:degC,56,14,16093.44,wmoUnit:m,FA,A,Severe Thunderstorm Warning,Severe,Immediate,2025-05-26T03:30:00-05:00
Mills,31.49524259,-98.59552736,34.44444444444444,wmoUnit:degC,41,2,16093.44,wmoUnit:m,,,,,,
Val Verde,29.89300587,-101.15171,33.888888888888886,wmoUnit:degC,36,15,16093.44,wmoUnit:m,,,,,,
Pecos,30.78100044,-102.7235743,35.55555555555556,wmoUnit:degC,8,0,16093.44,wmoUnit:m,,,,,,
Baylor,33.61648147,-99.21351964,31.666666666666668,wmoUnit:degC,45,44,,,FA,A,Flood Watch,Severe,Future,2025-05-26T13:00:00-05:00
Gregg,32.48036452,-94.81723694,29.444444444444443,wmoUnit:degC,65,25,16093.44,wmoUnit:m,FA,A,Flood Watch,Severe,Future,2025-05-26T13:30:00-05:00
Cochran,33.60410808,-102.8285264,20.555555555555557,wmoUnit:degC,73,33,16061.252383300736,wmoUnit:m,,,,,,
Jasper,30.74391255,-94.02495849,28.333333333333332,wmoUnit:degC,74,18,16077.34619165045,wmoUnit:m,,,,,,
Hamilton,31.70479181,-98.11066654,35.55555555555556,wmoUnit:degC,39,3,16093.44,wmoUnit:m,SV,A,Severe Thunderstorm Watch,Severe,Future,2025-05-26T05:00:00-05:00
Castro,34.53000304,-102.2617608,17.22222222222222,wmoUnit:degC,93,67,9623.877150695822,wmoUnit:m,,,,,,
Sterling,31.82786516,-101.0500699,33.333333333333336,wmoUnit:degC,37,33,16093.44,wmoUnit:m,,,,,,
Starr,26.56212627,-98.73834895,30.0,wmoUnit:degC,69,4,,,,,,,,
Crane,31.42846287,-102.5156425,36.666666666666664,wmoUnit:degC,17,0,16093.44,wmoUnit:m,,,,,,
Morris,33.11368507,-94.73205137,27.77777777777778,wmoUnit:degC,70,31,16093.44,wmoUnit:m,FA,A,Flood Warning,Severe,Immediate,2025-05-26T21:30:00-05:00
Briscoe,34.53041048,-101.2085769,19.444444444444443,wmoUnit:degC,90,79,14950.805698608354,wmoUnit:m,,,,,,
Tom Green,31.4044442,-100.4620678,33.333333333333336,wmoUnit:degC,40,21,16093.44,wmoUnit:m,,,,,,
Menard,30.88981785,-99.82061472,31.666666666666668,wmoUnit:degC,47,15,16093.44,wmoUnit:m,,,,,,
Parker,32.77852261,-97.80472194,33.333333333333336,wmoUnit:degC,46,1,16093.44,wmoUnit:m,SV,A,Severe Thunderstorm Watch,Severe,Future,2025-05-26T05:00:00-05:00
Walker,30.73899492,-95.57224172,30.0,wmoUnit:degC,68,0,16093.44,wmoUnit:m,,,,,,
Brooks,27.0315669,-98.21874127,29.444444444444443,wmoUnit:degC,74,2,,,,,,,,
La Salle,28.34621032,-99.1034773,32.77777777777778,wmoUnit:degC,54,3,16093.44,wmoUnit:m,,,,,,
Edwards,29.98248216,-100.3048937,31.11111111111111,wmoUnit:degC,47,11,16093.44,wmoUnit:m,,,,,,
Lee,30.31065065,-96.96568735,31.11111111111111,wmoUnit:degC,56,7,16093.44,wmoUnit:m,,,,,,
Robertson,31.02705415,-96.51272568,33.888888888888886,wmoUnit:degC,52,22,11265.408,wmoUnit:m,,,,,,
Young,33.17670764,-98.68781396,35.0,wmoUnit:degC,42,12,16093.44,wmoUnit:m,SV,A,Severe Thunderstorm Watch,Severe,Future,2025-05-26T05:00:00-05:00
Bee,28.41736675,-97.74116811,30.0,wmoUnit:degC,75,1,16093.44,wmoUnit:m,,,,,,
Clay,33.78379717,-98.208958,32.77777777777778,wmoUnit:degC,47,36,,,FA,A,Flood Watch,Severe,Future,2025-05-26T13:00:00-05:00
San Jacinto,30.57948905,-95.16683273,28.333333333333332,wmoUnit:degC,74,2,16093.44,wmoUnit:m,,,,,,
Uvalde,29.35669829,-99.76203107,33.888888888888886,wmoUnit:degC,47,7,16093.44,wmoUnit:m,,,,,,
Haskell,33.17824805,-99.73029401,25.0,wmoUnit:degC,71,76,16093.44,wmoUnit:m,TO,A,Special Weather Statement,Moderate,Expected,2025-05-26T04:00:00-05:00
Somervell,32.22229511,-97.77456553,35.55555555555556,wmoUnit:degC,39,2,16093.44,wmoUnit:m,SV,A,Severe Thunderstorm Watch,Severe,Future,2025-05-26T05:00:00-05:00
Bexar,29.44884523,-98.51966309,32.22222222222222,wmoUnit:degC,60,4,16093.44,wmoUnit:m,,,,,,
Grayson,33.62684371,-96.67764864,32.77777777777778,wmoUnit:degC,50,14,16093.44,wmoUnit:m,FA,A,Severe Thunderstorm Watch,Severe,Future,2025-05-26T05:00:00-05:00
Bailey,34.0684915,-102.8299069,17.22222222222222,wmoUnit:degC,93,48,14902.525808349552,wmoUnit:m,,,,,,
Jones,32.73970429,-99.87850599,27.77777777777778,wmoUnit:degC,56,76,16093.44,wmoUnit:m,TO,A,Special Weather Statement,Moderate,Expected,2025-05-26T04:00:00-05:00
Jefferson,29.88425832,-94.1708778,27.22222222222222,wmoUnit:degC,88,17,15900.318904174776,wmoUnit:m,,,,,,
Rusk,32.10803224,-94.76169577,30.555555555555557,wmoUnit:degC,67,20,16093.44,wmoUnit:m,FA,A,Flood Watch,Severe,Future,2025-05-26T13:30:00-05:00
Glasscock,31.8694238,-101.520742,32.22222222222222,wmoUnit:degC,35,0,16093.44,wmoUnit:m,,,,,,
Gillespie,30.31800246,-98.94627245,30.555555555555557,wmoUnit:degC,62,6,16093.44,wmoUnit:m,,,,,,
Fisher,32.74305155,-100.4019503,30.0,wmoUnit:degC,40,76,9656.064,wmoUnit:m,TO,A,Flash Flood Warning,Severe,Immediate,2025-05-26T03:45:00-05:00
Henderson,32.21188078,-95.85356847,32.22222222222222,wmoUnit:degC,58,18,16093.44,wmoUnit:m,FA,A,Severe Thunderstorm Watch,Severe,Future,2025-05-26T05:00:00-05:00
Shackelford,32.7360276,-99.35403034,29.444444444444443,wmoUnit:degC,59,52,16093.44,wmoUnit:m,TO,A,Special Weather Statement,Moderate,Expected,2025-05-26T04:00:00-05:00
Palo Pinto,32.75316856,-98.31299522,33.888888888888886,wmoUnit:degC,40,1,16093.44,wmoUnit:m,SV,A,Severe Thunderstorm Watch,Severe,Future,2025-05-26T05:00:00-05:00
Wilbarger,34.08044953,-99.24089568,31.11111111111111,wmoUnit:degC,50,58,,,FA,A,Flood Watch,Severe,Future,2025-05-26T13:00:00-05:00
Floyd,34.07239775,-101.3033037,17.77777777777778,wmoUnit:degC,78,79,14500.18980834955,wmoUnit:m,,,,,,
Orange,30.12807126,-93.89653794,27.77777777777778,wmoUnit:degC,79,16,16093.44,wmoUnit:m,,,Flood Warning,Severe,Immediate,2025-05-26T21:00:00-05:00
Runnels,31.83105393,-99.97624799,32.77777777777778,wmoUnit:degC,40,11,16093.44,wmoUnit:m,,,,,,
Coleman,31.77329421,-99.45362579,31.666666666666668,wmoUnit:degC,45,9,16093.44,wmoUnit:m,,,,,,
Martin,32.30605847,-101.9512464,32.22222222222222,wmoUnit:degC,35,0,16093.44,wmoUnit:m,,,,,,
Wheeler,35.40129002,-100.2697634,20.555555555555557,wmoUnit:degC,87,79,,,SV,A,,,,
Culberson,31.44709817,-104.5177421,29.444444444444443,wmoUnit:degC,5,0,16093.44,wmoUnit:m,,,,,,
Mitchell,32.30636024,-100.9211128,35.55555555555556,wmoUnit:degC,32,0,16093.44,wmoUnit:m,,,,,,
Hudspeth,31.45613738,-105.3869428,28.88888888888889,wmoUnit:degC,6,0,16093.44,wmoUnit:m,,,,,,
Upshur,32.7362827,-94.94132011,29.444444444444443,wmoUnit:degC,72,28,16093.44,wmoUnit:m,FA,A,Flood Watch,Severe,Future,2025-05-26T13:30:00-05:00
Liberty,30.15153187,-94.8120925,29.444444444444443,wmoUnit:degC,67,8,16093.44,wmoUnit:m,,,,,,
Williamson,30.64834941,-97.60105467,31.666666666666668,wmoUnit:degC,57,8,16093.44,wmoUnit:m,,,,,,
Nacogdoches,31.61604108,-94.6158776,29.444444444444443,wmoUnit:degC,77,20,16093.44,wmoUnit:m,FA,A,Flood Watch,Severe,Future,2025-05-26T13:30:00-05:00
Loving,31.84912973,-103.5799063,35.0,wmoUnit:degC,5,0,16093.44,wmoUnit:m,,,,,,
Jim Wells,27.73131099,-98.0898649,30.0,wmoUnit:degC,75,1,16093.44,wmoUnit:m,,,,,,
Upton,31.36853957,-102.0430005,33.888888888888886,wmoUnit:degC,31,0,16093.44,wmoUnit:m,,,,,,
Newton,30.78619977,-93.74462993,27.77777777777778,wmoUnit:degC,77,20,16093.44,wmoUnit:m,,,Flood Warning,Severe,Immediate,2025-05-26T21:00:00-05:00
Lamar,33.66746186,-95.57110784,33.888888888888886,wmoUnit:degC,52,18,16093.44,wmoUnit:m,FA,A,Severe Thunderstorm Watch,Severe,Future,2025-05-26T05:00:00-05:00
Polk,30.79250963,-94.82994949,30.0,wmoUnit:degC,65,3,16093.44,wmoUnit:m,,,Flood Warning,Severe,Immediate,2025-05-26T12:00:00-05:00
Collin,33.18789055,-96.57248871,34.44444444444444,wmoUnit:degC,48,11,16093.44,wmoUnit:m,FA,A,Flash Flood Warning,Severe,Immediate,2025-05-26T06:00:00-05:00
Hardeman,34.28865227,-99.7453851,29.444444444444443,wmoUnit:degC,57,66,,,,,,,,
McMullen,28.35351091,-98.56842256,30.555555555555557,wmoUnit:degC,68,2,16093.44,wmoUnit:m,,,,,,
Cottle,34.0776571,-100.2786983,21.666666666666668,wmoUnit:degC,71,86,16093.44,wmoUnit:m,,,,,,
Frio,28.86726774,-99.10826004,33.333333333333336,wmoUnit:degC,61,4,16093.44,wmoUnit:m,,,,,,
Gray,35.40130666,-100.812475,20.555555555555557,wmoUnit:degC,81,72,,,SV,A,,,,
Dallam,36.27777107,-102.6021647,14.444444444444445,wmoUnit:degC,90,24,,,SV,A,,,,
Kenedy,26.92409448,-97.68137783,27.77777777777778,wmoUnit:degC,92,0,,,,,,,,
Fort Bend,29.52763253,-95.77090562,29.444444444444443,wmoUnit:degC,75,7,15127.832986084028,wmoUnit:m,,,,,,
Armstrong,34.96522076,-101.3572412,20.0,wmoUnit:degC,81,80,,,SV,A,,,,
Collingsworth,34.96498493,-100.2700733,24.444444444444443,wmoUnit:degC,66,87,,,SV,A,,,,
Cass,33.07750446,-94.34348771,27.22222222222222,wmoUnit:degC,77,36,16093.44,wmoUnit:m,FA,A,Flood Watch,Severe,Future,2025-05-26T13:30:00-05:00
Sherman,36.27765824,-101.8933822,15.0,wmoUnit:degC,96,62,,,SV,A,,,,
Terry,33.17373729,-102.335157,22.77777777777778,wmoUnit:degC,57,33,11217.127342346272,wmoUnit:m,,,,,,
Limestone,31.54541898,-96.58056718,32.22222222222222,wmoUnit:degC,56,20,16093.44,wmoUnit:m,,,,,,
Real,29.83182711,-99.82215881,31.11111111111111,wmoUnit:degC,47,6,16093.44,wmoUnit:m,,,,,,
Lynn,33.17685487,-101.8160235,18.88888888888889,wmoUnit:degC,93,47,6099.413698608354,wmoUnit:m,,,,,,
Lavaca,29.38437003,-96.93020993,29.444444444444443,wmoUnit:degC,71,5,16093.44,wmoUnit:m,,,,,,
Nolan,32.3034718,-100.4060989,32.22222222222222,wmoUnit:degC,35,76,16093.44,wmoUnit:m,TO,A,,,,
Gaines,32.74074537,-102.6351246,33.333333333333336,wmoUnit:degC,25,0,16093.44,wmoUnit:m,,,,,,
Montgomery,30.30022409,-95.50301411,31.11111111111111,wmoUnit:degC,61,0,16093.44,wmoUnit:m,,,,,,
Concho,31.32645211,-99.86413426,32.22222222222222,wmoUnit:degC,42,20,16093.44,wmoUnit:m,,,,,,
Hardin,30.33238431,-94.39021394,27.77777777777778,wmoUnit:degC,77,15,16012.972493041932,wmoUnit:m,,,,,,
Harris,29.85967144,-95.39782106,30.0,wmoUnit:degC,68,7,16093.44,wmoUnit:m,,,,,,
Leon,31.29655719,-95.99554292,32.77777777777778,wmoUnit:degC,62,27,16093.44,wmoUnit:m,,,,,,
Bowie,33.44572786,-94.42324298,25.0,wmoUnit:degC,88,48,16093.44,wmoUnit:m,FA,A,Flood Warning,Severe,Immediate,2025-05-26T21:30:00-05:00
Kaufman,32.59927808,-96.28779341,33.333333333333336,wmoUnit:degC,56,10,16093.44,wmoUnit:m,FA,A,Severe Thunderstorm Warning,Severe,Immediate,2025-05-26T03:30:00-05:00
Anderson,31.81321543,-95.65251774,31.666666666666668,wmoUnit:degC,61,26,16093.44,wmoUnit:m,,,,,,
San Saba,31.15520543,-98.81754295,30.555555555555557,wmoUnit:degC,55,7,16093.44,wmoUnit:m,,,,,,
Schleicher,30.89661056,-100.538097,32.22222222222222,wmoUnit:degC,39,16,16093.44,wmoUnit:m,,,,,,
Colorado,29.6208542,-96.52630821,29.444444444444443,wmoUnit:degC,67,0,16093.44,wmoUnit:m,,,,,,
Milam,30.78625299,-96.97683495,36.111111111111114,wmoUnit:degC,45,20,16093.44,wmoUnit:m,,,,,,
Live Oak,28.3514375,-98.12474493,30.0,wmoUnit:degC,72,1,16093.44,wmoUnit:m,,,,,,
Borden,32.7436916,-101.4317533,26.11111111111111,wmoUnit:degC,54,0,16093.44,wmoUnit:m,,,,,,
McCulloch,31.19896752,-99.34754972,30.0,wmoUnit:degC,55,16,16093.44,wmoUnit:m,,,,,,
Johnson,32.37899918,-97.36660504,33.888888888888886,wmoUnit:degC,52,3,16093.44,wmoUnit:m,FA,A,Severe Thunderstorm Warning,Severe,Immediate,2025-05-26T03:30:00-05:00
Montague,33.67496328,-97.72466993,31.11111111111111,wmoUnit:degC,57,15,16093.44,wmoUnit:m,FA,A,Severe Thunderstorm Watch,Severe,Future,2025-05-26T05:00:00-05:00
Stonewall,33.17842158,-100.255259,19.444444444444443,wmoUnit:degC,84,79,10621.670246521047,wmoUnit:m,,,Flash Flood Warning,Severe,Immediate,2025-05-26T03:45:00-05:00
Comal,29.80816362,-98.27814516,30.0,wmoUnit:degC,60,8,16093.44,wmoUnit:m,,,,,,
Eastland,32.32739258,-98.8325713,32.77777777777778,wmoUnit:degC,45,0,11265.408,wmoUnit:m,SV,A,Severe Thunderstorm Watch,Severe,Future,2025-05-26T05:00:00-05:00
Comanche,31.9490639,-98.55841538,36.666666666666664,wmoUnit:degC,32,1,16093.44,wmoUnit:m,SV,A,Severe Thunderstorm Watch,Severe,Future,2025-05-26T05:00:00-05:00
King,33.61641863,-100.2558584,20.555555555555557,wmoUnit:degC,81,85,15224.394301391645,wmoUnit:m,,,,,,
Washington,30.2145299,-96.40356575,30.0,wmoUnit:degC,63,0,16093.44,wmoUnit:m,,,,,,
Webb,27.76102524,-99.33170164,33.888888888888886,wmoUnit:degC,47,6,16093.44,wmoUnit:m,,,,,,
Fayette,29.87683207,-96.91968047,29.444444444444443,wmoUnit:degC,62,7,16093.44,wmoUnit:m,,,,,,
Harrison,32.54814898,-94.37155736,29.444444444444443,wmoUnit:degC,74,27,16093.44,wmoUnit:m,FA,A,Flash Flood Warning,Severe,Immediate,2025-05-26T06:00:00-05:00
Presidio,29.99977786,-104.2405552,32.22222222222222,wmoUnit:degC,5,0,16093.44,wmoUnit:m,,,,,,
Austin,29.88711223,-96.27791829,30.0,wmoUnit:degC,65,1,16061.252383300736,wmoUnit:m,,,,,,
Randall,34.96594288,-101.8968527,17.22222222222222,wmoUnit:degC,90,80,,,SV,A,,,,
Hood,32.43107878,-97.83280338,35.0,wmoUnit:degC,40,2,16093.44,wmoUnit:m,SV,A,Severe Thunderstorm Watch,Severe,Future,2025-05-26T05:00:00-05:00
Victoria,28.79640594,-96.97176602,29.444444444444443,wmoUnit:degC,75,1,16093.44,wmoUnit:m,,,,,,
Hutchinson,35.84000866,-101.3547257,17.77777777777778,wmoUnit:degC,81,53,,,SV,A,,,,
Coryell,31.39087578,-97.7991883,34.44444444444444,wmoUnit:degC,49,6,16093.44,wmoUnit:m,,,,,,
Jackson,28.95603133,-96.57883268,29.444444444444443,wmoUnit:degC,82,6,16093.44,wmoUnit:m,,,,,,
Taylor,32.30138229,-99.89003941,30.555555555555557,wmoUnit:degC,46,51,16093.44,wmoUnit:m,TO,A,,,,
Zapata,27.00089072,-99.16860134,31.11111111111111,wmoUnit:degC,59,7,,,,,,,,
San Patricio,28.00922186,-97.51859857,29.444444444444443,wmoUnit:degC,91,0,16093.44,wmoUnit:m,,,,,,
Grimes,30.54360689,-95.98557334,31.666666666666668,wmoUnit:degC,61,1,16093.44,wmoUnit:m,,,,,,
Lamb,34.06861242,-102.3517095,15.0,wmoUnit:degC,96,59,13775.985315307618,wmoUnit:m,,,,,,
