countyName,latitude,longitude,temperature,temperature_unit,relativeHumidity,precipitationProbability,visibility,visibility_unit,hazard_phenomenon,hazard_significance,alert_event,alert_severity,alert_urgency,alert_expires
Foard,33.97408519,-99.77871109,18.88888888888889,wmoUnit:degC,93,2,,,,,,,,
Blanco,30.26636128,-98.39974086,20.0,wmoUnit:degC,93,0,15304.861808349551,wmoUnit:m,,,,,,
Hockley,33.60750375,-102.3430919,17.22222222222222,wmoUnit:degC,90,8,16093.44,wmoUnit:m,,,,,,
Llano,30.70566579,-98.68387398,20.0,wmoUnit:degC,97,0,15288.768,wmoUnit:m,,,,,,
Swisher,34.53064989,-101.734951,15.0,wmoUnit:degC,98,18,16093.44,wmoUnit:m,,,,,,
Titus,33.2160906,-94.96509786,16.666666666666668,wmoUnit:degC,100,6,11265.408,wmoUnit:m,,,,,,
Navarro,32.04695429,-96.47248134,20.0,wmoUnit:degC,90,3,16093.44,wmoUnit:m,FG,Y,Flood Warning,Severe,Immediate,2025-05-30T03:30:00-05:00
Brazoria,29.19345387,-95.45578479,22.77777777777778,wmoUnit:degC,97,9,7467.355945129401,wmoUnit:m,,,,,,
Hidalgo,26.396627,-98.18088681,24.444444444444443,wmoUnit:degC,97,0,,,,,,,,
Archer,33.61539176,-98.68783437,18.333333333333332,wmoUnit:degC,100,0,,,,,,,,
Refugio,28.32681413,-97.16546961,24.444444444444443,wmoUnit:degC,94,11,15079.553095825224,wmoUnit:m,,,,,,
Andrews,32.30506283,-102.6378839,24.444444444444443,wmoUnit:degC,52,0,16093.44,wmoUnit:m,,,,,,
Galveston,29.39424415,-94.96474975,23.333333333333332,wmoUnit:degC,93,13,15143.926794433579,wmoUnit:m,,,,,,
De Witt,29.08201599,-97.35666976,23.88888888888889,wmoUnit:degC,82,0,14130.039890258802,wmoUnit:m,,,,,,
Gonzales,29.45641495,-97.49279927,23.88888888888889,wmoUnit:degC,84,0,15256.580383300736,wmoUnit:m,,,,,,
Wharton,29.2778362,-96.22197375,22.22222222222222,wmoUnit:degC,97,0,14307.068712524488,wmoUnit:m,,,,,,
Fannin,33.59396919,-96.10656755,20.0,wmoUnit:degC,87,0,16093.44,wmoUnit:m,FG,Y,,,,
Madison,30.96564645,-95.92818441,20.0,wmoUnit:degC,100,0,14178.321315307618,wmoUnit:m,,,,,,
Moore,35.83768863,-101.8929556,13.88888888888889,wmoUnit:degC,96,12,,,,,,,,
Tyler,30.7712607,-94.37651432,20.555555555555557,wmoUnit:degC,97,14,11844.772054870598,wmoUnit:m,,,,,,
Lipscomb,36.27778432,-100.27317,15.0,wmoUnit:degC,93,66,,,,,,,,
Burleson,30.49246139,-96.62109399,21.11111111111111,wmoUnit:degC,97,1,15111.740712524488,wmoUnit:m,,,,,,
Jim Hogg,27.04340499,-98.6972921,23.333333333333332,wmoUnit:degC,99,4,,,,,,,,
Throckmorton,33.17753907,-99.21236832,18.88888888888889,wmoUnit:degC,100,1,11265.408,wmoUnit:m,,,,,,
Kleberg,27.43274395,-97.72889778,26.11111111111111,wmoUnit:degC,91,9,15063.459287475513,wmoUnit:m,,,,,,
Shelby,31.79242191,-94.14495261,17.22222222222222,wmoUnit:degC,100,27,11265.408,wmoUnit:m,,,,,,
Garza,33.17991074,-101.2984496,17.77777777777778,wmoUnit:degC,89,8,16093.44,wmoUnit:m,,,,,,
Karnes,28.90493782,-97.85960621,23.333333333333332,wmoUnit:degC,90,0,15320.955616699264,wmoUnit:m,,,,,,
Reeves,31.32307061,-103.693143,26.11111111111111,wmoUnit:degC,43,2,16093.44,wmoUnit:m,,,,,,
Houston,31.31764137,-95.42225367,19.444444444444443,wmoUnit:degC,100,2,1207.008,wmoUnit:m,,,Flood Warning,Severe,Expected,2025-05-30T09:15:00-05:00
El Paso,31.7686226,-106.2352229,22.22222222222222,wmoUnit:degC,34,1,16061.252383300736,wmoUnit:m,,,,,,
Carson,35.40346802,-101.3542037,15.0,wmoUnit:degC,90,19,,,,,,,,
Medina,29.35520493,-99.11008331,23.333333333333332,wmoUnit:degC,84,0,15948.59879443358,wmoUnit:m,,,,,,
Wichita,33.98421585,-98.70153389,17.77777777777778,wmoUnit:degC,100,1,,,,,,,,
Chambers,29.73912276,-94.60891308,21.666666666666668,wmoUnit:degC,97,5,13872.545095825224,wmoUnit:m,,,,,,
Donley,34.96540246,-100.8140501,17.22222222222222,wmoUnit:degC,100,22,,,,,,,,
Hopkins,33.14933822,-95.56414173,21.11111111111111,wmoUnit:degC,84,2,16093.44,wmoUnit:m,FG,Y,,,,
Lampasas,31.19627791,-98.24142711,21.11111111111111,wmoUnit:degC,93,1,16093.44,wmoUnit:m,,,,,,
Falls,31.25317017,-96.93579511,20.0,wmoUnit:degC,93,9,16093.44,wmoUnit:m,,,,,,
Stephens,32.73584155,-98.83612016,20.555555555555557,wmoUnit:degC,87,0,11265.408,wmoUnit:m,,,,,,
Travis,30.33423319,-97.78194654,22.77777777777778,wmoUnit:degC,93,0,15610.636493041933,wmoUnit:m,,,,,,
Roberts,35.8385577,-100.8135689,14.444444444444445,wmoUnit:degC,90,45,,,,,,,,
Crosby,33.61459873,-101.2998612,16.666666666666668,wmoUnit:degC,97,14,16093.44,wmoUnit:m,,,,,,
Kerr,30.06153035,-99.35016969,22.22222222222222,wmoUnit:degC,81,0,15256.580383300736,wmoUnit:m,,,,,,
Wood,32.78634374,-95.38206498,18.88888888888889,wmoUnit:degC,97,6,11265.408,wmoUnit:m,,,,,,
Jack,33.23345819,-98.1725509,20.0,wmoUnit:degC,90,0,16093.44,wmoUnit:m,,,,,,
Marion,32.79797929,-94.35725239,18.333333333333332,wmoUnit:degC,100,11,12697.7239451294,wmoUnit:m,,,,,,
Hale,34.07051782,-101.8269082,16.666666666666668,wmoUnit:degC,94,15,16093.44,wmoUnit:m,,,,,,
Jeff Davis,30.71559322,-104.1403539,18.88888888888889,wmoUnit:degC,62,1,16093.44,wmoUnit:m,,,,,,
Tarrant,32.77185236,-97.29116473,21.11111111111111,wmoUnit:degC,81,0,16093.44,wmoUnit:m,FG,Y,,,,
Waller,30.01093722,-95.98768942,22.22222222222222,wmoUnit:degC,93,0,14982.993315307618,wmoUnit:m,,,,,,
Reagan,31.36617698,-101.5230108,22.77777777777778,wmoUnit:degC,77,0,16093.44,wmoUnit:m,,,,,,
Smith,32.37514553,-95.26909511,19.444444444444443,wmoUnit:degC,97,7,11265.408,wmoUnit:m,,,Flood Warning,Severe,Immediate,2025-05-30T03:45:00-05:00
Van Zandt,32.56368961,-95.8364862,20.0,wmoUnit:degC,93,5,16093.44,wmoUnit:m,FG,Y,,,,
Cooke,33.638465,-97.21247642,20.555555555555557,wmoUnit:degC,84,0,16093.44,wmoUnit:m,FG,Y,,,,
Zavala,28.86530621,-99.76102001,25.555555555555557,wmoUnit:degC,76,0,16093.44,wmoUnit:m,,,,,,
Hall,34.53074134,-100.6809876,18.333333333333332,wmoUnit:degC,91,33,16093.44,wmoUnit:m,,,,,,
Kendall,29.9446397,-98.71160511,21.11111111111111,wmoUnit:degC,90,0,15047.367013915973,wmoUnit:m,,,,,,
Goliad,28.65708563,-97.42646082,23.88888888888889,wmoUnit:degC,90,13,15160.02060278313,wmoUnit:m,,,,,,
Yoakum,33.17293501,-102.8278792,17.22222222222222,wmoUnit:degC,95,4,16093.44,wmoUnit:m,,,,,,
Knox,33.60614755,-99.74144313,18.88888888888889,wmoUnit:degC,97,1,,,,,,,,
McLennan,31.55234489,-97.20184883,21.666666666666668,wmoUnit:degC,84,4,16093.44,wmoUnit:m,,,,,,
Brewster,29.81205836,-103.2518906,24.444444444444443,wmoUnit:degC,54,0,16093.44,wmoUnit:m,,,,,,
Panola,32.16222886,-94.30552858,18.88888888888889,wmoUnit:degC,100,18,11265.408,wmoUnit:m,,,,,,
Bandera,29.74724753,-99.24637282,22.77777777777778,wmoUnit:degC,79,0,15658.916383300735,wmoUnit:m,,,,,,
Parmer,34.53014507,-102.784594,14.444444444444445,wmoUnit:degC,99,7,16093.44,wmoUnit:m,,,,,,
Rockwall,32.89786769,-96.40780584,20.555555555555557,wmoUnit:degC,84,1,16093.44,wmoUnit:m,FG,Y,,,,
Trinity,31.0885069,-95.13551682,20.0,wmoUnit:degC,100,3,3765.864821868878,wmoUnit:m,,,Flood Warning,Severe,Immediate,2025-05-30T09:30:00-05:00
Bosque,31.90050476,-97.63437613,18.88888888888889,wmoUnit:degC,100,1,16093.44,wmoUnit:m,,,,,,
Coke,31.88849293,-100.5298747,18.333333333333332,wmoUnit:degC,90,1,14451.908383300735,wmoUnit:m,,,,,,
Franklin,33.17550691,-95.21841437,17.22222222222222,wmoUnit:degC,100,6,12697.7239451294,wmoUnit:m,,,,,,
Hill,31.99079033,-97.1324142,20.0,wmoUnit:degC,97,2,16093.44,wmoUnit:m,FG,Y,,,,
Calhoun,28.48966896,-96.64708119,26.11111111111111,wmoUnit:degC,94,10,15530.168986084027,wmoUnit:m,,,,,,
Irion,31.30393203,-100.9824126,18.88888888888889,wmoUnit:degC,97,0,16093.44,wmoUnit:m,,,,,,
Midland,31.86921148,-102.0315032,23.88888888888889,wmoUnit:degC,66,0,16093.44,wmoUnit:m,,,,,,
Brown,31.77432313,-98.99989649,20.555555555555557,wmoUnit:degC,97,2,11265.408,wmoUnit:m,,,,,,
Wilson,29.17315896,-98.08621015,23.333333333333332,wmoUnit:degC,84,0,15514.076712524487,wmoUnit:m,,,,,,
Oldham,35.40497586,-102.6029949,16.666666666666668,wmoUnit:degC,84,17,,,,,,,,
Freestone,31.70486443,-96.14918535,20.0,wmoUnit:degC,93,7,16093.44,wmoUnit:m,,,,,,
Sabine,31.34321941,-93.85170439,19.444444444444443,wmoUnit:degC,100,31,11265.408,wmoUnit:m,,,,,,
Deaf Smith,34.96602014,-102.6048162,15.555555555555555,wmoUnit:degC,84,17,,,,,,,,
Angelina,31.25475875,-94.611742,19.444444444444443,wmoUnit:degC,100,25,11265.408,wmoUnit:m,,,Flood Warning,Severe,Immediate,2025-05-30T09:30:00-05:00
Kent,33.18284492,-100.7791031,18.333333333333332,wmoUnit:degC,94,9,16093.44,wmoUnit:m,,,,,,
Red River,33.62074539,-95.0501886,17.77777777777778,wmoUnit:degC,100,6,14484.096,wmoUnit:m,,,Flood Warning,Severe,Immediate,2025-05-30T09:30:00-05:00
Kinney,29.35000302,-100.4178441,25.555555555555557,wmoUnit:degC,69,0,16093.44,wmoUnit:m,,,,,,
Denton,33.205574,-97.11681154,22.22222222222222,wmoUnit:degC,76,0,16093.44,wmoUnit:m,FG,Y,,,,
Sutton,30.49747152,-100.5382263,20.555555555555557,wmoUnit:degC,84,1,16093.44,wmoUnit:m,,,,,,
Guadalupe,29.58257236,-97.94850308,23.333333333333332,wmoUnit:degC,82,0,15514.076712524487,wmoUnit:m,,,,,,
Winkler,31.85008609,-103.0484794,23.333333333333332,wmoUnit:degC,60,0,16093.44,wmoUnit:m,,,,,,
Dimmit,28.42161168,-99.760574,26.666666666666668,wmoUnit:degC,72,0,16093.44,wmoUnit:m,,,,,,
Wise,33.21585061,-97.65444124,20.0,wmoUnit:degC,87,0,16093.44,wmoUnit:m,,,Flood Warning,Severe,Immediate,2025-05-30T03:30:00-05:00
Hemphill,35.83750155,-100.2704628,14.444444444444445,wmoUnit:degC,96,67,,,,,,,,
Potter,35.40128927,-101.8940484,16.11111111111111,wmoUnit:degC,84,17,,,,,,,,
Childress,34.52929257,-100.2075664,18.333333333333332,wmoUnit:degC,91,39,16093.44,wmoUnit:m,,,,,,
Willacy,26.47132899,-97.64303323,24.444444444444443,wmoUnit:degC,100,1,,,,,,,,
Bastrop,30.10353518,-97.31187705,22.77777777777778,wmoUnit:degC,90,0,15353.141698608355,wmoUnit:m,,,,,,
Kimble,30.48676251,-99.74892716,19.444444444444443,wmoUnit:degC,97,1,16093.44,wmoUnit:m,,,,,,
Scurry,32.74720063,-100.9165071,21.11111111111111,wmoUnit:degC,78,2,16093.44,wmoUnit:m,,,,,,
Ochiltree,36.27846334,-100.815653,13.333333333333334,wmoUnit:degC,90,46,,,,,,,,
Hansford,36.27753179,-101.3545624,15.0,wmoUnit:degC,87,26,,,,,,,,
Hartley,35.83996755,-102.6028835,14.444444444444445,wmoUnit:degC,93,7,,,,,,,,
Cameron,26.13847728,-97.51499968,25.0,wmoUnit:degC,99,3,,,,,,,,
Matagorda,28.86711039,-95.98533866,23.333333333333332,wmoUnit:degC,97,1,7950.159452087469,wmoUnit:m,,,,,,
Burnet,30.78843382,-98.18252382,20.0,wmoUnit:degC,100,0,15224.394301391645,wmoUnit:m,,,,,,
Rains,32.87004212,-95.79347545,20.555555555555557,wmoUnit:degC,93,3,16093.44,wmoUnit:m,FG,Y,,,,
Hays,30.05782657,-98.03104087,20.555555555555557,wmoUnit:degC,97,0,15433.609205566421,wmoUnit:m,,,,,,
Mason,30.71742293,-99.2263026,18.88888888888889,wmoUnit:degC,93,0,16093.44,wmoUnit:m,,,,,,
Ward,31.509424,-103.1024636,25.555555555555557,wmoUnit:degC,54,0,16093.44,wmoUnit:m,,,,,,
Delta,33.38623601,-95.67221685,20.0,wmoUnit:degC,90,1,16093.44,wmoUnit:m,FG,Y,,,,
Nueces,27.72621549,-97.61767326,25.555555555555557,wmoUnit:degC,91,9,15337.047890258802,wmoUnit:m,,,,,,
Callahan,32.2977738,-99.37359692,19.444444444444443,wmoUnit:degC,93,3,11265.408,wmoUnit:m,,,,,,
Bell,31.03778267,-97.47790776,20.555555555555557,wmoUnit:degC,93,9,16093.44,wmoUnit:m,,,,,,
Cherokee,31.83695632,-95.16515234,19.444444444444443,wmoUnit:degC,100,10,11265.408,wmoUnit:m,,,Flood Warning,Severe,Immediate,2025-05-30T03:45:00-05:00
Ellis,32.34839264,-96.79467417,19.444444444444443,wmoUnit:degC,97,1,16093.44,wmoUnit:m,FG,Y,,,,
Lubbock,33.6101944,-101.8205745,17.77777777777778,wmoUnit:degC,91,10,16093.44,wmoUnit:m,,,,,,
Terrell,30.22502597,-102.0764533,25.0,wmoUnit:degC,58,2,16093.44,wmoUnit:m,,,,,,
Crockett,30.72291931,-101.4118364,21.666666666666668,wmoUnit:degC,81,0,16093.44,wmoUnit:m,,,,,,
Atascosa,28.89418432,-98.52741302,23.333333333333332,wmoUnit:degC,87,0,15852.039013915974,wmoUnit:m,,,,,,
Ector,31.86908156,-102.5430907,24.444444444444443,wmoUnit:degC,58,0,16093.44,wmoUnit:m,,,,,,
Brazos,30.6610425,-96.3022943,21.11111111111111,wmoUnit:degC,97,1,15063.459287475513,wmoUnit:m,,,,,,
Aransas,28.12709562,-96.99258951,26.666666666666668,wmoUnit:degC,91,10,15787.665315307619,wmoUnit:m,,,,,,
Dallas,32.76653746,-96.77781862,22.22222222222222,wmoUnit:degC,76,1,16093.44,wmoUnit:m,FG,Y,,,,
Howard,32.30610232,-101.4355097,22.22222222222222,wmoUnit:degC,75,1,16093.44,wmoUnit:m,,,,,,
Motley,34.07409017,-100.7798961,17.22222222222222,wmoUnit:degC,95,27,16093.44,wmoUnit:m,,,,,,
San Augustine,31.39427005,-94.16809762,18.333333333333332,wmoUnit:degC,100,28,11265.408,wmoUnit:m,,,,,,
Maverick,28.74260943,-100.3144638,26.666666666666668,wmoUnit:degC,77,1,16093.44,wmoUnit:m,,,,,,
Erath,32.23640361,-98.21722756,18.333333333333332,wmoUnit:degC,90,0,16093.44,wmoUnit:m,,,,,,
Dickens,33.61663428,-100.7788138,17.22222222222222,wmoUnit:degC,96,18,16093.44,wmoUnit:m,,,,,,
Caldwell,29.83677935,-97.61983479,23.88888888888889,wmoUnit:degC,84,0,15578.450411132842,wmoUnit:m,,,,,,
Dawson,32.74258137,-101.9476136,21.666666666666668,wmoUnit:degC,61,2,16093.44,wmoUnit:m,,,,,,
Camp,32.97321771,-94.97860185,17.22222222222222,wmoUnit:degC,100,6,11265.408,wmoUnit:m,,,,,,
Duval,27.68133382,-98.50889672,24.444444444444443,wmoUnit:degC,97,6,15610.636493041933,wmoUnit:m,,,,,,
Hunt,33.123531,-96.08550014,21.11111111111111,wmoUnit:degC,87,1,16093.44,wmoUnit:m,FG,Y,,,,
Mills,31.49524259,-98.59552736,19.444444444444443,wmoUnit:degC,97,0,16093.44,wmoUnit:m,,,,,,
Val Verde,29.89300587,-101.15171,24.444444444444443,wmoUnit:degC,64,0,16093.44,wmoUnit:m,,,,,,
Pecos,30.78100044,-102.7235743,24.444444444444443,wmoUnit:degC,55,0,16093.44,wmoUnit:m,,,,,,
Baylor,33.61648147,-99.21351964,18.333333333333332,wmoUnit:degC,97,0,,,,,,,,
Gregg,32.48036452,-94.81723694,19.444444444444443,wmoUnit:degC,97,8,11265.408,wmoUnit:m,,,,,,
Cochran,33.60410808,-102.8285264,16.666666666666668,wmoUnit:degC,94,6,16093.44,wmoUnit:m,,,,,,
Jasper,30.74391255,-94.02495849,20.555555555555557,wmoUnit:degC,100,14,11973.519452087468,wmoUnit:m,,,,,,
Hamilton,31.70479181,-98.11066654,19.444444444444443,wmoUnit:degC,97,1,16093.44,wmoUnit:m,,,,,,
Castro,34.53000304,-102.2617608,15.0,wmoUnit:degC,96,12,16093.44,wmoUnit:m,,,,,,
Sterling,31.82786516,-101.0500699,18.88888888888889,wmoUnit:degC,93,0,16093.44,wmoUnit:m,,,,,,
Starr,26.56212627,-98.73834895,23.88888888888889,wmoUnit:degC,97,2,,,,,,,,
Crane,31.42846287,-102.5156425,25.555555555555557,wmoUnit:degC,61,0,16093.44,wmoUnit:m,,,,,,
Morris,33.11368507,-94.73205137,17.22222222222222,wmoUnit:degC,97,6,11265.408,wmoUnit:m,,,,,,
Briscoe,34.53041048,-101.2085769,15.555555555555555,wmoUnit:degC,96,24,16093.44,wmoUnit:m,,,,,,
Tom Green,31.4044442,-100.4620678,18.88888888888889,wmoUnit:degC,93,1,12794.284493041932,wmoUnit:m,,,,,,
Menard,30.88981785,-99.82061472,18.88888888888889,wmoUnit:degC,93,1,16093.44,wmoUnit:m,,,,,,
Parker,32.77852261,-97.80472194,19.444444444444443,wmoUnit:degC,87,0,16093.44,wmoUnit:m,,,,,,
Walker,30.73899492,-95.57224172,21.11111111111111,wmoUnit:degC,97,1,14612.84339721687,wmoUnit:m,,,,,,
Brooks,27.0315669,-98.21874127,23.88888888888889,wmoUnit:degC,99,3,,,,,,,,
La Salle,28.34621032,-99.1034773,26.11111111111111,wmoUnit:degC,82,18,15739.383890258803,wmoUnit:m,,,,,,
Edwards,29.98248216,-100.3048937,22.77777777777778,wmoUnit:degC,79,0,16093.44,wmoUnit:m,,,,,,
Lee,30.31065065,-96.96568735,21.666666666666668,wmoUnit:degC,87,0,15385.32931530762,wmoUnit:m,,,,,,
Robertson,31.02705415,-96.51272568,21.11111111111111,wmoUnit:degC,90,10,16093.44,wmoUnit:m,,,Flood Warning,Severe,Immediate,2025-05-30T03:30:00-05:00
Young,33.17670764,-98.68781396,21.11111111111111,wmoUnit:degC,87,0,16093.44,wmoUnit:m,,,,,,
Bee,28.41736675,-97.74116811,23.88888888888889,wmoUnit:degC,90,12,15208.300493041934,wmoUnit:m,,,,,,
Clay,33.78379717,-98.208958,18.333333333333332,wmoUnit:degC,100,1,,,,,,,,
San Jacinto,30.57948905,-95.16683273,20.555555555555557,wmoUnit:degC,97,3,13631.144109741197,wmoUnit:m,,,,,,
Uvalde,29.35669829,-99.76203107,25.0,wmoUnit:degC,71,0,16093.44,wmoUnit:m,,,,,,
Haskell,33.17824805,-99.73029401,18.333333333333332,wmoUnit:degC,100,4,11265.408,wmoUnit:m,,,,,,
Somervell,32.22229511,-97.77456553,19.444444444444443,wmoUnit:degC,93,0,16093.44,wmoUnit:m,,,,,,
Bexar,29.44884523,-98.51966309,24.444444444444443,wmoUnit:degC,82,0,15803.757588867158,wmoUnit:m,,,,,,
Grayson,33.62684371,-96.67764864,20.0,wmoUnit:degC,87,0,16093.44,wmoUnit:m,FG,Y,,,,
Bailey,34.0684915,-102.8299069,16.11111111111111,wmoUnit:degC,94,8,16093.44,wmoUnit:m,,,,,,
Jones,32.73970429,-99.87850599,19.444444444444443,wmoUnit:degC,90,5,11265.408,wmoUnit:m,,,,,,
Jefferson,29.88425832,-94.1708778,22.22222222222222,wmoUnit:degC,93,12,14757.68460278313,wmoUnit:m,,,,,,
Rusk,32.10803224,-94.76169577,18.333333333333332,wmoUnit:degC,97,11,11265.408,wmoUnit:m,,,Flood Warning,Severe,Immediate,2025-05-30T03:45:00-05:00
Glasscock,31.8694238,-101.520742,21.666666666666668,wmoUnit:degC,85,0,16093.44,wmoUnit:m,,,,,,
Gillespie,30.31800246,-98.94627245,19.444444444444443,wmoUnit:degC,93,0,15160.02060278313,wmoUnit:m,,,,,,
Fisher,32.74305155,-100.4019503,20.0,wmoUnit:degC,81,2,11265.408,wmoUnit:m,,,,,,
Henderson,32.21188078,-95.85356847,19.444444444444443,wmoUnit:degC,97,6,16093.44,wmoUnit:m,FG,Y,Flood Warning,Severe,Immediate,2025-05-30T03:30:00-05:00
Shackelford,32.7360276,-99.35403034,18.88888888888889,wmoUnit:degC,97,2,11265.408,wmoUnit:m,,,,,,
Palo Pinto,32.75316856,-98.31299522,19.444444444444443,wmoUnit:degC,90,0,16093.44,wmoUnit:m,,,,,,
Wilbarger,34.08044953,-99.24089568,18.333333333333332,wmoUnit:degC,97,3,,,,,,,,
Floyd,34.07239775,-101.3033037,16.11111111111111,wmoUnit:degC,97,22,16093.44,wmoUnit:m,,,,,,
Orange,30.12807126,-93.89653794,21.666666666666668,wmoUnit:degC,97,20,14596.749588867156,wmoUnit:m,,,Flood Warning,Severe,Immediate,2025-05-30T11:00:00-05:00
Runnels,31.83105393,-99.97624799,18.88888888888889,wmoUnit:degC,93,4,12794.284493041932,wmoUnit:m,,,,,,
Coleman,31.77329421,-99.45362579,19.444444444444443,wmoUnit:degC,97,4,11265.408,wmoUnit:m,,,,,,
Martin,32.30605847,-101.9512464,23.333333333333332,wmoUnit:degC,61,1,16093.44,wmoUnit:m,,,,,,
Wheeler,35.40129002,-100.2697634,15.555555555555555,wmoUnit:degC,87,50,,,,,,,,
Culberson,31.44709817,-104.5177421,22.22222222222222,wmoUnit:degC,40,1,16093.44,wmoUnit:m,,,,,,
Mitchell,32.30636024,-100.9211128,21.11111111111111,wmoUnit:degC,80,2,16093.44,wmoUnit:m,,,,,,
Hudspeth,31.45613738,-105.3869428,19.444444444444443,wmoUnit:degC,56,0,16029.066301391646,wmoUnit:m,,,,,,
Upshur,32.7362827,-94.94132011,17.77777777777778,wmoUnit:degC,100,7,14484.096,wmoUnit:m,,,,,,
Liberty,30.15153187,-94.8120925,21.11111111111111,wmoUnit:degC,97,2,4860.218849304178,wmoUnit:m,,,,,,
Williamson,30.64834941,-97.60105467,21.11111111111111,wmoUnit:degC,90,0,15160.02060278313,wmoUnit:m,,,,,,
Nacogdoches,31.61604108,-94.6158776,20.0,wmoUnit:degC,97,19,11265.408,wmoUnit:m,,,Flood Warning,Severe,Immediate,2025-05-30T09:30:00-05:00
Loving,31.84912973,-103.5799063,25.555555555555557,wmoUnit:degC,47,0,16093.44,wmoUnit:m,,,,,,
Jim Wells,27.73131099,-98.0898649,25.0,wmoUnit:degC,94,7,15063.459287475513,wmoUnit:m,,,,,,
Upton,31.36853957,-102.0430005,24.444444444444443,wmoUnit:degC,67,0,16093.44,wmoUnit:m,,,,,,
Newton,30.78619977,-93.74462993,20.555555555555557,wmoUnit:degC,100,11,11136.66060278313,wmoUnit:m,,,Flood Warning,Severe,Immediate,2025-05-30T11:00:00-05:00
Lamar,33.66746186,-95.57110784,20.555555555555557,wmoUnit:degC,84,0,16093.44,wmoUnit:m,FG,Y,,,,
Polk,30.79250963,-94.82994949,20.555555555555557,wmoUnit:degC,93,4,9157.167452087468,wmoUnit:m,,,Flood Warning,Severe,Immediate,2025-05-30T09:30:00-05:00
Collin,33.18789055,-96.57248871,21.666666666666668,wmoUnit:degC,79,0,16093.44,wmoUnit:m,FG,Y,,,,
Hardeman,34.28865227,-99.7453851,18.333333333333332,wmoUnit:degC,93,7,,,,,,,,
McMullen,28.35351091,-98.56842256,25.0,wmoUnit:degC,88,14,15691.104,wmoUnit:m,,,,,,
Cottle,34.0776571,-100.2786983,18.333333333333332,wmoUnit:degC,91,31,16093.44,wmoUnit:m,,,,,,
Frio,28.86726774,-99.10826004,25.0,wmoUnit:degC,76,0,16093.44,wmoUnit:m,,,,,,
Gray,35.40130666,-100.812475,15.0,wmoUnit:degC,96,32,,,,,,,,
Dallam,36.27777107,-102.6021647,11.666666666666666,wmoUnit:degC,96,7,,,,,,,,
Kenedy,26.92409448,-97.68137783,23.88888888888889,wmoUnit:degC,100,1,,,,,,,,
Fort Bend,29.52763253,-95.77090562,22.77777777777778,wmoUnit:degC,93,1,14033.480109741196,wmoUnit:m,,,,,,
Armstrong,34.96522076,-101.3572412,17.77777777777778,wmoUnit:degC,87,17,,,,,,,,
Collingsworth,34.96498493,-100.2700733,17.77777777777778,wmoUnit:degC,84,38,,,,,,,,
Cass,33.07750446,-94.34348771,18.333333333333332,wmoUnit:degC,97,9,12697.7239451294,wmoUnit:m,,,,,,
Sherman,36.27765824,-101.8933822,13.88888888888889,wmoUnit:degC,93,20,,,,,,,,
Terry,33.17373729,-102.335157,17.22222222222222,wmoUnit:degC,96,5,16093.44,wmoUnit:m,,,,,,
Limestone,31.54541898,-96.58056718,19.444444444444443,wmoUnit:degC,97,7,16093.44,wmoUnit:m,,,Flood Warning,Severe,Immediate,2025-05-30T03:30:00-05:00
Real,29.83182711,-99.82215881,22.77777777777778,wmoUnit:degC,76,0,15996.878684692381,wmoUnit:m,,,,,,
Lynn,33.17685487,-101.8160235,17.77777777777778,wmoUnit:degC,91,6,16093.44,wmoUnit:m,,,,,,
Lavaca,29.38437003,-96.93020993,22.77777777777778,wmoUnit:degC,87,1,14274.881095825223,wmoUnit:m,,,,,,
Nolan,32.3034718,-100.4060989,18.333333333333332,wmoUnit:degC,90,2,12794.284493041932,wmoUnit:m,,,,,,
Gaines,32.74074537,-102.6351246,21.666666666666668,wmoUnit:degC,54,0,16093.44,wmoUnit:m,,,,,,
Montgomery,30.30022409,-95.50301411,21.11111111111111,wmoUnit:degC,100,2,14741.59079443358,wmoUnit:m,,,,,,
Concho,31.32645211,-99.86413426,18.88888888888889,wmoUnit:degC,93,2,16093.44,wmoUnit:m,,,,,,
Hardin,30.33238431,-94.39021394,21.11111111111111,wmoUnit:degC,97,7,11249.314191650448,wmoUnit:m,,,,,,
Harris,29.85967144,-95.39782106,22.22222222222222,wmoUnit:degC,93,2,14854.244383300736,wmoUnit:m,,,,,,
Leon,31.29655719,-95.99554292,20.555555555555557,wmoUnit:degC,97,10,16093.44,wmoUnit:m,,,Flood Warning,Severe,Immediate,2025-05-30T03:30:00-05:00
Bowie,33.44572786,-94.42324298,17.77777777777778,wmoUnit:degC,97,7,12681.630904174775,wmoUnit:m,,,Flood Warning,Severe,Immediate,2025-05-30T09:30:00-05:00
Kaufman,32.59927808,-96.28779341,20.0,wmoUnit:degC,90,3,16093.44,wmoUnit:m,FG,Y,,,,
Anderson,31.81321543,-95.65251774,20.0,wmoUnit:degC,97,7,16093.44,wmoUnit:m,,,Flood Warning,Severe,Expected,2025-05-30T09:15:00-05:00
San Saba,31.15520543,-98.81754295,20.555555555555557,wmoUnit:degC,97,2,16093.44,wmoUnit:m,,,,,,
Schleicher,30.89661056,-100.538097,18.88888888888889,wmoUnit:degC,93,1,16093.44,wmoUnit:m,,,,,,
Colorado,29.6208542,-96.52630821,21.666666666666668,wmoUnit:degC,97,1,9060.606904174776,wmoUnit:m,,,,,,
Milam,30.78625299,-96.97683495,21.666666666666668,wmoUnit:degC,90,10,16093.44,wmoUnit:m,,,,,,
Live Oak,28.3514375,-98.12474493,24.444444444444443,wmoUnit:degC,94,12,15546.262794433578,wmoUnit:m,,,,,,
Borden,32.7436916,-101.4317533,21.666666666666668,wmoUnit:degC,78,2,16093.44,wmoUnit:m,,,,,,
McCulloch,31.19896752,-99.34754972,18.333333333333332,wmoUnit:degC,97,2,16093.44,wmoUnit:m,,,,,,
Johnson,32.37899918,-97.36660504,20.0,wmoUnit:degC,97,0,16093.44,wmoUnit:m,FG,Y,,,,
Montague,33.67496328,-97.72466993,20.555555555555557,wmoUnit:degC,87,0,16093.44,wmoUnit:m,,,,,,
Stonewall,33.17842158,-100.255259,18.88888888888889,wmoUnit:degC,91,11,16093.44,wmoUnit:m,,,,,,
Comal,29.80816362,-98.27814516,22.22222222222222,wmoUnit:degC,87,0,15272.674191650449,wmoUnit:m,,,,,,
Eastland,32.32739258,-98.8325713,18.88888888888889,wmoUnit:degC,97,0,16093.44,wmoUnit:m,,,,,,
Comanche,31.9490639,-98.55841538,19.444444444444443,wmoUnit:degC,90,0,16093.44,wmoUnit:m,,,,,,
King,33.61641863,-100.2558584,17.77777777777778,wmoUnit:degC,95,20,16093.44,wmoUnit:m,,,,,,
Washington,30.2145299,-96.40356575,21.11111111111111,wmoUnit:degC,97,1,15063.459287475513,wmoUnit:m,,,,,,
Webb,27.76102524,-99.33170164,26.11111111111111,wmoUnit:degC,82,11,15996.878684692381,wmoUnit:m,,,,,,
Fayette,29.87683207,-96.91968047,22.22222222222222,wmoUnit:degC,90,1,15272.674191650449,wmoUnit:m,,,,,,
Harrison,32.54814898,-94.37155736,19.444444444444443,wmoUnit:degC,100,12,12697.7239451294,wmoUnit:m,,,,,,
Presidio,29.99977786,-104.2405552,21.666666666666668,wmoUnit:degC,52,0,16093.44,wmoUnit:m,,,,,,
Austin,29.88711223,-96.27791829,21.666666666666668,wmoUnit:degC,97,1,9060.606904174776,wmoUnit:m,,,,,,
Randall,34.96594288,-101.8968527,16.11111111111111,wmoUnit:degC,87,17,,,,,,,,
Hood,32.43107878,-97.83280338,19.444444444444443,wmoUnit:degC,90,0,16093.44,wmoUnit:m,,,,,,
Victoria,28.79640594,-96.97176602,24.444444444444443,wmoUnit:degC,90,12,14982.993315307618,wmoUnit:m,,,,,,
Hutchinson,35.84000866,-101.3547257,13.88888888888889,wmoUnit:degC,93,20,,,,,,,,
Coryell,31.39087578,-97.7991883,20.555555555555557,wmoUnit:degC,100,3,16093.44,wmoUnit:m,,,,,,
Jackson,28.95603133,-96.57883268,23.88888888888889,wmoUnit:degC,94,0,15031.273205566422,wmoUnit:m,,,,,,
Taylor,32.30138229,-99.89003941,18.88888888888889,wmoUnit:degC,90,5,11265.408,wmoUnit:m,,,,,,
Zapata,27.00089072,-99.16860134,24.444444444444443,wmoUnit:degC,93,3,,,,,,,,
San Patricio,28.00922186,-97.51859857,25.555555555555557,wmoUnit:degC,91,10,15160.02060278313,wmoUnit:m,,,,,,
Grimes,30.54360689,-95.98557334,21.11111111111111,wmoUnit:degC,97,1,15015.179397216869,wmoUnit:m,,,,,,
Lamb,34.06861242,-102.3517095,16.11111111111111,wmoUnit:degC,95,11,16093.44,wmoUnit:m,,,,,,
