countyName,latitude,longitude,temperature,temperature_unit,relativeHumidity,precipitationProbability,visibility,visibility_unit,hazard_phenomenon,hazard_significance,alert_event,alert_severity,alert_urgency,alert_expires
Foard,33.97408519,-99.77871109,30.555555555555557,wmoUnit:degC,52,64,,,FA,A,Flood Watch,Severe,Future,2025-05-26T13:00:00-05:00
Blanco,30.26636128,-98.39974086,26.11111111111111,wmoUnit:degC,76,2,16093.44,wmoUnit:m,,,,,,
Hockley,33.60750375,-102.3430919,18.88888888888889,wmoUnit:degC,70,21,16093.44,wmoUnit:m,,,,,,
Llano,30.70566579,-98.68387398,28.333333333333332,wmoUnit:degC,69,5,16093.44,wmoUnit:m,,,,,,
Swisher,34.53064989,-101.734951,16.11111111111111,wmoUnit:degC,90,59,9656.064,wmoUnit:m,,,,,,
Titus,33.2160906,-94.96509786,26.11111111111111,wmoUnit:degC,82,64,16093.44,wmoUnit:m,FA,A,Flood Warning,Severe,Immediate,2025-05-26T21:30:00-05:00
Navarro,32.04695429,-96.47248134,30.0,wmoUnit:degC,64,0,16093.44,wmoUnit:m,FA,A,Flood Watch,Severe,Future,2025-05-26T13:00:00-05:00
Brazoria,29.19345387,-95.45578479,28.333333333333332,wmoUnit:degC,91,19,15948.59879443358,wmoUnit:m,,,Rip Current Statement,Moderate,Expected,2025-05-26T11:45:00-05:00
Hidalgo,26.396627,-98.18088681,27.77777777777778,wmoUnit:degC,84,1,,,,,,,,
Archer,33.61539176,-98.68783437,33.333333333333336,wmoUnit:degC,46,35,,,FA,A,Flood Watch,Severe,Future,2025-05-26T13:00:00-05:00
Refugio,28.32681413,-97.16546961,28.88888888888889,wmoUnit:degC,85,0,11233.221150695823,wmoUnit:m,,,,,,
Andrews,32.30506283,-102.6378839,27.77777777777778,wmoUnit:degC,12,0,16093.44,wmoUnit:m,,,,,,
Galveston,29.39424415,-94.96474975,29.444444444444443,wmoUnit:degC,85,3,15932.504986084026,wmoUnit:m,,,Rip Current Statement,Moderate,Expected,2025-05-26T11:45:00-05:00
De Witt,29.08201599,-97.35666976,27.22222222222222,wmoUnit:degC,82,1,16093.44,wmoUnit:m,,,,,,
Gonzales,29.45641495,-97.49279927,27.77777777777778,wmoUnit:degC,82,1,16093.44,wmoUnit:m,,,,,,
Wharton,29.2778362,-96.22197375,27.77777777777778,wmoUnit:degC,91,14,15835.94520556642,wmoUnit:m,,,,,,
Fannin,33.59396919,-96.10656755,27.22222222222222,wmoUnit:degC,79,8,16093.44,wmoUnit:m,FA,A,Flood Watch,Severe,Future,2025-05-26T13:00:00-05:00
Madison,30.96564645,-95.92818441,27.22222222222222,wmoUnit:degC,77,10,16061.252383300736,wmoUnit:m,,,,,,
Moore,35.83768863,-101.8929556,14.444444444444445,wmoUnit:degC,100,69,,,SV,A,,,,
Tyler,30.7712607,-94.37651432,27.77777777777778,wmoUnit:degC,77,16,16077.34619165045,wmoUnit:m,,,Flood Warning,Severe,Immediate,2025-05-26T12:00:00-05:00
Lipscomb,36.27778432,-100.27317,17.22222222222222,wmoUnit:degC,93,89,,,SV,A,,,,
Burleson,30.49246139,-96.62109399,28.333333333333332,wmoUnit:degC,72,10,15916.412712524489,wmoUnit:m,,,,,,
Jim Hogg,27.04340499,-98.6972921,27.22222222222222,wmoUnit:degC,82,2,,,,,,,,
Throckmorton,33.17753907,-99.21236832,25.0,wmoUnit:degC,76,81,9656.064,wmoUnit:m,TO,A,,,,
Kleberg,27.43274395,-97.72889778,28.333333333333332,wmoUnit:degC,85,1,15610.636493041933,wmoUnit:m,,,,,,
Shelby,31.79242191,-94.14495261,26.11111111111111,wmoUnit:degC,74,20,16093.44,wmoUnit:m,FA,A,Flood Watch,Severe,Future,2025-05-26T13:30:00-05:00
Garza,33.17991074,-101.2984496,18.88888888888889,wmoUnit:degC,90,39,15610.636493041933,wmoUnit:m,,,,,,
Karnes,28.90493782,-97.85960621,28.333333333333332,wmoUnit:degC,77,1,16093.44,wmoUnit:m,,,,,,
Reeves,31.32307061,-103.693143,23.333333333333332,wmoUnit:degC,8,0,16093.44,wmoUnit:m,,,,,,
Houston,31.31764137,-95.42225367,26.666666666666668,wmoUnit:degC,94,1,16077.34619165045,wmoUnit:m,,,Flood Warning,Severe,Immediate,2025-05-26T12:00:00-05:00
El Paso,31.7686226,-106.2352229,30.555555555555557,wmoUnit:degC,5,0,16093.44,wmoUnit:m,,,,,,
Carson,35.40346802,-101.3542037,15.555555555555555,wmoUnit:degC,90,81,,,SV,A,,,,
Medina,29.35520493,-99.11008331,27.77777777777778,wmoUnit:degC,73,17,16093.44,wmoUnit:m,,,,,,
Wichita,33.98421585,-98.70153389,31.666666666666668,wmoUnit:degC,47,47,,,FA,A,Flood Watch,Severe,Future,2025-05-26T13:00:00-05:00
Chambers,29.73912276,-94.60891308,28.88888888888889,wmoUnit:degC,82,14,16029.066301391646,wmoUnit:m,,,,,,
Donley,34.96540246,-100.8140501,20.0,wmoUnit:degC,87,77,,,SV,A,,,,
Hopkins,33.14933822,-95.56414173,27.77777777777778,wmoUnit:degC,73,10,16093.44,wmoUnit:m,FA,A,Flood Watch,Severe,Future,2025-05-26T13:00:00-05:00
Lampasas,31.19627791,-98.24142711,29.444444444444443,wmoUnit:degC,62,0,16093.44,wmoUnit:m,,,,,,
Falls,31.25317017,-96.93579511,28.333333333333332,wmoUnit:degC,70,0,16093.44,wmoUnit:m,,,Flood Watch,Severe,Future,2025-05-26T13:00:00-05:00
Stephens,32.73584155,-98.83612016,28.88888888888889,wmoUnit:degC,54,11,11265.408,wmoUnit:m,SV,A,,,,
Travis,30.33423319,-97.78194654,28.333333333333332,wmoUnit:degC,74,2,16093.44,wmoUnit:m,,,,,,
Roberts,35.8385577,-100.8135689,17.77777777777778,wmoUnit:degC,87,86,,,SV,A,,,,
Crosby,33.61459873,-101.2998612,18.88888888888889,wmoUnit:degC,81,51,16093.44,wmoUnit:m,,,,,,
Kerr,30.06153035,-99.35016969,27.22222222222222,wmoUnit:degC,75,11,16093.44,wmoUnit:m,,,,,,
Wood,32.78634374,-95.38206498,28.333333333333332,wmoUnit:degC,74,42,16093.44,wmoUnit:m,FA,A,Flash Flood Warning,Severe,Immediate,2025-05-26T08:30:00-05:00
Jack,33.23345819,-98.1725509,27.22222222222222,wmoUnit:degC,71,3,16093.44,wmoUnit:m,,,,,,
Marion,32.79797929,-94.35725239,25.0,wmoUnit:degC,87,47,16093.44,wmoUnit:m,FA,A,Severe Thunderstorm Warning,Severe,Immediate,2025-05-26T06:30:00-05:00
Hale,34.07051782,-101.8269082,17.22222222222222,wmoUnit:degC,87,44,16093.44,wmoUnit:m,,,,,,
Jeff Davis,30.71559322,-104.1403539,16.666666666666668,wmoUnit:degC,14,0,16093.44,wmoUnit:m,,,,,,
Tarrant,32.77185236,-97.29116473,30.555555555555557,wmoUnit:degC,59,0,16093.44,wmoUnit:m,FA,A,Flood Watch,Severe,Future,2025-05-26T13:00:00-05:00
Waller,30.01093722,-95.98768942,28.333333333333332,wmoUnit:degC,85,5,15771.571506958067,wmoUnit:m,,,,,,
Reagan,31.36617698,-101.5230108,29.444444444444443,wmoUnit:degC,43,0,16093.44,wmoUnit:m,,,,,,
Smith,32.37514553,-95.26909511,28.333333333333332,wmoUnit:degC,72,29,16093.44,wmoUnit:m,FA,A,Severe Thunderstorm Warning,Severe,Immediate,2025-05-26T06:30:00-05:00
Van Zandt,32.56368961,-95.8364862,27.77777777777778,wmoUnit:degC,74,1,16093.44,wmoUnit:m,FA,A,Severe Thunderstorm Warning,Severe,Immediate,2025-05-26T06:15:00-05:00
Cooke,33.638465,-97.21247642,27.77777777777778,wmoUnit:degC,71,8,16093.44,wmoUnit:m,FA,A,Flood Watch,Severe,Future,2025-05-26T13:00:00-05:00
Zavala,28.86530621,-99.76102001,31.11111111111111,wmoUnit:degC,71,19,16093.44,wmoUnit:m,,,,,,
Hall,34.53074134,-100.6809876,18.333333333333332,wmoUnit:degC,90,76,9656.064,wmoUnit:m,,,,,,
Kendall,29.9446397,-98.71160511,26.11111111111111,wmoUnit:degC,81,4,16093.44,wmoUnit:m,,,,,,
Goliad,28.65708563,-97.42646082,28.88888888888889,wmoUnit:degC,82,1,14532.375890258803,wmoUnit:m,,,,,,
Yoakum,33.17293501,-102.8278792,18.333333333333332,wmoUnit:degC,75,14,16029.066301391646,wmoUnit:m,,,,,,
Knox,33.60614755,-99.74144313,32.22222222222222,wmoUnit:degC,44,51,,,FA,A,Flood Watch,Severe,Future,2025-05-26T13:00:00-05:00
McLennan,31.55234489,-97.20184883,30.555555555555557,wmoUnit:degC,62,0,16093.44,wmoUnit:m,,,Flood Watch,Severe,Future,2025-05-26T13:00:00-05:00
Brewster,29.81205836,-103.2518906,27.77777777777778,wmoUnit:degC,29,4,16093.44,wmoUnit:m,,,,,,
Panola,32.16222886,-94.30552858,26.11111111111111,wmoUnit:degC,79,29,16093.44,wmoUnit:m,FA,A,Severe Thunderstorm Warning,Severe,Immediate,2025-05-26T06:30:00-05:00
Bandera,29.74724753,-99.24637282,27.22222222222222,wmoUnit:degC,73,22,16093.44,wmoUnit:m,,,,,,
Parmer,34.53014507,-102.784594,15.0,wmoUnit:degC,96,52,14934.711890258803,wmoUnit:m,,,,,,
Rockwall,32.89786769,-96.40780584,28.333333333333332,wmoUnit:degC,74,6,16093.44,wmoUnit:m,FA,A,Flood Watch,Severe,Future,2025-05-26T13:00:00-05:00
Trinity,31.0885069,-95.13551682,27.22222222222222,wmoUnit:degC,82,7,16077.34619165045,wmoUnit:m,,,Flood Warning,Severe,Immediate,2025-05-26T12:00:00-05:00
Bosque,31.90050476,-97.63437613,28.88888888888889,wmoUnit:degC,68,1,12794.284493041932,wmoUnit:m,SV,A,Flood Watch,Severe,Future,2025-05-26T13:00:00-05:00
Coke,31.88849293,-100.5298747,31.11111111111111,wmoUnit:degC,42,39,16093.44,wmoUnit:m,,,,,,
Franklin,33.17550691,-95.21841437,27.22222222222222,wmoUnit:degC,82,64,16093.44,wmoUnit:m,FA,A,Flood Warning,Severe,Immediate,2025-05-26T21:30:00-05:00
Hill,31.99079033,-97.1324142,28.88888888888889,wmoUnit:degC,66,0,16093.44,wmoUnit:m,FA,A,Flood Watch,Severe,Future,2025-05-26T13:00:00-05:00
Calhoun,28.48966896,-96.64708119,28.88888888888889,wmoUnit:degC,88,1,15337.047890258802,wmoUnit:m,,,,,,
Irion,31.30393203,-100.9824126,31.11111111111111,wmoUnit:degC,42,12,16093.44,wmoUnit:m,,,,,,
Midland,31.86921148,-102.0315032,30.555555555555557,wmoUnit:degC,40,1,16093.44,wmoUnit:m,,,,,,
Brown,31.77432313,-98.99989649,28.333333333333332,wmoUnit:degC,63,47,16093.44,wmoUnit:m,,,,,,
Wilson,29.17315896,-98.08621015,27.77777777777778,wmoUnit:degC,75,0,16093.44,wmoUnit:m,,,,,,
Oldham,35.40497586,-102.6029949,15.0,wmoUnit:degC,96,47,,,SV,A,,,,
Freestone,31.70486443,-96.14918535,26.666666666666668,wmoUnit:degC,79,0,16093.44,wmoUnit:m,,,Flood Watch,Severe,Future,2025-05-26T13:00:00-05:00
Sabine,31.34321941,-93.85170439,26.11111111111111,wmoUnit:degC,85,20,16093.44,wmoUnit:m,FA,A,Flood Watch,Severe,Future,2025-05-26T13:30:00-05:00
Deaf Smith,34.96602014,-102.6048162,15.0,wmoUnit:degC,93,29,,,SV,A,,,,
Angelina,31.25475875,-94.611742,26.666666666666668,wmoUnit:degC,85,20,16093.44,wmoUnit:m,FA,A,Flood Watch,Severe,Future,2025-05-26T13:30:00-05:00
Kent,33.18284492,-100.7791031,20.0,wmoUnit:degC,81,55,9656.064,wmoUnit:m,,,,,,
Red River,33.62074539,-95.0501886,22.22222222222222,wmoUnit:degC,90,64,14548.469698608355,wmoUnit:m,FA,A,Flood Warning,Severe,Immediate,2025-05-26T21:30:00-05:00
Kinney,29.35000302,-100.4178441,30.0,wmoUnit:degC,48,57,16093.44,wmoUnit:m,,,,,,
Denton,33.205574,-97.11681154,30.555555555555557,wmoUnit:degC,59,1,16093.44,wmoUnit:m,FA,A,Flood Watch,Severe,Future,2025-05-26T13:00:00-05:00
Sutton,30.49747152,-100.5382263,30.0,wmoUnit:degC,50,8,16093.44,wmoUnit:m,,,,,,
Guadalupe,29.58257236,-97.94850308,27.77777777777778,wmoUnit:degC,79,0,16093.44,wmoUnit:m,,,,,,
Winkler,31.85008609,-103.0484794,26.666666666666668,wmoUnit:degC,9,0,16093.44,wmoUnit:m,,,,,,
Dimmit,28.42161168,-99.760574,31.666666666666668,wmoUnit:degC,65,5,16093.44,wmoUnit:m,,,,,,
Wise,33.21585061,-97.65444124,28.333333333333332,wmoUnit:degC,63,0,16093.44,wmoUnit:m,,,,,,
Hemphill,35.83750155,-100.2704628,18.333333333333332,wmoUnit:degC,90,87,,,SV,A,,,,
Potter,35.40128927,-101.8940484,14.444444444444445,wmoUnit:degC,96,67,,,SV,A,,,,
Childress,34.52929257,-100.2075664,19.444444444444443,wmoUnit:degC,87,78,9656.064,wmoUnit:m,,,,,,
Willacy,26.47132899,-97.64303323,27.22222222222222,wmoUnit:degC,88,1,,,,,,,,
Bastrop,30.10353518,-97.31187705,27.77777777777778,wmoUnit:degC,77,1,16093.44,wmoUnit:m,,,,,,
Kimble,30.48676251,-99.74892716,30.555555555555557,wmoUnit:degC,52,6,16093.44,wmoUnit:m,,,,,,
Scurry,32.74720063,-100.9165071,19.444444444444443,wmoUnit:degC,90,25,16093.44,wmoUnit:m,,,,,,
Ochiltree,36.27846334,-100.815653,16.11111111111111,wmoUnit:degC,93,84,,,SV,A,,,,
Hansford,36.27753179,-101.3545624,15.555555555555555,wmoUnit:degC,93,82,,,SV,A,,,,
Hartley,35.83996755,-102.6028835,14.444444444444445,wmoUnit:degC,93,59,,,SV,A,,,,
Cameron,26.13847728,-97.51499968,27.77777777777778,wmoUnit:degC,84,1,,,,,,,,
Matagorda,28.86711039,-95.98533866,28.333333333333332,wmoUnit:degC,94,14,15948.59879443358,wmoUnit:m,,,Rip Current Statement,Moderate,Expected,2025-05-26T11:45:00-05:00
Burnet,30.78843382,-98.18252382,26.666666666666668,wmoUnit:degC,74,2,16093.44,wmoUnit:m,,,,,,
Rains,32.87004212,-95.79347545,27.22222222222222,wmoUnit:degC,78,2,16093.44,wmoUnit:m,FA,A,Flood Watch,Severe,Future,2025-05-26T13:00:00-05:00
Hays,30.05782657,-98.03104087,27.22222222222222,wmoUnit:degC,80,1,16093.44,wmoUnit:m,,,,,,
Mason,30.71742293,-99.2263026,29.444444444444443,wmoUnit:degC,57,5,16093.44,wmoUnit:m,,,,,,
Ward,31.509424,-103.1024636,27.77777777777778,wmoUnit:degC,9,0,16093.44,wmoUnit:m,,,,,,
Delta,33.38623601,-95.67221685,28.333333333333332,wmoUnit:degC,72,13,16093.44,wmoUnit:m,FA,A,Flood Watch,Severe,Future,2025-05-26T13:00:00-05:00
Nueces,27.72621549,-97.61767326,28.333333333333332,wmoUnit:degC,85,0,15562.35660278313,wmoUnit:m,,,,,,
Callahan,32.2977738,-99.37359692,27.77777777777778,wmoUnit:degC,58,81,9656.064,wmoUnit:m,TO,A,,,,
Bell,31.03778267,-97.47790776,28.88888888888889,wmoUnit:degC,67,0,16093.44,wmoUnit:m,,,Flood Watch,Severe,Future,2025-05-26T13:00:00-05:00
Cherokee,31.83695632,-95.16515234,27.22222222222222,wmoUnit:degC,77,20,16093.44,wmoUnit:m,FA,A,Severe Thunderstorm Warning,Severe,Immediate,2025-05-26T06:30:00-05:00
Ellis,32.34839264,-96.79467417,29.444444444444443,wmoUnit:degC,70,0,14468.002191650448,wmoUnit:m,FA,A,Flood Watch,Severe,Future,2025-05-26T13:00:00-05:00
Lubbock,33.6101944,-101.8205745,18.88888888888889,wmoUnit:degC,84,32,16077.34619165045,wmoUnit:m,,,,,,
Terrell,30.22502597,-102.0764533,26.666666666666668,wmoUnit:degC,47,0,16093.44,wmoUnit:m,,,,,,
Crockett,30.72291931,-101.4118364,30.555555555555557,wmoUnit:degC,35,9,16093.44,wmoUnit:m,,,,,,
Atascosa,28.89418432,-98.52741302,27.22222222222222,wmoUnit:degC,77,0,16093.44,wmoUnit:m,,,,,,
Ector,31.86908156,-102.5430907,27.77777777777778,wmoUnit:degC,25,0,16093.44,wmoUnit:m,,,,,,
Brazos,30.6610425,-96.3022943,27.77777777777778,wmoUnit:degC,77,10,15964.69260278313,wmoUnit:m,,,,,,
Aransas,28.12709562,-96.99258951,28.88888888888889,wmoUnit:degC,82,0,9639.97019165045,wmoUnit:m,SC,Y,,,,
Dallas,32.76653746,-96.77781862,28.88888888888889,wmoUnit:degC,71,2,16093.44,wmoUnit:m,FA,A,Flood Watch,Severe,Future,2025-05-26T13:00:00-05:00
Howard,32.30610232,-101.4355097,21.666666666666668,wmoUnit:degC,79,16,16093.44,wmoUnit:m,,,,,,
Motley,34.07409017,-100.7798961,17.77777777777778,wmoUnit:degC,87,70,9656.064,wmoUnit:m,,,,,,
San Augustine,31.39427005,-94.16809762,26.11111111111111,wmoUnit:degC,82,20,16093.44,wmoUnit:m,FA,A,Flood Watch,Severe,Future,2025-05-26T13:30:00-05:00
Maverick,28.74260943,-100.3144638,33.333333333333336,wmoUnit:degC,46,21,16093.44,wmoUnit:m,,,,,,
Erath,32.23640361,-98.21722756,27.77777777777778,wmoUnit:degC,64,5,16093.44,wmoUnit:m,SV,A,,,,
Dickens,33.61663428,-100.7788138,19.444444444444443,wmoUnit:degC,78,61,9656.064,wmoUnit:m,,,,,,
Caldwell,29.83677935,-97.61983479,27.77777777777778,wmoUnit:degC,81,1,16093.44,wmoUnit:m,,,,,,
Dawson,32.74258137,-101.9476136,20.0,wmoUnit:degC,73,7,16093.44,wmoUnit:m,,,,,,
Camp,32.97321771,-94.97860185,28.333333333333332,wmoUnit:degC,72,64,16093.44,wmoUnit:m,FA,A,Flood Watch,Severe,Future,2025-05-26T13:30:00-05:00
Duval,27.68133382,-98.50889672,27.22222222222222,wmoUnit:degC,88,2,15642.824109741197,wmoUnit:m,,,,,,
Hunt,33.123531,-96.08550014,28.333333333333332,wmoUnit:degC,76,3,16093.44,wmoUnit:m,FA,A,Flood Watch,Severe,Future,2025-05-26T13:00:00-05:00
Mills,31.49524259,-98.59552736,28.88888888888889,wmoUnit:degC,57,0,16093.44,wmoUnit:m,,,,,,
Val Verde,29.89300587,-101.15171,27.77777777777778,wmoUnit:degC,57,11,16093.44,wmoUnit:m,,,,,,
Pecos,30.78100044,-102.7235743,28.333333333333332,wmoUnit:degC,53,0,16093.44,wmoUnit:m,,,,,,
Baylor,33.61648147,-99.21351964,31.666666666666668,wmoUnit:degC,45,44,,,FA,A,Flood Watch,Severe,Future,2025-05-26T13:00:00-05:00
Gregg,32.48036452,-94.81723694,27.77777777777778,wmoUnit:degC,74,30,16093.44,wmoUnit:m,FA,A,Severe Thunderstorm Warning,Severe,Immediate,2025-05-26T06:30:00-05:00
Cochran,33.60410808,-102.8285264,17.77777777777778,wmoUnit:degC,70,15,16093.44,wmoUnit:m,,,,,,
Jasper,30.74391255,-94.02495849,28.333333333333332,wmoUnit:degC,74,18,16077.34619165045,wmoUnit:m,,,,,,
Hamilton,31.70479181,-98.11066654,28.88888888888889,wmoUnit:degC,63,0,16093.44,wmoUnit:m,SV,A,,,,
Castro,34.53000304,-102.2617608,15.555555555555555,wmoUnit:degC,96,57,9656.064,wmoUnit:m,,,,,,
Sterling,31.82786516,-101.0500699,31.11111111111111,wmoUnit:degC,42,17,16093.44,wmoUnit:m,,,,,,
Starr,26.56212627,-98.73834895,27.77777777777778,wmoUnit:degC,82,2,,,,,,,,
Crane,31.42846287,-102.5156425,29.444444444444443,wmoUnit:degC,41,0,16093.44,wmoUnit:m,,,,,,
Morris,33.11368507,-94.73205137,25.555555555555557,wmoUnit:degC,82,64,16093.44,wmoUnit:m,FA,A,Severe Thunderstorm Warning,Severe,Immediate,2025-05-26T06:30:00-05:00
Briscoe,34.53041048,-101.2085769,16.666666666666668,wmoUnit:degC,87,64,9656.064,wmoUnit:m,,,,,,
Tom Green,31.4044442,-100.4620678,31.11111111111111,wmoUnit:degC,48,25,16093.44,wmoUnit:m,,,,,,
Menard,30.88981785,-99.82061472,30.0,wmoUnit:degC,50,8,16093.44,wmoUnit:m,,,,,,
Parker,32.77852261,-97.80472194,27.77777777777778,wmoUnit:degC,71,7,16093.44,wmoUnit:m,SV,A,,,,
Walker,30.73899492,-95.57224172,27.22222222222222,wmoUnit:degC,82,10,16077.34619165045,wmoUnit:m,,,,,,
Brooks,27.0315669,-98.21874127,27.77777777777778,wmoUnit:degC,84,1,,,,,,,,
La Salle,28.34621032,-99.1034773,29.444444444444443,wmoUnit:degC,75,4,15610.636493041933,wmoUnit:m,,,,,,
Edwards,29.98248216,-100.3048937,27.22222222222222,wmoUnit:degC,56,12,16093.44,wmoUnit:m,,,,,,
Lee,30.31065065,-96.96568735,27.22222222222222,wmoUnit:degC,75,3,16093.44,wmoUnit:m,,,,,,
Robertson,31.02705415,-96.51272568,28.88888888888889,wmoUnit:degC,66,0,14484.096,wmoUnit:m,,,Flood Watch,Severe,Future,2025-05-26T13:00:00-05:00
Young,33.17670764,-98.68781396,27.77777777777778,wmoUnit:degC,63,11,12794.284493041932,wmoUnit:m,,,,,,
Bee,28.41736675,-97.74116811,28.333333333333332,wmoUnit:degC,85,0,14146.133698608355,wmoUnit:m,,,,,,
Clay,33.78379717,-98.208958,32.77777777777778,wmoUnit:degC,47,36,,,FA,A,Flood Watch,Severe,Future,2025-05-26T13:00:00-05:00
San Jacinto,30.57948905,-95.16683273,26.11111111111111,wmoUnit:degC,88,11,15916.412712524489,wmoUnit:m,,,,,,
Uvalde,29.35669829,-99.76203107,28.88888888888889,wmoUnit:degC,66,47,16093.44,wmoUnit:m,,,,,,
Haskell,33.17824805,-99.73029401,21.666666666666668,wmoUnit:degC,81,81,9656.064,wmoUnit:m,TO,A,,,,
Somervell,32.22229511,-97.77456553,29.444444444444443,wmoUnit:degC,67,5,16093.44,wmoUnit:m,SV,A,,,,
Bexar,29.44884523,-98.51966309,28.333333333333332,wmoUnit:degC,77,1,16093.44,wmoUnit:m,,,,,,
Grayson,33.62684371,-96.67764864,27.77777777777778,wmoUnit:degC,72,15,16093.44,wmoUnit:m,FA,A,Flood Watch,Severe,Future,2025-05-26T13:00:00-05:00
Bailey,34.0684915,-102.8299069,16.11111111111111,wmoUnit:degC,90,23,15996.878684692381,wmoUnit:m,,,,,,
Jones,32.73970429,-99.87850599,20.555555555555557,wmoUnit:degC,81,81,9656.064,wmoUnit:m,TO,A,,,,
Jefferson,29.88425832,-94.1708778,27.22222222222222,wmoUnit:degC,88,17,15900.318904174776,wmoUnit:m,,,,,,
Rusk,32.10803224,-94.76169577,27.77777777777778,wmoUnit:degC,72,26,16093.44,wmoUnit:m,FA,A,Severe Thunderstorm Warning,Severe,Immediate,2025-05-26T06:30:00-05:00
Glasscock,31.8694238,-101.520742,28.333333333333332,wmoUnit:degC,46,4,16093.44,wmoUnit:m,,,,,,
Gillespie,30.31800246,-98.94627245,26.666666666666668,wmoUnit:degC,78,9,16093.44,wmoUnit:m,,,,,,
Fisher,32.74305155,-100.4019503,19.444444444444443,wmoUnit:degC,84,55,16093.44,wmoUnit:m,TO,A,,,,
Henderson,32.21188078,-95.85356847,27.77777777777778,wmoUnit:degC,72,0,16093.44,wmoUnit:m,FA,A,Severe Thunderstorm Warning,Severe,Immediate,2025-05-26T06:15:00-05:00
Shackelford,32.7360276,-99.35403034,26.11111111111111,wmoUnit:degC,67,81,9656.064,wmoUnit:m,TO,A,,,,
Palo Pinto,32.75316856,-98.31299522,28.88888888888889,wmoUnit:degC,57,22,16093.44,wmoUnit:m,SV,A,,,,
Wilbarger,34.08044953,-99.24089568,31.11111111111111,wmoUnit:degC,50,58,,,FA,A,Flood Watch,Severe,Future,2025-05-26T13:00:00-05:00
Floyd,34.07239775,-101.3033037,17.22222222222222,wmoUnit:degC,90,60,9656.064,wmoUnit:m,,,,,,
Orange,30.12807126,-93.89653794,27.77777777777778,wmoUnit:degC,79,16,16093.44,wmoUnit:m,,,Flood Warning,Severe,Immediate,2025-05-26T21:00:00-05:00
Runnels,31.83105393,-99.97624799,30.555555555555557,wmoUnit:degC,50,51,16093.44,wmoUnit:m,,,,,,
Coleman,31.77329421,-99.45362579,29.444444444444443,wmoUnit:degC,53,47,16093.44,wmoUnit:m,,,,,,
Martin,32.30605847,-101.9512464,22.22222222222222,wmoUnit:degC,71,5,16093.44,wmoUnit:m,,,,,,
Wheeler,35.40129002,-100.2697634,20.0,wmoUnit:degC,84,75,,,SV,A,,,,
Culberson,31.44709817,-104.5177421,21.666666666666668,wmoUnit:degC,9,0,16093.44,wmoUnit:m,,,,,,
Mitchell,32.30636024,-100.9211128,24.444444444444443,wmoUnit:degC,69,31,16093.44,wmoUnit:m,,,,,,
Hudspeth,31.45613738,-105.3869428,28.88888888888889,wmoUnit:degC,6,0,16093.44,wmoUnit:m,,,,,,
Upshur,32.7362827,-94.94132011,27.22222222222222,wmoUnit:degC,74,37,16093.44,wmoUnit:m,FA,A,Severe Thunderstorm Warning,Severe,Immediate,2025-05-26T06:30:00-05:00
Liberty,30.15153187,-94.8120925,28.333333333333332,wmoUnit:degC,82,14,16012.972493041932,wmoUnit:m,,,,,,
Williamson,30.64834941,-97.60105467,27.77777777777778,wmoUnit:degC,75,3,16093.44,wmoUnit:m,,,,,,
Nacogdoches,31.61604108,-94.6158776,27.22222222222222,wmoUnit:degC,79,20,16093.44,wmoUnit:m,FA,A,Flood Watch,Severe,Future,2025-05-26T13:30:00-05:00
Loving,31.84912973,-103.5799063,27.77777777777778,wmoUnit:degC,6,0,16093.44,wmoUnit:m,,,,,,
Jim Wells,27.73131099,-98.0898649,27.77777777777778,wmoUnit:degC,85,0,15433.609205566421,wmoUnit:m,,,,,,
Upton,31.36853957,-102.0430005,30.555555555555557,wmoUnit:degC,40,0,16093.44,wmoUnit:m,,,,,,
Newton,30.78619977,-93.74462993,27.77777777777778,wmoUnit:degC,77,20,16093.44,wmoUnit:m,,,Flood Warning,Severe,Immediate,2025-05-26T21:00:00-05:00
Lamar,33.66746186,-95.57110784,27.77777777777778,wmoUnit:degC,79,34,16093.44,wmoUnit:m,FA,A,Flood Watch,Severe,Future,2025-05-26T13:00:00-05:00
Polk,30.79250963,-94.82994949,27.22222222222222,wmoUnit:degC,82,13,16012.972493041932,wmoUnit:m,,,Flood Warning,Severe,Immediate,2025-05-26T12:00:00-05:00
Collin,33.18789055,-96.57248871,30.0,wmoUnit:degC,65,4,16093.44,wmoUnit:m,FA,A,Flood Watch,Severe,Future,2025-05-26T13:00:00-05:00
Hardeman,34.28865227,-99.7453851,29.444444444444443,wmoUnit:degC,57,66,,,,,,,,
McMullen,28.35351091,-98.56842256,28.333333333333332,wmoUnit:degC,80,2,15079.553095825224,wmoUnit:m,,,,,,
Cottle,34.0776571,-100.2786983,18.88888888888889,wmoUnit:degC,84,77,9656.064,wmoUnit:m,,,,,,
Frio,28.86726774,-99.10826004,28.88888888888889,wmoUnit:degC,76,3,16093.44,wmoUnit:m,,,,,,
Gray,35.40130666,-100.812475,18.333333333333332,wmoUnit:degC,87,81,,,SV,A,,,,
Dallam,36.27777107,-102.6021647,13.333333333333334,wmoUnit:degC,96,68,,,SV,A,,,,
Kenedy,26.92409448,-97.68137783,26.666666666666668,wmoUnit:degC,90,1,,,,,,,,
Fort Bend,29.52763253,-95.77090562,28.88888888888889,wmoUnit:degC,85,14,15031.273205566422,wmoUnit:m,,,,,,
Armstrong,34.96522076,-101.3572412,16.666666666666668,wmoUnit:degC,97,66,,,SV,A,,,,
Collingsworth,34.96498493,-100.2700733,24.444444444444443,wmoUnit:degC,62,76,,,SV,A,,,,
Cass,33.07750446,-94.34348771,22.77777777777778,wmoUnit:degC,84,64,16093.44,wmoUnit:m,FA,A,Severe Thunderstorm Warning,Severe,Immediate,2025-05-26T06:30:00-05:00
Sherman,36.27765824,-101.8933822,14.444444444444445,wmoUnit:degC,96,75,,,SV,A,,,,
Terry,33.17373729,-102.335157,19.444444444444443,wmoUnit:degC,70,19,14355.34860278313,wmoUnit:m,,,,,,
Limestone,31.54541898,-96.58056718,27.77777777777778,wmoUnit:degC,68,0,16093.44,wmoUnit:m,,,Flood Watch,Severe,Future,2025-05-26T13:00:00-05:00
Real,29.83182711,-99.82215881,27.77777777777778,wmoUnit:degC,72,32,16093.44,wmoUnit:m,,,,,,
Lynn,33.17685487,-101.8160235,17.77777777777778,wmoUnit:degC,90,27,15288.768,wmoUnit:m,,,,,,
Lavaca,29.38437003,-96.93020993,27.22222222222222,wmoUnit:degC,89,1,16093.44,wmoUnit:m,,,,,,
Nolan,32.3034718,-100.4060989,24.444444444444443,wmoUnit:degC,64,49,16093.44,wmoUnit:m,TO,A,,,,
Gaines,32.74074537,-102.6351246,20.0,wmoUnit:degC,70,1,16093.44,wmoUnit:m,,,,,,
Montgomery,30.30022409,-95.50301411,28.333333333333332,wmoUnit:degC,82,7,16061.252383300736,wmoUnit:m,,,,,,
Concho,31.32645211,-99.86413426,30.0,wmoUnit:degC,50,24,16093.44,wmoUnit:m,,,,,,
Hardin,30.33238431,-94.39021394,27.77777777777778,wmoUnit:degC,77,15,16012.972493041932,wmoUnit:m,,,,,,
Harris,29.85967144,-95.39782106,28.333333333333332,wmoUnit:degC,82,14,16093.44,wmoUnit:m,,,,,,
Leon,31.29655719,-95.99554292,28.333333333333332,wmoUnit:degC,72,0,16093.44,wmoUnit:m,,,Flood Watch,Severe,Future,2025-05-26T13:00:00-05:00
Bowie,33.44572786,-94.42324298,22.22222222222222,wmoUnit:degC,90,64,11265.408,wmoUnit:m,FA,A,Severe Thunderstorm Warning,Severe,Immediate,2025-05-26T06:30:00-05:00
Kaufman,32.59927808,-96.28779341,28.88888888888889,wmoUnit:degC,67,2,16093.44,wmoUnit:m,FA,A,Flood Watch,Severe,Future,2025-05-26T13:00:00-05:00
Anderson,31.81321543,-95.65251774,26.11111111111111,wmoUnit:degC,86,0,16093.44,wmoUnit:m,,,Flood Watch,Severe,Future,2025-05-26T13:00:00-05:00
San Saba,31.15520543,-98.81754295,28.333333333333332,wmoUnit:degC,63,3,16093.44,wmoUnit:m,,,,,,
Schleicher,30.89661056,-100.538097,30.0,wmoUnit:degC,43,14,16093.44,wmoUnit:m,,,,,,
Colorado,29.6208542,-96.52630821,27.77777777777778,wmoUnit:degC,85,3,15900.318904174776,wmoUnit:m,,,,,,
Milam,30.78625299,-96.97683495,30.0,wmoUnit:degC,59,0,16093.44,wmoUnit:m,,,Flood Watch,Severe,Future,2025-05-26T13:00:00-05:00
Live Oak,28.3514375,-98.12474493,28.333333333333332,wmoUnit:degC,85,1,14323.160986084027,wmoUnit:m,,,,,,
Borden,32.7436916,-101.4317533,18.88888888888889,wmoUnit:degC,87,21,16093.44,wmoUnit:m,,,,,,
McCulloch,31.19896752,-99.34754972,27.77777777777778,wmoUnit:degC,61,11,16093.44,wmoUnit:m,,,,,,
Johnson,32.37899918,-97.36660504,28.88888888888889,wmoUnit:degC,73,0,11265.408,wmoUnit:m,FA,A,Flood Watch,Severe,Future,2025-05-26T13:00:00-05:00
Montague,33.67496328,-97.72466993,26.666666666666668,wmoUnit:degC,79,3,16093.44,wmoUnit:m,FA,A,Flood Watch,Severe,Future,2025-05-26T13:00:00-05:00
Stonewall,33.17842158,-100.255259,20.0,wmoUnit:degC,90,66,9656.064,wmoUnit:m,,,,,,
Comal,29.80816362,-98.27814516,26.11111111111111,wmoUnit:degC,82,1,16093.44,wmoUnit:m,,,,,,
Eastland,32.32739258,-98.8325713,28.333333333333332,wmoUnit:degC,56,2,11265.408,wmoUnit:m,SV,A,,,,
Comanche,31.9490639,-98.55841538,30.555555555555557,wmoUnit:degC,49,0,16093.44,wmoUnit:m,SV,A,,,,
King,33.61641863,-100.2558584,19.444444444444443,wmoUnit:degC,90,70,9656.064,wmoUnit:m,,,,,,
Washington,30.2145299,-96.40356575,28.333333333333332,wmoUnit:degC,74,7,15964.69260278313,wmoUnit:m,,,,,,
Webb,27.76102524,-99.33170164,30.0,wmoUnit:degC,68,7,16012.972493041932,wmoUnit:m,,,,,,
Fayette,29.87683207,-96.91968047,27.77777777777778,wmoUnit:degC,83,1,16093.44,wmoUnit:m,,,,,,
Harrison,32.54814898,-94.37155736,25.555555555555557,wmoUnit:degC,91,30,16093.44,wmoUnit:m,FA,A,Severe Thunderstorm Warning,Severe,Immediate,2025-05-26T06:30:00-05:00
Presidio,29.99977786,-104.2405552,24.444444444444443,wmoUnit:degC,7,3,16093.44,wmoUnit:m,,,,,,
Austin,29.88711223,-96.27791829,27.77777777777778,wmoUnit:degC,82,5,15948.59879443358,wmoUnit:m,,,,,,
Randall,34.96594288,-101.8968527,15.0,wmoUnit:degC,100,61,,,SV,A,,,,
Hood,32.43107878,-97.83280338,28.88888888888889,wmoUnit:degC,63,7,16093.44,wmoUnit:m,SV,A,,,,
Victoria,28.79640594,-96.97176602,28.333333333333332,wmoUnit:degC,82,0,14757.68460278313,wmoUnit:m,,,,,,
Hutchinson,35.84000866,-101.3547257,17.22222222222222,wmoUnit:degC,90,79,,,SV,A,,,,
Coryell,31.39087578,-97.7991883,30.0,wmoUnit:degC,66,0,16093.44,wmoUnit:m,,,Flood Watch,Severe,Future,2025-05-26T13:00:00-05:00
Jackson,28.95603133,-96.57883268,28.88888888888889,wmoUnit:degC,88,12,15932.504986084026,wmoUnit:m,,,,,,
Taylor,32.30138229,-99.89003941,25.555555555555557,wmoUnit:degC,60,81,16093.44,wmoUnit:m,TO,A,,,,
Zapata,27.00089072,-99.16860134,27.77777777777778,wmoUnit:degC,74,2,,,,,,,,
San Patricio,28.00922186,-97.51859857,28.88888888888889,wmoUnit:degC,91,0,13936.918794433579,wmoUnit:m,,,,,,
Grimes,30.54360689,-95.98557334,28.333333333333332,wmoUnit:degC,82,11,16077.34619165045,wmoUnit:m,,,,,,
Lamb,34.06861242,-102.3517095,15.555555555555555,wmoUnit:degC,93,29,15900.318904174776,wmoUnit:m,,,,,,
