countyName,latitude,longitude,temperature,temperature_unit,relativeHumidity,precipitationProbability,visibility,visibility_unit,hazard_phenomenon,hazard_significance,alert_event,alert_severity,alert_urgency,alert_expires
Foard,33.97408519,-99.77871109,22.77777777777778,wmoUnit:degC,89,0,,,,,,,,
Blanco,30.26636128,-98.39974086,21.11111111111111,wmoUnit:degC,97,7,7885.785753478953,wmoUnit:m,,,,,,
Hockley,33.60750375,-102.3430919,28.88888888888889,wmoUnit:degC,53,2,16093.44,wmoUnit:m,,,,,,
Llano,30.70566579,-98.68387398,21.666666666666668,wmoUnit:degC,90,0,7885.785753478953,wmoUnit:m,,,,,,
Swisher,34.53064989,-101.734951,28.88888888888889,wmoUnit:degC,49,1,16093.44,wmoUnit:m,,,,,,
Titus,33.2160906,-94.96509786,23.88888888888889,wmoUnit:degC,84,9,16093.44,wmoUnit:m,,,Flood Warning,Severe,Immediate,2025-06-14T11:30:00-05:00
Navarro,32.04695429,-96.47248134,20.0,wmoUnit:degC,97,0,12746.00460278313,wmoUnit:m,,,Flood Warning,Severe,Immediate,2025-06-14T08:45:00-05:00
Brazoria,29.19345387,-95.45578479,28.333333333333332,wmoUnit:degC,94,29,15755.477698608354,wmoUnit:m,FA,A,Rip Current Statement,Moderate,Expected,2025-06-14T04:00:00-05:00
Hidalgo,26.396627,-98.18088681,31.666666666666668,wmoUnit:degC,67,0,,,,,,,,
Archer,33.61539176,-98.68783437,23.333333333333332,wmoUnit:degC,85,2,,,,,,,,
Refugio,28.32681413,-97.16546961,23.333333333333332,wmoUnit:degC,100,15,12472.416,wmoUnit:m,,,Flood Warning,Severe,Immediate,2025-06-14T05:45:00-05:00
Andrews,32.30506283,-102.6378839,27.22222222222222,wmoUnit:degC,65,0,16093.44,wmoUnit:m,,,,,,
Galveston,29.39424415,-94.96474975,27.77777777777778,wmoUnit:degC,85,39,10364.17545208747,wmoUnit:m,FA,A,Rip Current Statement,Moderate,Expected,2025-06-14T04:00:00-05:00
De Witt,29.08201599,-97.35666976,22.77777777777778,wmoUnit:degC,95,17,7885.785753478953,wmoUnit:m,,,,,,
Gonzales,29.45641495,-97.49279927,21.666666666666668,wmoUnit:degC,98,11,7885.785753478953,wmoUnit:m,,,,,,
Wharton,29.2778362,-96.22197375,28.333333333333332,wmoUnit:degC,88,18,15353.141698608355,wmoUnit:m,,,Flood Warning,Severe,Immediate,2025-06-14T03:30:00-05:00
Fannin,33.59396919,-96.10656755,21.11111111111111,wmoUnit:degC,97,2,11265.408,wmoUnit:m,,,,,,
Madison,30.96564645,-95.92818441,27.22222222222222,wmoUnit:degC,88,3,16061.252383300736,wmoUnit:m,,,Special Weather Statement,Moderate,Expected,2025-06-13T17:15:00-05:00
Moore,35.83768863,-101.8929556,23.333333333333332,wmoUnit:degC,55,0,,,,,,,,
Tyler,30.7712607,-94.37651432,22.77777777777778,wmoUnit:degC,100,24,13647.236383300737,wmoUnit:m,,,,,,
Lipscomb,36.27778432,-100.27317,21.11111111111111,wmoUnit:degC,90,0,,,,,,,,
Burleson,30.49246139,-96.62109399,28.88888888888889,wmoUnit:degC,80,3,16093.44,wmoUnit:m,,,,,,
Jim Hogg,27.04340499,-98.6972921,31.11111111111111,wmoUnit:degC,67,0,,,,,,,,
Throckmorton,33.17753907,-99.21236832,21.666666666666668,wmoUnit:degC,99,14,16093.44,wmoUnit:m,,,,,,
Kleberg,27.43274395,-97.72889778,25.555555555555557,wmoUnit:degC,97,1,14548.469698608355,wmoUnit:m,,,,,,
Shelby,31.79242191,-94.14495261,23.333333333333332,wmoUnit:degC,82,18,16093.44,wmoUnit:m,,,,,,
Garza,33.17991074,-101.2984496,29.444444444444443,wmoUnit:degC,61,2,16093.44,wmoUnit:m,,,,,,
Karnes,28.90493782,-97.85960621,22.22222222222222,wmoUnit:degC,95,8,11265.408,wmoUnit:m,,,Flood Warning,Severe,Immediate,2025-06-13T19:45:00-05:00
Reeves,31.32307061,-103.693143,28.333333333333332,wmoUnit:degC,51,0,16093.44,wmoUnit:m,,,Special Weather Statement,Moderate,Expected,2025-06-13T17:45:00-05:00
Houston,31.31764137,-95.42225367,27.22222222222222,wmoUnit:degC,94,3,15932.504986084026,wmoUnit:m,,,Special Weather Statement,Moderate,Expected,2025-06-13T17:15:00-05:00
El Paso,31.7686226,-106.2352229,26.666666666666668,wmoUnit:degC,28,0,16093.44,wmoUnit:m,HT,Y,Heat Advisory,Moderate,Expected,2025-06-14T06:00:00-06:00
Carson,35.40346802,-101.3542037,24.444444444444443,wmoUnit:degC,58,0,,,,,,,,
Medina,29.35520493,-99.11008331,22.22222222222222,wmoUnit:degC,90,2,11265.408,wmoUnit:m,,,,,,
Wichita,33.98421585,-98.70153389,22.22222222222222,wmoUnit:degC,91,7,,,,,,,,
Chambers,29.73912276,-94.60891308,27.77777777777778,wmoUnit:degC,88,54,6340.815452087469,wmoUnit:m,FA,A,Flood Watch,Severe,Future,2025-06-13T19:00:00-05:00
Donley,34.96540246,-100.8140501,22.77777777777778,wmoUnit:degC,81,1,,,,,,,,
Hopkins,33.14933822,-95.56414173,20.0,wmoUnit:degC,97,0,12746.00460278313,wmoUnit:m,,,,,,
Lampasas,31.19627791,-98.24142711,20.0,wmoUnit:degC,97,0,14548.469698608355,wmoUnit:m,,,,,,
Falls,31.25317017,-96.93579511,20.0,wmoUnit:degC,100,0,11265.408,wmoUnit:m,,,,,,
Stephens,32.73584155,-98.83612016,21.11111111111111,wmoUnit:degC,93,4,16093.44,wmoUnit:m,,,,,,
Travis,30.33423319,-97.78194654,21.11111111111111,wmoUnit:degC,96,4,7885.785753478953,wmoUnit:m,,,,,,
Roberts,35.8385577,-100.8135689,22.22222222222222,wmoUnit:degC,81,0,,,,,,,,
Crosby,33.61459873,-101.2998612,27.22222222222222,wmoUnit:degC,67,1,16093.44,wmoUnit:m,,,,,,
Kerr,30.06153035,-99.35016969,20.555555555555557,wmoUnit:degC,90,2,11265.408,wmoUnit:m,,,,,,
Wood,32.78634374,-95.38206498,23.333333333333332,wmoUnit:degC,87,7,16093.44,wmoUnit:m,,,Flood Warning,Severe,Immediate,2025-06-14T11:30:00-05:00
Jack,33.23345819,-98.1725509,21.11111111111111,wmoUnit:degC,93,5,16093.44,wmoUnit:m,,,,,,
Marion,32.79797929,-94.35725239,25.555555555555557,wmoUnit:degC,85,10,16093.44,wmoUnit:m,,,Flood Warning,Severe,Immediate,2025-06-14T11:30:00-05:00
Hale,34.07051782,-101.8269082,28.333333333333332,wmoUnit:degC,57,1,16093.44,wmoUnit:m,,,,,,
Jeff Davis,30.71559322,-104.1403539,26.11111111111111,wmoUnit:degC,35,0,16093.44,wmoUnit:m,,,Special Weather Statement,Moderate,Expected,2025-06-13T17:45:00-05:00
Tarrant,32.77185236,-97.29116473,21.666666666666668,wmoUnit:degC,93,3,16093.44,wmoUnit:m,,,,,,
Waller,30.01093722,-95.98768942,28.333333333333332,wmoUnit:degC,88,15,15771.571506958067,wmoUnit:m,,,,,,
Reagan,31.36617698,-101.5230108,26.666666666666668,wmoUnit:degC,65,0,16093.44,wmoUnit:m,,,,,,
Smith,32.37514553,-95.26909511,24.444444444444443,wmoUnit:degC,85,7,16093.44,wmoUnit:m,,,Flood Warning,Severe,Immediate,2025-06-14T11:30:00-05:00
Van Zandt,32.56368961,-95.8364862,20.0,wmoUnit:degC,93,0,12746.00460278313,wmoUnit:m,,,,,,
Cooke,33.638465,-97.21247642,21.11111111111111,wmoUnit:degC,97,6,16093.44,wmoUnit:m,,,,,,
Zavala,28.86530621,-99.76102001,23.333333333333332,wmoUnit:degC,96,0,11265.408,wmoUnit:m,,,,,,
Hall,34.53074134,-100.6809876,30.0,wmoUnit:degC,57,2,16093.44,wmoUnit:m,,,,,,
Kendall,29.9446397,-98.71160511,20.555555555555557,wmoUnit:degC,98,8,7885.785753478953,wmoUnit:m,,,,,,
Goliad,28.65708563,-97.42646082,20.555555555555557,wmoUnit:degC,100,5,10798.698301391645,wmoUnit:m,,,Flood Warning,Severe,Expected,2025-06-14T02:30:00-05:00
Yoakum,33.17293501,-102.8278792,28.88888888888889,wmoUnit:degC,53,0,16093.44,wmoUnit:m,,,,,,
Knox,33.60614755,-99.74144313,24.444444444444443,wmoUnit:degC,83,0,,,,,,,,
McLennan,31.55234489,-97.20184883,20.555555555555557,wmoUnit:degC,97,0,14548.469698608355,wmoUnit:m,,,,,,
Brewster,29.81205836,-103.2518906,27.22222222222222,wmoUnit:degC,67,0,16093.44,wmoUnit:m,,,Special Weather Statement,Moderate,Expected,2025-06-13T17:45:00-05:00
Panola,32.16222886,-94.30552858,24.444444444444443,wmoUnit:degC,87,13,16093.44,wmoUnit:m,,,Flood Warning,Severe,Immediate,2025-06-14T11:15:00-05:00
Bandera,29.74724753,-99.24637282,21.11111111111111,wmoUnit:degC,92,4,1738.0915890654805,wmoUnit:m,,,,,,
Parmer,34.53014507,-102.784594,28.88888888888889,wmoUnit:degC,43,0,16093.44,wmoUnit:m,,,,,,
Rockwall,32.89786769,-96.40780584,20.555555555555557,wmoUnit:degC,97,0,14548.469698608355,wmoUnit:m,,,Flood Warning,Severe,Immediate,2025-06-14T04:45:00-05:00
Trinity,31.0885069,-95.13551682,27.77777777777778,wmoUnit:degC,85,6,15723.291616699264,wmoUnit:m,,,Flood Advisory,Minor,Expected,2025-06-13T18:30:00-05:00
Bosque,31.90050476,-97.63437613,20.0,wmoUnit:degC,93,0,12746.00460278313,wmoUnit:m,,,,,,
Coke,31.88849293,-100.5298747,22.22222222222222,wmoUnit:degC,88,2,16093.44,wmoUnit:m,,,,,,
Franklin,33.17550691,-95.21841437,23.88888888888889,wmoUnit:degC,84,8,16093.44,wmoUnit:m,,,Flood Warning,Severe,Immediate,2025-06-14T11:30:00-05:00
Hill,31.99079033,-97.1324142,20.0,wmoUnit:degC,93,0,12746.00460278313,wmoUnit:m,,,,,,
Calhoun,28.48966896,-96.64708119,25.0,wmoUnit:degC,100,23,12842.565150695822,wmoUnit:m,,,Flood Warning,Severe,Immediate,2025-06-14T05:45:00-05:00
Irion,31.30393203,-100.9824126,22.77777777777778,wmoUnit:degC,82,2,15176.114411132843,wmoUnit:m,,,,,,
Midland,31.86921148,-102.0315032,26.666666666666668,wmoUnit:degC,67,0,16093.44,wmoUnit:m,,,,,,
Brown,31.77432313,-98.99989649,21.666666666666668,wmoUnit:degC,100,15,16093.44,wmoUnit:m,,,,,,
Wilson,29.17315896,-98.08621015,21.666666666666668,wmoUnit:degC,93,7,7885.785753478953,wmoUnit:m,,,Flood Warning,Severe,Immediate,2025-06-13T19:45:00-05:00
Oldham,35.40497586,-102.6029949,23.333333333333332,wmoUnit:degC,57,0,,,,,,,,
Freestone,31.70486443,-96.14918535,19.444444444444443,wmoUnit:degC,100,0,11265.408,wmoUnit:m,,,Flood Warning,Severe,Immediate,2025-06-14T08:45:00-05:00
Sabine,31.34321941,-93.85170439,26.666666666666668,wmoUnit:degC,88,28,16093.44,wmoUnit:m,,,,,,
Deaf Smith,34.96602014,-102.6048162,25.0,wmoUnit:degC,50,0,,,,,,,,
Angelina,31.25475875,-94.611742,25.555555555555557,wmoUnit:degC,88,16,16093.44,wmoUnit:m,,,Flood Warning,Severe,Immediate,2025-06-14T11:30:00-05:00
Kent,33.18284492,-100.7791031,30.0,wmoUnit:degC,61,2,16093.44,wmoUnit:m,,,,,,
Red River,33.62074539,-95.0501886,25.0,wmoUnit:degC,79,13,16093.44,wmoUnit:m,,,Flood Warning,Severe,Immediate,2025-06-14T11:30:00-05:00
Kinney,29.35000302,-100.4178441,22.77777777777778,wmoUnit:degC,92,2,16093.44,wmoUnit:m,,,,,,
Denton,33.205574,-97.11681154,21.666666666666668,wmoUnit:degC,93,4,16093.44,wmoUnit:m,,,,,,
Sutton,30.49747152,-100.5382263,22.22222222222222,wmoUnit:degC,91,5,16093.44,wmoUnit:m,,,,,,
Guadalupe,29.58257236,-97.94850308,21.666666666666668,wmoUnit:degC,97,11,7885.785753478953,wmoUnit:m,,,,,,
Winkler,31.85008609,-103.0484794,26.666666666666668,wmoUnit:degC,62,0,16093.44,wmoUnit:m,,,,,,
Dimmit,28.42161168,-99.760574,23.333333333333332,wmoUnit:degC,91,0,11265.408,wmoUnit:m,,,,,,
Wise,33.21585061,-97.65444124,21.11111111111111,wmoUnit:degC,97,5,16093.44,wmoUnit:m,,,,,,
Hemphill,35.83750155,-100.2704628,21.11111111111111,wmoUnit:degC,90,1,,,,,,,,
Potter,35.40128927,-101.8940484,23.88888888888889,wmoUnit:degC,58,0,,,,,,,,
Childress,34.52929257,-100.2075664,29.444444444444443,wmoUnit:degC,65,2,16093.44,wmoUnit:m,,,,,,
Willacy,26.47132899,-97.64303323,32.22222222222222,wmoUnit:degC,67,2,,,,,,,,
Bastrop,30.10353518,-97.31187705,21.666666666666668,wmoUnit:degC,99,9,7885.785753478953,wmoUnit:m,,,,,,
Kimble,30.48676251,-99.74892716,22.22222222222222,wmoUnit:degC,95,11,16061.252383300736,wmoUnit:m,,,,,,
Scurry,32.74720063,-100.9165071,25.555555555555557,wmoUnit:degC,74,0,16093.44,wmoUnit:m,,,,,,
Ochiltree,36.27846334,-100.815653,20.555555555555557,wmoUnit:degC,90,0,,,,,,,,
Hansford,36.27753179,-101.3545624,22.77777777777778,wmoUnit:degC,68,0,,,,,,,,
Hartley,35.83996755,-102.6028835,21.666666666666668,wmoUnit:degC,61,0,,,,,,,,
Cameron,26.13847728,-97.51499968,32.22222222222222,wmoUnit:degC,62,2,,,,,,,,
Matagorda,28.86711039,-95.98533866,28.88888888888889,wmoUnit:degC,91,17,16093.44,wmoUnit:m,,,Rip Current Statement,Moderate,Expected,2025-06-14T04:00:00-05:00
Burnet,30.78843382,-98.18252382,21.11111111111111,wmoUnit:degC,98,0,7885.785753478953,wmoUnit:m,,,,,,
Rains,32.87004212,-95.79347545,19.444444444444443,wmoUnit:degC,97,0,12746.00460278313,wmoUnit:m,,,,,,
Hays,30.05782657,-98.03104087,21.11111111111111,wmoUnit:degC,97,8,7885.785753478953,wmoUnit:m,,,,,,
Mason,30.71742293,-99.2263026,22.22222222222222,wmoUnit:degC,95,17,15514.076712524487,wmoUnit:m,,,,,,
Ward,31.509424,-103.1024636,27.22222222222222,wmoUnit:degC,67,0,16093.44,wmoUnit:m,,,,,,
Delta,33.38623601,-95.67221685,20.555555555555557,wmoUnit:degC,97,0,12746.00460278313,wmoUnit:m,,,,,,
Nueces,27.72621549,-97.61767326,23.88888888888889,wmoUnit:degC,100,4,13840.359013915973,wmoUnit:m,,,,,,
Callahan,32.2977738,-99.37359692,21.11111111111111,wmoUnit:degC,98,11,15916.412712524489,wmoUnit:m,,,,,,
Bell,31.03778267,-97.47790776,20.0,wmoUnit:degC,97,0,11265.408,wmoUnit:m,,,,,,
Cherokee,31.83695632,-95.16515234,23.333333333333332,wmoUnit:degC,97,8,11265.408,wmoUnit:m,,,Flood Warning,Severe,Immediate,2025-06-14T11:30:00-05:00
Ellis,32.34839264,-96.79467417,20.0,wmoUnit:degC,100,0,14532.375890258803,wmoUnit:m,,,,,,
Lubbock,33.6101944,-101.8205745,29.444444444444443,wmoUnit:degC,53,1,16093.44,wmoUnit:m,,,,,,
Terrell,30.22502597,-102.0764533,23.333333333333332,wmoUnit:degC,79,0,16093.44,wmoUnit:m,,,,,,
Crockett,30.72291931,-101.4118364,21.666666666666668,wmoUnit:degC,86,2,11844.772054870598,wmoUnit:m,,,,,,
Atascosa,28.89418432,-98.52741302,22.22222222222222,wmoUnit:degC,96,6,11265.408,wmoUnit:m,,,,,,
Ector,31.86908156,-102.5430907,25.555555555555557,wmoUnit:degC,69,0,16093.44,wmoUnit:m,,,,,,
Brazos,30.6610425,-96.3022943,28.88888888888889,wmoUnit:degC,80,4,15900.318904174776,wmoUnit:m,,,Flood Warning,Severe,Expected,2025-06-14T03:45:00-05:00
Aransas,28.12709562,-96.99258951,27.77777777777778,wmoUnit:degC,94,17,15497.982904174776,wmoUnit:m,,,,,,
Dallas,32.76653746,-96.77781862,21.11111111111111,wmoUnit:degC,97,0,16093.44,wmoUnit:m,,,,,,
Howard,32.30610232,-101.4355097,31.11111111111111,wmoUnit:degC,50,0,16093.44,wmoUnit:m,,,,,,
Motley,34.07409017,-100.7798961,29.444444444444443,wmoUnit:degC,61,1,16093.44,wmoUnit:m,,,,,,
San Augustine,31.39427005,-94.16809762,25.555555555555557,wmoUnit:degC,85,21,16093.44,wmoUnit:m,,,,,,
Maverick,28.74260943,-100.3144638,23.333333333333332,wmoUnit:degC,96,0,11265.408,wmoUnit:m,,,,,,
Erath,32.23640361,-98.21722756,20.0,wmoUnit:degC,97,3,16093.44,wmoUnit:m,,,,,,
Dickens,33.61663428,-100.7788138,27.77777777777778,wmoUnit:degC,72,1,16093.44,wmoUnit:m,,,,,,
Caldwell,29.83677935,-97.61983479,21.666666666666668,wmoUnit:degC,100,11,7885.785753478953,wmoUnit:m,,,,,,
Dawson,32.74258137,-101.9476136,26.11111111111111,wmoUnit:degC,72,0,16093.44,wmoUnit:m,,,,,,
Camp,32.97321771,-94.97860185,23.88888888888889,wmoUnit:degC,87,8,16093.44,wmoUnit:m,,,,,,
Duval,27.68133382,-98.50889672,22.77777777777778,wmoUnit:degC,100,0,11796.49139721687,wmoUnit:m,,,,,,
Hunt,33.123531,-96.08550014,20.555555555555557,wmoUnit:degC,97,0,16093.44,wmoUnit:m,,,Flood Warning,Severe,Immediate,2025-06-14T04:45:00-05:00
Mills,31.49524259,-98.59552736,20.0,wmoUnit:degC,97,0,12746.00460278313,wmoUnit:m,,,,,,
Val Verde,29.89300587,-101.15171,22.22222222222222,wmoUnit:degC,80,4,16093.44,wmoUnit:m,,,,,,
Pecos,30.78100044,-102.7235743,26.11111111111111,wmoUnit:degC,72,0,16093.44,wmoUnit:m,,,,,,
Baylor,33.61648147,-99.21351964,23.88888888888889,wmoUnit:degC,84,0,,,,,,,,
Gregg,32.48036452,-94.81723694,25.0,wmoUnit:degC,94,8,16093.44,wmoUnit:m,,,Flood Warning,Severe,Immediate,2025-06-14T11:15:00-05:00
Cochran,33.60410808,-102.8285264,30.555555555555557,wmoUnit:degC,40,0,16093.44,wmoUnit:m,,,,,,
Jasper,30.74391255,-94.02495849,23.333333333333332,wmoUnit:degC,100,28,12939.125698608354,wmoUnit:m,,,Flood Warning,Severe,Expected,2025-06-14T15:15:00-05:00
Hamilton,31.70479181,-98.11066654,20.0,wmoUnit:degC,100,0,11265.408,wmoUnit:m,,,,,,
Castro,34.53000304,-102.2617608,27.77777777777778,wmoUnit:degC,49,0,16093.44,wmoUnit:m,,,,,,
Sterling,31.82786516,-101.0500699,22.22222222222222,wmoUnit:degC,87,1,16093.44,wmoUnit:m,,,,,,
Starr,26.56212627,-98.73834895,31.11111111111111,wmoUnit:degC,68,0,,,,,,,,
Crane,31.42846287,-102.5156425,26.666666666666668,wmoUnit:degC,69,0,16093.44,wmoUnit:m,,,,,,
Morris,33.11368507,-94.73205137,24.444444444444443,wmoUnit:degC,85,9,16093.44,wmoUnit:m,,,Flood Warning,Severe,Immediate,2025-06-14T11:30:00-05:00
Briscoe,34.53041048,-101.2085769,27.22222222222222,wmoUnit:degC,58,1,16093.44,wmoUnit:m,,,,,,
Tom Green,31.4044442,-100.4620678,22.22222222222222,wmoUnit:degC,92,3,16093.44,wmoUnit:m,,,,,,
Menard,30.88981785,-99.82061472,21.666666666666668,wmoUnit:degC,99,8,15819.85139721687,wmoUnit:m,,,,,,
Parker,32.77852261,-97.80472194,20.555555555555557,wmoUnit:degC,93,4,16093.44,wmoUnit:m,,,,,,
Walker,30.73899492,-95.57224172,29.444444444444443,wmoUnit:degC,75,5,16077.34619165045,wmoUnit:m,,,Flood Advisory,Minor,Expected,2025-06-13T18:30:00-05:00
Brooks,27.0315669,-98.21874127,31.666666666666668,wmoUnit:degC,69,0,,,,,,,,
La Salle,28.34621032,-99.1034773,22.77777777777778,wmoUnit:degC,100,1,15047.367013915973,wmoUnit:m,,,,,,
Edwards,29.98248216,-100.3048937,20.555555555555557,wmoUnit:degC,90,2,11265.408,wmoUnit:m,,,,,,
Lee,30.31065065,-96.96568735,21.666666666666668,wmoUnit:degC,96,2,7885.785753478953,wmoUnit:m,,,,,,
Robertson,31.02705415,-96.51272568,18.88888888888889,wmoUnit:degC,100,0,11265.408,wmoUnit:m,,,Flood Warning,Severe,Immediate,2025-06-14T08:45:00-05:00
Young,33.17670764,-98.68781396,21.11111111111111,wmoUnit:degC,93,5,16093.44,wmoUnit:m,,,,,,
Bee,28.41736675,-97.74116811,21.11111111111111,wmoUnit:degC,100,26,12424.135342346271,wmoUnit:m,,,,,,
Clay,33.78379717,-98.208958,22.77777777777778,wmoUnit:degC,89,12,,,,,,,,
San Jacinto,30.57948905,-95.16683273,27.77777777777778,wmoUnit:degC,82,11,14966.899506958067,wmoUnit:m,,,Flood Advisory,Minor,Expected,2025-06-13T18:30:00-05:00
Uvalde,29.35669829,-99.76203107,21.666666666666668,wmoUnit:degC,94,5,11265.408,wmoUnit:m,,,,,,
Haskell,33.17824805,-99.73029401,21.666666666666668,wmoUnit:degC,92,8,16093.44,wmoUnit:m,,,,,,
Somervell,32.22229511,-97.77456553,21.11111111111111,wmoUnit:degC,93,2,14532.375890258803,wmoUnit:m,,,,,,
Bexar,29.44884523,-98.51966309,22.22222222222222,wmoUnit:degC,92,7,7885.785753478953,wmoUnit:m,,,Flood Warning,Severe,Immediate,2025-06-14T01:30:00-05:00
Grayson,33.62684371,-96.67764864,21.11111111111111,wmoUnit:degC,97,5,11265.408,wmoUnit:m,,,,,,
Bailey,34.0684915,-102.8299069,30.0,wmoUnit:degC,42,0,16093.44,wmoUnit:m,,,,,,
Jones,32.73970429,-99.87850599,22.77777777777778,wmoUnit:degC,87,5,16093.44,wmoUnit:m,,,,,,
Jefferson,29.88425832,-94.1708778,25.0,wmoUnit:degC,97,41,15095.646904174775,wmoUnit:m,FA,A,Flood Warning,Severe,Expected,2025-06-14T15:15:00-05:00
Rusk,32.10803224,-94.76169577,25.555555555555557,wmoUnit:degC,91,10,16093.44,wmoUnit:m,,,Flood Warning,Severe,Immediate,2025-06-14T11:30:00-05:00
Glasscock,31.8694238,-101.520742,27.22222222222222,wmoUnit:degC,63,0,16093.44,wmoUnit:m,,,,,,
Gillespie,30.31800246,-98.94627245,20.0,wmoUnit:degC,93,2,7885.785753478953,wmoUnit:m,,,,,,
Fisher,32.74305155,-100.4019503,22.77777777777778,wmoUnit:degC,87,3,16093.44,wmoUnit:m,,,,,,
Henderson,32.21188078,-95.85356847,20.0,wmoUnit:degC,97,0,11265.408,wmoUnit:m,,,Flood Warning,Severe,Immediate,2025-06-14T08:45:00-05:00
Shackelford,32.7360276,-99.35403034,22.22222222222222,wmoUnit:degC,97,11,16093.44,wmoUnit:m,,,,,,
Palo Pinto,32.75316856,-98.31299522,20.555555555555557,wmoUnit:degC,93,5,16093.44,wmoUnit:m,,,,,,
Wilbarger,34.08044953,-99.24089568,22.22222222222222,wmoUnit:degC,88,2,,,,,,,,
Floyd,34.07239775,-101.3033037,27.77777777777778,wmoUnit:degC,65,2,16093.44,wmoUnit:m,,,,,,
Orange,30.12807126,-93.89653794,24.444444444444443,wmoUnit:degC,100,49,14130.039890258802,wmoUnit:m,FA,A,Flood Warning,Severe,Expected,2025-06-14T15:15:00-05:00
Runnels,31.83105393,-99.97624799,22.22222222222222,wmoUnit:degC,93,4,16093.44,wmoUnit:m,,,,,,
Coleman,31.77329421,-99.45362579,21.666666666666668,wmoUnit:degC,97,9,16061.252383300736,wmoUnit:m,,,,,,
Martin,32.30605847,-101.9512464,26.666666666666668,wmoUnit:degC,65,0,16093.44,wmoUnit:m,,,,,,
Wheeler,35.40129002,-100.2697634,20.0,wmoUnit:degC,97,1,,,,,,,,
Culberson,31.44709817,-104.5177421,26.666666666666668,wmoUnit:degC,35,0,16093.44,wmoUnit:m,,,Special Weather Statement,Moderate,Expected,2025-06-13T17:45:00-05:00
Mitchell,32.30636024,-100.9211128,31.11111111111111,wmoUnit:degC,55,0,16093.44,wmoUnit:m,,,,,,
Hudspeth,31.45613738,-105.3869428,24.444444444444443,wmoUnit:degC,39,0,16093.44,wmoUnit:m,,,Heat Advisory,Moderate,Expected,2025-06-14T06:00:00-06:00
Upshur,32.7362827,-94.94132011,23.88888888888889,wmoUnit:degC,94,7,16093.44,wmoUnit:m,,,Flood Warning,Severe,Immediate,2025-06-14T11:15:00-05:00
Liberty,30.15153187,-94.8120925,28.333333333333332,wmoUnit:degC,82,38,13663.330191650448,wmoUnit:m,,,Flood Watch,Severe,Future,2025-06-13T19:00:00-05:00
Williamson,30.64834941,-97.60105467,21.11111111111111,wmoUnit:degC,96,0,7885.785753478953,wmoUnit:m,,,,,,
Nacogdoches,31.61604108,-94.6158776,25.0,wmoUnit:degC,87,14,16093.44,wmoUnit:m,,,Flood Warning,Severe,Immediate,2025-06-14T11:30:00-05:00
Loving,31.84912973,-103.5799063,25.555555555555557,wmoUnit:degC,76,0,16093.44,wmoUnit:m,,,,,,
Jim Wells,27.73131099,-98.0898649,23.333333333333332,wmoUnit:degC,100,13,8497.336657653728,wmoUnit:m,,,,,,
Upton,31.36853957,-102.0430005,25.0,wmoUnit:degC,76,0,16093.44,wmoUnit:m,,,,,,
Newton,30.78619977,-93.74462993,22.77777777777778,wmoUnit:degC,100,31,12247.108054870598,wmoUnit:m,,,Flood Watch,Severe,Future,2025-06-14T14:15:00-05:00
Lamar,33.66746186,-95.57110784,21.11111111111111,wmoUnit:degC,97,0,11265.408,wmoUnit:m,,,,,,
Polk,30.79250963,-94.82994949,28.88888888888889,wmoUnit:degC,80,15,15224.394301391645,wmoUnit:m,,,Flood Advisory,Minor,Expected,2025-06-13T18:30:00-05:00
Collin,33.18789055,-96.57248871,21.666666666666668,wmoUnit:degC,93,1,16093.44,wmoUnit:m,,,,,,
Hardeman,34.28865227,-99.7453851,22.22222222222222,wmoUnit:degC,89,3,,,,,,,,
McMullen,28.35351091,-98.56842256,21.666666666666668,wmoUnit:degC,100,1,9221.541150695823,wmoUnit:m,,,,,,
Cottle,34.0776571,-100.2786983,29.444444444444443,wmoUnit:degC,65,2,16093.44,wmoUnit:m,,,,,,
Frio,28.86726774,-99.10826004,22.77777777777778,wmoUnit:degC,95,3,11265.408,wmoUnit:m,,,,,,
Gray,35.40130666,-100.812475,22.22222222222222,wmoUnit:degC,84,0,,,,,,,,
Dallam,36.27777107,-102.6021647,21.666666666666668,wmoUnit:degC,57,0,,,,,,,,
Kenedy,26.92409448,-97.68137783,31.666666666666668,wmoUnit:degC,73,8,,,,,,,,
Fort Bend,29.52763253,-95.77090562,29.444444444444443,wmoUnit:degC,91,24,15127.832986084028,wmoUnit:m,,,Flood Warning,Severe,Immediate,2025-06-14T03:30:00-05:00
Armstrong,34.96522076,-101.3572412,23.88888888888889,wmoUnit:degC,64,1,,,,,,,,
Collingsworth,34.96498493,-100.2700733,22.77777777777778,wmoUnit:degC,81,2,,,,,,,,
Cass,33.07750446,-94.34348771,25.555555555555557,wmoUnit:degC,79,10,16093.44,wmoUnit:m,,,Flood Warning,Severe,Immediate,2025-06-14T11:30:00-05:00
Sherman,36.27765824,-101.8933822,22.77777777777778,wmoUnit:degC,66,1,,,,,,,,
Terry,33.17373729,-102.335157,29.444444444444443,wmoUnit:degC,46,1,16093.44,wmoUnit:m,,,,,,
Limestone,31.54541898,-96.58056718,18.88888888888889,wmoUnit:degC,100,0,11265.408,wmoUnit:m,,,Flood Warning,Severe,Immediate,2025-06-14T08:45:00-05:00
Real,29.83182711,-99.82215881,20.555555555555557,wmoUnit:degC,94,3,11265.408,wmoUnit:m,,,,,,
Lynn,33.17685487,-101.8160235,27.77777777777778,wmoUnit:degC,67,2,16093.44,wmoUnit:m,,,,,,
Lavaca,29.38437003,-96.93020993,22.77777777777778,wmoUnit:degC,98,17,7885.785753478953,wmoUnit:m,,,,,,
Nolan,32.3034718,-100.4060989,21.666666666666668,wmoUnit:degC,89,3,16093.44,wmoUnit:m,,,,,,
Gaines,32.74074537,-102.6351246,27.22222222222222,wmoUnit:degC,65,0,16093.44,wmoUnit:m,,,,,,
Montgomery,30.30022409,-95.50301411,29.444444444444443,wmoUnit:degC,80,17,15723.291616699264,wmoUnit:m,,,Special Weather Statement,Moderate,Expected,2025-06-13T17:15:00-05:00
Concho,31.32645211,-99.86413426,22.22222222222222,wmoUnit:degC,96,6,16093.44,wmoUnit:m,,,,,,
Hardin,30.33238431,-94.39021394,22.77777777777778,wmoUnit:degC,100,26,13260.994191650449,wmoUnit:m,FA,A,Flood Warning,Severe,Expected,2025-06-14T15:15:00-05:00
Harris,29.85967144,-95.39782106,30.555555555555557,wmoUnit:degC,80,34,15465.795287475512,wmoUnit:m,,,Flood Watch,Severe,Future,2025-06-13T19:00:00-05:00
Leon,31.29655719,-95.99554292,19.444444444444443,wmoUnit:degC,100,5,11265.408,wmoUnit:m,,,Flood Warning,Severe,Immediate,2025-06-14T08:45:00-05:00
Bowie,33.44572786,-94.42324298,25.0,wmoUnit:degC,82,12,16093.44,wmoUnit:m,,,Flood Warning,Severe,Immediate,2025-06-14T11:30:00-05:00
Kaufman,32.59927808,-96.28779341,20.0,wmoUnit:degC,97,0,12746.00460278313,wmoUnit:m,,,,,,
Anderson,31.81321543,-95.65251774,20.0,wmoUnit:degC,97,1,11265.408,wmoUnit:m,,,Flood Warning,Severe,Immediate,2025-06-14T08:45:00-05:00
San Saba,31.15520543,-98.81754295,22.22222222222222,wmoUnit:degC,96,20,16045.160109741197,wmoUnit:m,,,,,,
Schleicher,30.89661056,-100.538097,21.666666666666668,wmoUnit:degC,89,4,15658.916383300735,wmoUnit:m,,,,,,
Colorado,29.6208542,-96.52630821,27.77777777777778,wmoUnit:degC,91,16,12890.845808349552,wmoUnit:m,,,,,,
Milam,30.78625299,-96.97683495,18.88888888888889,wmoUnit:degC,100,0,11265.408,wmoUnit:m,,,,,,
Live Oak,28.3514375,-98.12474493,21.11111111111111,wmoUnit:degC,100,1,9656.064,wmoUnit:m,,,,,,
Borden,32.7436916,-101.4317533,26.666666666666668,wmoUnit:degC,69,0,16093.44,wmoUnit:m,,,,,,
McCulloch,31.19896752,-99.34754972,21.666666666666668,wmoUnit:degC,100,12,16093.44,wmoUnit:m,,,,,,
Johnson,32.37899918,-97.36660504,20.555555555555557,wmoUnit:degC,97,3,16093.44,wmoUnit:m,,,,,,
Montague,33.67496328,-97.72466993,21.11111111111111,wmoUnit:degC,93,9,16093.44,wmoUnit:m,,,,,,
Stonewall,33.17842158,-100.255259,29.444444444444443,wmoUnit:degC,65,1,16093.44,wmoUnit:m,,,,,,
Comal,29.80816362,-98.27814516,21.11111111111111,wmoUnit:degC,96,12,7885.785753478953,wmoUnit:m,,,,,,
Eastland,32.32739258,-98.8325713,20.0,wmoUnit:degC,97,3,16093.44,wmoUnit:m,,,,,,
Comanche,31.9490639,-98.55841538,20.0,wmoUnit:degC,97,0,16093.44,wmoUnit:m,,,,,,
King,33.61641863,-100.2558584,29.444444444444443,wmoUnit:degC,70,1,16093.44,wmoUnit:m,,,,,,
Washington,30.2145299,-96.40356575,27.22222222222222,wmoUnit:degC,88,8,15675.010191650448,wmoUnit:m,,,,,,
Webb,27.76102524,-99.33170164,23.88888888888889,wmoUnit:degC,97,0,15047.367013915973,wmoUnit:m,,,,,,
Fayette,29.87683207,-96.91968047,22.22222222222222,wmoUnit:degC,96,13,7885.785753478953,wmoUnit:m,,,,,,
Harrison,32.54814898,-94.37155736,22.77777777777778,wmoUnit:degC,100,10,16093.44,wmoUnit:m,,,Flood Warning,Severe,Immediate,2025-06-14T11:30:00-05:00
Presidio,29.99977786,-104.2405552,26.666666666666668,wmoUnit:degC,41,0,16093.44,wmoUnit:m,,,Special Weather Statement,Moderate,Expected,2025-06-13T17:45:00-05:00
Austin,29.88711223,-96.27791829,28.333333333333332,wmoUnit:degC,88,17,15417.51539721687,wmoUnit:m,,,,,,
Randall,34.96594288,-101.8968527,23.333333333333332,wmoUnit:degC,66,0,,,,,,,,
Hood,32.43107878,-97.83280338,20.555555555555557,wmoUnit:degC,93,4,14548.469698608355,wmoUnit:m,,,,,,
Victoria,28.79640594,-96.97176602,21.11111111111111,wmoUnit:degC,100,3,10846.978191650449,wmoUnit:m,,,Flood Warning,Severe,Immediate,2025-06-14T05:45:00-05:00
Hutchinson,35.84000866,-101.3547257,22.77777777777778,wmoUnit:degC,68,0,,,,,,,,
Coryell,31.39087578,-97.7991883,19.444444444444443,wmoUnit:degC,97,0,11265.408,wmoUnit:m,,,,,,
Jackson,28.95603133,-96.57883268,28.88888888888889,wmoUnit:degC,88,18,16093.44,wmoUnit:m,,,,,,
Taylor,32.30138229,-99.89003941,22.22222222222222,wmoUnit:degC,88,6,16077.34619165045,wmoUnit:m,,,,,,
Zapata,27.00089072,-99.16860134,31.11111111111111,wmoUnit:degC,64,0,,,,,,,,
San Patricio,28.00922186,-97.51859857,23.333333333333332,wmoUnit:degC,100,18,12472.416,wmoUnit:m,,,,,,
Grimes,30.54360689,-95.98557334,28.88888888888889,wmoUnit:degC,85,6,15868.131287475511,wmoUnit:m,,,Special Weather Statement,Moderate,Expected,2025-06-13T17:15:00-05:00
Lamb,34.06861242,-102.3517095,28.333333333333332,wmoUnit:degC,53,1,16093.44,wmoUnit:m,,,,,,
