countyName,latitude,longitude,temperature,temperature_unit,relativeHumidity,precipitationProbability,visibility,visibility_unit,hazard_phenomenon,hazard_significance,alert_event,alert_severity,alert_urgency,alert_expires
Foard,33.97408519,-99.77871109,25.0,wmoUnit:degC,78,83,,,FA,A,,,,
Blanco,30.26636128,-98.39974086,26.11111111111111,wmoUnit:degC,75,0,16093.44,wmoUnit:m,,,,,,
Hockley,33.60750375,-102.3430919,17.77777777777778,wmoUnit:degC,93,20,15932.504986084026,wmoUnit:m,,,,,,
Llano,30.70566579,-98.68387398,28.88888888888889,wmoUnit:degC,64,0,16093.44,wmoUnit:m,,,,,,
Swisher,34.53064989,-101.734951,15.555555555555555,wmoUnit:degC,100,14,15385.32931530762,wmoUnit:m,,,,,,
Titus,33.2160906,-94.96509786,20.0,wmoUnit:degC,97,84,9656.064,wmoUnit:m,,,Flood Warning,Severe,Expected,2025-06-10T10:00:00-05:00
Navarro,32.04695429,-96.47248134,29.444444444444443,wmoUnit:degC,70,28,16093.44,wmoUnit:m,SV,A,Flood Warning,Severe,Expected,2025-06-10T03:00:00-05:00
Brazoria,29.19345387,-95.45578479,26.11111111111111,wmoUnit:degC,97,0,14355.34860278313,wmoUnit:m,SV,A,Rip Current Statement,Moderate,Expected,2025-06-09T18:00:00-05:00
Hidalgo,26.396627,-98.18088681,27.22222222222222,wmoUnit:degC,84,0,,,,,,,,
Archer,33.61539176,-98.68783437,29.444444444444443,wmoUnit:degC,65,38,,,FA,A,,,,
Refugio,28.32681413,-97.16546961,27.22222222222222,wmoUnit:degC,85,0,16093.44,wmoUnit:m,,,,,,
Andrews,32.30506283,-102.6378839,26.666666666666668,wmoUnit:degC,49,7,16093.44,wmoUnit:m,,,,,,
Galveston,29.39424415,-94.96474975,27.22222222222222,wmoUnit:degC,91,0,15192.20668469238,wmoUnit:m,SV,A,Rip Current Statement,Moderate,Expected,2025-06-09T18:00:00-05:00
De Witt,29.08201599,-97.35666976,25.555555555555557,wmoUnit:degC,88,0,16093.44,wmoUnit:m,,,,,,
Gonzales,29.45641495,-97.49279927,26.666666666666668,wmoUnit:degC,85,0,16093.44,wmoUnit:m,,,,,,
Wharton,29.2778362,-96.22197375,25.555555555555557,wmoUnit:degC,94,0,14516.283616699264,wmoUnit:m,,,,,,
Fannin,33.59396919,-96.10656755,24.444444444444443,wmoUnit:degC,76,99,9656.064,wmoUnit:m,SV,A,,,,
Madison,30.96564645,-95.92818441,25.555555555555557,wmoUnit:degC,88,16,16012.972493041932,wmoUnit:m,,,,,,
Moore,35.83768863,-101.8929556,16.11111111111111,wmoUnit:degC,75,30,,,,,,,,
Tyler,30.7712607,-94.37651432,25.555555555555557,wmoUnit:degC,88,3,16077.34619165045,wmoUnit:m,,,,,,
Lipscomb,36.27778432,-100.27317,16.11111111111111,wmoUnit:degC,75,14,,,,,,,,
Burleson,30.49246139,-96.62109399,26.666666666666668,wmoUnit:degC,82,7,15594.542684692382,wmoUnit:m,SV,A,,,,
Jim Hogg,27.04340499,-98.6972921,25.555555555555557,wmoUnit:degC,90,0,,,,,,,,
Throckmorton,33.17753907,-99.21236832,20.0,wmoUnit:degC,93,75,13051.779287475512,wmoUnit:m,FA,A,,,,
Kleberg,27.43274395,-97.72889778,27.77777777777778,wmoUnit:degC,88,0,16093.44,wmoUnit:m,,,,,,
Shelby,31.79242191,-94.14495261,18.88888888888889,wmoUnit:degC,93,80,9656.064,wmoUnit:m,,,,,,
Garza,33.17991074,-101.2984496,18.333333333333332,wmoUnit:degC,100,16,15980.786411132844,wmoUnit:m,,,,,,
Karnes,28.90493782,-97.85960621,26.11111111111111,wmoUnit:degC,81,0,16093.44,wmoUnit:m,,,,,,
Reeves,31.32307061,-103.693143,29.444444444444443,wmoUnit:degC,39,1,16093.44,wmoUnit:m,,,,,,
Houston,31.31764137,-95.42225367,27.22222222222222,wmoUnit:degC,94,21,15337.047890258802,wmoUnit:m,,,Flood Warning,Severe,Immediate,2025-06-10T08:15:00-05:00
El Paso,31.7686226,-106.2352229,28.333333333333332,wmoUnit:degC,9,0,16093.44,wmoUnit:m,,,,,,
Carson,35.40346802,-101.3542037,15.555555555555555,wmoUnit:degC,87,27,,,,,,,,
Medina,29.35520493,-99.11008331,28.333333333333332,wmoUnit:degC,73,0,16093.44,wmoUnit:m,,,,,,
Wichita,33.98421585,-98.70153389,28.88888888888889,wmoUnit:degC,65,55,,,FA,A,,,,
Chambers,29.73912276,-94.60891308,27.22222222222222,wmoUnit:degC,85,1,15369.235506958066,wmoUnit:m,SV,A,Flood Warning,Severe,Immediate,2025-06-10T05:00:00-05:00
Donley,34.96540246,-100.8140501,17.77777777777778,wmoUnit:degC,87,26,,,,,,,,
Hopkins,33.14933822,-95.56414173,25.0,wmoUnit:degC,76,89,9656.064,wmoUnit:m,SV,A,,,,
Lampasas,31.19627791,-98.24142711,28.88888888888889,wmoUnit:degC,70,13,16093.44,wmoUnit:m,SV,A,,,,
Falls,31.25317017,-96.93579511,28.88888888888889,wmoUnit:degC,72,10,16093.44,wmoUnit:m,SV,A,,,,
Stephens,32.73584155,-98.83612016,23.88888888888889,wmoUnit:degC,74,98,7885.785753478953,wmoUnit:m,SV,A,,,,
Travis,30.33423319,-97.78194654,27.77777777777778,wmoUnit:degC,76,0,16093.44,wmoUnit:m,,,,,,
Roberts,35.8385577,-100.8135689,16.11111111111111,wmoUnit:degC,87,21,,,,,,,,
Crosby,33.61459873,-101.2998612,17.22222222222222,wmoUnit:degC,100,17,15530.168986084027,wmoUnit:m,,,,,,
Kerr,30.06153035,-99.35016969,27.77777777777778,wmoUnit:degC,69,0,16093.44,wmoUnit:m,,,,,,
Wood,32.78634374,-95.38206498,19.444444444444443,wmoUnit:degC,97,83,9559.503452087469,wmoUnit:m,,,Flood Warning,Severe,Expected,2025-06-10T08:00:00-05:00
Jack,33.23345819,-98.1725509,23.88888888888889,wmoUnit:degC,76,99,7885.785753478953,wmoUnit:m,SV,A,,,,
Marion,32.79797929,-94.35725239,19.444444444444443,wmoUnit:degC,97,80,9656.064,wmoUnit:m,,,,,,
Hale,34.07051782,-101.8269082,16.666666666666668,wmoUnit:degC,100,17,15819.85139721687,wmoUnit:m,,,,,,
Jeff Davis,30.71559322,-104.1403539,22.22222222222222,wmoUnit:degC,46,4,16093.44,wmoUnit:m,,,,,,
Tarrant,32.77185236,-97.29116473,28.333333333333332,wmoUnit:degC,63,86,9656.064,wmoUnit:m,SV,A,,,,
Waller,30.01093722,-95.98768942,25.555555555555557,wmoUnit:degC,97,3,14339.254794433578,wmoUnit:m,SV,A,,,,
Reagan,31.36617698,-101.5230108,28.333333333333332,wmoUnit:degC,51,4,16093.44,wmoUnit:m,,,,,,
Smith,32.37514553,-95.26909511,20.0,wmoUnit:degC,97,82,7917.97260278313,wmoUnit:m,,,Flood Warning,Severe,Expected,2025-06-10T08:00:00-05:00
Van Zandt,32.56368961,-95.8364862,26.11111111111111,wmoUnit:degC,82,50,16093.44,wmoUnit:m,SV,A,,,,
Cooke,33.638465,-97.21247642,23.88888888888889,wmoUnit:degC,76,100,9656.064,wmoUnit:m,SV,A,,,,
Zavala,28.86530621,-99.76102001,30.555555555555557,wmoUnit:degC,65,0,16093.44,wmoUnit:m,,,,,,
Hall,34.53074134,-100.6809876,17.77777777777778,wmoUnit:degC,100,15,14789.870684692381,wmoUnit:m,,,,,,
Kendall,29.9446397,-98.71160511,26.11111111111111,wmoUnit:degC,79,0,16093.44,wmoUnit:m,,,,,,
Goliad,28.65708563,-97.42646082,26.11111111111111,wmoUnit:degC,88,0,16093.44,wmoUnit:m,,,,,,
Yoakum,33.17293501,-102.8278792,17.77777777777778,wmoUnit:degC,93,17,15852.039013915974,wmoUnit:m,,,,,,
Knox,33.60614755,-99.74144313,29.444444444444443,wmoUnit:degC,60,68,,,FA,A,,,,
McLennan,31.55234489,-97.20184883,29.444444444444443,wmoUnit:degC,67,21,16093.44,wmoUnit:m,SV,A,,,,
Brewster,29.81205836,-103.2518906,27.22222222222222,wmoUnit:degC,49,10,16093.44,wmoUnit:m,,,,,,
Panola,32.16222886,-94.30552858,20.0,wmoUnit:degC,93,81,7885.785753478953,wmoUnit:m,,,,,,
Bandera,29.74724753,-99.24637282,27.77777777777778,wmoUnit:degC,70,0,16093.44,wmoUnit:m,,,,,,
Parmer,34.53014507,-102.784594,15.555555555555555,wmoUnit:degC,100,11,13438.023013915972,wmoUnit:m,,,,,,
Rockwall,32.89786769,-96.40780584,26.666666666666668,wmoUnit:degC,69,78,9656.064,wmoUnit:m,SV,A,Flood Warning,Severe,Immediate,2025-06-10T02:00:00-05:00
Trinity,31.0885069,-95.13551682,26.666666666666668,wmoUnit:degC,85,14,15192.20668469238,wmoUnit:m,,,Flood Warning,Severe,Immediate,2025-06-10T05:00:00-05:00
Bosque,31.90050476,-97.63437613,28.333333333333332,wmoUnit:degC,67,36,16093.44,wmoUnit:m,SV,A,,,,
Coke,31.88849293,-100.5298747,19.444444444444443,wmoUnit:degC,78,9,16093.44,wmoUnit:m,,,,,,
Franklin,33.17550691,-95.21841437,20.0,wmoUnit:degC,97,85,9656.064,wmoUnit:m,,,Flood Warning,Severe,Expected,2025-06-10T10:00:00-05:00
Hill,31.99079033,-97.1324142,28.333333333333332,wmoUnit:degC,74,32,16093.44,wmoUnit:m,SV,A,,,,
Calhoun,28.48966896,-96.64708119,28.333333333333332,wmoUnit:degC,85,0,16093.44,wmoUnit:m,,,,,,
Irion,31.30393203,-100.9824126,20.555555555555557,wmoUnit:degC,81,3,16093.44,wmoUnit:m,,,,,,
Midland,31.86921148,-102.0315032,27.22222222222222,wmoUnit:degC,51,4,16093.44,wmoUnit:m,,,,,,
Brown,31.77432313,-98.99989649,18.333333333333332,wmoUnit:degC,97,55,16093.44,wmoUnit:m,,,,,,
Wilson,29.17315896,-98.08621015,26.11111111111111,wmoUnit:degC,79,0,16093.44,wmoUnit:m,,,,,,
Oldham,35.40497586,-102.6029949,15.555555555555555,wmoUnit:degC,93,29,,,,,,,,
Freestone,31.70486443,-96.14918535,27.77777777777778,wmoUnit:degC,77,16,16093.44,wmoUnit:m,SV,A,,,,
Sabine,31.34321941,-93.85170439,20.555555555555557,wmoUnit:degC,97,71,9656.064,wmoUnit:m,,,,,,
Deaf Smith,34.96602014,-102.6048162,15.0,wmoUnit:degC,96,21,,,,,,,,
Angelina,31.25475875,-94.611742,21.666666666666668,wmoUnit:degC,87,80,9656.064,wmoUnit:m,,,Flood Warning,Severe,Immediate,2025-06-10T08:15:00-05:00
Kent,33.18284492,-100.7791031,18.88888888888889,wmoUnit:degC,100,17,15707.197808349552,wmoUnit:m,,,,,,
Red River,33.62074539,-95.0501886,20.555555555555557,wmoUnit:degC,87,83,9656.064,wmoUnit:m,,,Flood Warning,Severe,Expected,2025-06-10T10:00:00-05:00
Kinney,29.35000302,-100.4178441,31.11111111111111,wmoUnit:degC,47,4,16093.44,wmoUnit:m,,,,,,
Denton,33.205574,-97.11681154,27.77777777777778,wmoUnit:degC,61,99,9656.064,wmoUnit:m,SV,A,,,,
Sutton,30.49747152,-100.5382263,26.666666666666668,wmoUnit:degC,65,2,16093.44,wmoUnit:m,,,,,,
Guadalupe,29.58257236,-97.94850308,26.11111111111111,wmoUnit:degC,83,0,16093.44,wmoUnit:m,,,,,,
Winkler,31.85008609,-103.0484794,26.666666666666668,wmoUnit:degC,51,0,16093.44,wmoUnit:m,,,,,,
Dimmit,28.42161168,-99.760574,31.666666666666668,wmoUnit:degC,57,0,16093.44,wmoUnit:m,,,,,,
Wise,33.21585061,-97.65444124,26.11111111111111,wmoUnit:degC,60,99,9656.064,wmoUnit:m,SV,A,,,,
Hemphill,35.83750155,-100.2704628,16.666666666666668,wmoUnit:degC,84,14,,,,,,,,
Potter,35.40128927,-101.8940484,16.11111111111111,wmoUnit:degC,84,26,,,,,,,,
Childress,34.52929257,-100.2075664,19.444444444444443,wmoUnit:degC,93,15,14966.899506958067,wmoUnit:m,,,,,,
Willacy,26.47132899,-97.64303323,26.666666666666668,wmoUnit:degC,90,0,,,,,,,,
Bastrop,30.10353518,-97.31187705,26.11111111111111,wmoUnit:degC,87,0,16093.44,wmoUnit:m,,,,,,
Kimble,30.48676251,-99.74892716,27.22222222222222,wmoUnit:degC,69,3,16093.44,wmoUnit:m,,,,,,
Scurry,32.74720063,-100.9165071,23.88888888888889,wmoUnit:degC,71,18,16093.44,wmoUnit:m,,,,,,
Ochiltree,36.27846334,-100.815653,15.0,wmoUnit:degC,83,17,,,,,,,,
Hansford,36.27753179,-101.3545624,15.0,wmoUnit:degC,87,23,,,,,,,,
Hartley,35.83996755,-102.6028835,15.0,wmoUnit:degC,83,26,,,,,,,,
Cameron,26.13847728,-97.51499968,28.333333333333332,wmoUnit:degC,84,0,,,,,,,,
Matagorda,28.86711039,-95.98533866,27.77777777777778,wmoUnit:degC,91,0,14854.244383300736,wmoUnit:m,,,Rip Current Statement,Moderate,Expected,2025-06-09T18:00:00-05:00
Burnet,30.78843382,-98.18252382,27.22222222222222,wmoUnit:degC,77,1,16093.44,wmoUnit:m,,,,,,
Rains,32.87004212,-95.79347545,25.0,wmoUnit:degC,76,73,9656.064,wmoUnit:m,SV,A,,,,
Hays,30.05782657,-98.03104087,26.11111111111111,wmoUnit:degC,82,0,16093.44,wmoUnit:m,,,,,,
Mason,30.71742293,-99.2263026,24.444444444444443,wmoUnit:degC,82,7,16093.44,wmoUnit:m,,,,,,
Ward,31.509424,-103.1024636,28.333333333333332,wmoUnit:degC,46,0,16093.44,wmoUnit:m,,,,,,
Delta,33.38623601,-95.67221685,25.0,wmoUnit:degC,76,97,9656.064,wmoUnit:m,SV,A,,,,
Nueces,27.72621549,-97.61767326,27.77777777777778,wmoUnit:degC,85,0,16093.44,wmoUnit:m,,,,,,
Callahan,32.2977738,-99.37359692,18.88888888888889,wmoUnit:degC,90,57,16093.44,wmoUnit:m,,,,,,
Bell,31.03778267,-97.47790776,28.88888888888889,wmoUnit:degC,70,7,16093.44,wmoUnit:m,SV,A,,,,
Cherokee,31.83695632,-95.16515234,19.444444444444443,wmoUnit:degC,100,82,9656.064,wmoUnit:m,,,Flood Warning,Severe,Immediate,2025-06-10T08:15:00-05:00
Ellis,32.34839264,-96.79467417,28.333333333333332,wmoUnit:degC,77,41,16093.44,wmoUnit:m,SV,A,,,,
Lubbock,33.6101944,-101.8205745,17.77777777777778,wmoUnit:degC,97,18,16029.066301391646,wmoUnit:m,,,,,,
Terrell,30.22502597,-102.0764533,29.444444444444443,wmoUnit:degC,48,3,16093.44,wmoUnit:m,,,,,,
Crockett,30.72291931,-101.4118364,26.666666666666668,wmoUnit:degC,51,4,16093.44,wmoUnit:m,,,,,,
Atascosa,28.89418432,-98.52741302,26.666666666666668,wmoUnit:degC,73,0,16093.44,wmoUnit:m,,,,,,
Ector,31.86908156,-102.5430907,27.22222222222222,wmoUnit:degC,49,2,16093.44,wmoUnit:m,,,,,,
Brazos,30.6610425,-96.3022943,25.555555555555557,wmoUnit:degC,88,10,15433.609205566421,wmoUnit:m,SV,A,,,,
Aransas,28.12709562,-96.99258951,28.333333333333332,wmoUnit:degC,85,0,16093.44,wmoUnit:m,,,,,,
Dallas,32.76653746,-96.77781862,29.444444444444443,wmoUnit:degC,67,73,9656.064,wmoUnit:m,SV,A,Flood Warning,Severe,Immediate,2025-06-10T03:00:00-05:00
Howard,32.30610232,-101.4355097,25.0,wmoUnit:degC,64,5,16093.44,wmoUnit:m,,,,,,
Motley,34.07409017,-100.7798961,17.77777777777778,wmoUnit:degC,100,16,14886.432,wmoUnit:m,,,,,,
San Augustine,31.39427005,-94.16809762,20.555555555555557,wmoUnit:degC,90,78,9656.064,wmoUnit:m,,,,,,
Maverick,28.74260943,-100.3144638,33.333333333333336,wmoUnit:degC,45,1,16093.44,wmoUnit:m,,,,,,
Erath,32.23640361,-98.21722756,23.333333333333332,wmoUnit:degC,84,70,9656.064,wmoUnit:m,SV,A,,,,
Dickens,33.61663428,-100.7788138,17.77777777777778,wmoUnit:degC,100,17,15562.35660278313,wmoUnit:m,,,,,,
Caldwell,29.83677935,-97.61983479,26.666666666666668,wmoUnit:degC,84,0,16093.44,wmoUnit:m,,,,,,
Dawson,32.74258137,-101.9476136,24.444444444444443,wmoUnit:degC,66,11,16093.44,wmoUnit:m,,,,,,
Camp,32.97321771,-94.97860185,19.444444444444443,wmoUnit:degC,97,83,7885.785753478953,wmoUnit:m,,,,,,
Duval,27.68133382,-98.50889672,27.22222222222222,wmoUnit:degC,79,0,16093.44,wmoUnit:m,,,,,,
Hunt,33.123531,-96.08550014,25.555555555555557,wmoUnit:degC,71,89,9656.064,wmoUnit:m,SV,A,Flood Warning,Severe,Immediate,2025-06-10T02:00:00-05:00
Mills,31.49524259,-98.59552736,27.77777777777778,wmoUnit:degC,69,26,16093.44,wmoUnit:m,SV,A,,,,
Val Verde,29.89300587,-101.15171,31.11111111111111,wmoUnit:degC,43,9,16093.44,wmoUnit:m,,,,,,
Pecos,30.78100044,-102.7235743,26.666666666666668,wmoUnit:degC,54,3,16093.44,wmoUnit:m,,,,,,
Baylor,33.61648147,-99.21351964,28.88888888888889,wmoUnit:degC,48,46,,,FA,A,,,,
Gregg,32.48036452,-94.81723694,20.0,wmoUnit:degC,93,82,7885.785753478953,wmoUnit:m,,,Flood Warning,Severe,Expected,2025-06-09T19:00:00-05:00
Cochran,33.60410808,-102.8285264,16.666666666666668,wmoUnit:degC,97,20,15755.477698608354,wmoUnit:m,,,,,,
Jasper,30.74391255,-94.02495849,26.11111111111111,wmoUnit:degC,91,1,16093.44,wmoUnit:m,,,,,,
Hamilton,31.70479181,-98.11066654,28.88888888888889,wmoUnit:degC,67,32,16093.44,wmoUnit:m,SV,A,,,,
Castro,34.53000304,-102.2617608,15.555555555555555,wmoUnit:degC,100,13,15015.179397216869,wmoUnit:m,,,,,,
Sterling,31.82786516,-101.0500699,20.555555555555557,wmoUnit:degC,73,4,16093.44,wmoUnit:m,,,,,,
Starr,26.56212627,-98.73834895,25.555555555555557,wmoUnit:degC,88,0,,,,,,,,
Crane,31.42846287,-102.5156425,27.77777777777778,wmoUnit:degC,53,1,16093.44,wmoUnit:m,,,,,,
Morris,33.11368507,-94.73205137,20.0,wmoUnit:degC,100,83,9656.064,wmoUnit:m,,,Flood Warning,Severe,Expected,2025-06-10T10:00:00-05:00
Briscoe,34.53041048,-101.2085769,16.11111111111111,wmoUnit:degC,100,14,15256.580383300736,wmoUnit:m,,,,,,
Tom Green,31.4044442,-100.4620678,20.0,wmoUnit:degC,78,6,16093.44,wmoUnit:m,,,,,,
Menard,30.88981785,-99.82061472,22.22222222222222,wmoUnit:degC,79,5,16093.44,wmoUnit:m,,,,,,
Parker,32.77852261,-97.80472194,24.444444444444443,wmoUnit:degC,76,95,9656.064,wmoUnit:m,SV,A,,,,
Walker,30.73899492,-95.57224172,25.555555555555557,wmoUnit:degC,85,10,15852.039013915974,wmoUnit:m,,,Flood Warning,Severe,Immediate,2025-06-10T05:00:00-05:00
Brooks,27.0315669,-98.21874127,26.11111111111111,wmoUnit:degC,90,0,,,,,,,,
La Salle,28.34621032,-99.1034773,30.555555555555557,wmoUnit:degC,63,0,16093.44,wmoUnit:m,,,,,,
Edwards,29.98248216,-100.3048937,28.88888888888889,wmoUnit:degC,52,3,16093.44,wmoUnit:m,,,,,,
Lee,30.31065065,-96.96568735,26.666666666666668,wmoUnit:degC,81,0,16093.44,wmoUnit:m,SV,A,,,,
Robertson,31.02705415,-96.51272568,28.333333333333332,wmoUnit:degC,72,3,16093.44,wmoUnit:m,SV,A,,,,
Young,33.17670764,-98.68781396,22.22222222222222,wmoUnit:degC,93,100,7885.785753478953,wmoUnit:m,SV,A,,,,
Bee,28.41736675,-97.74116811,26.666666666666668,wmoUnit:degC,85,0,16093.44,wmoUnit:m,,,,,,
Clay,33.78379717,-98.208958,28.88888888888889,wmoUnit:degC,79,59,,,FA,A,,,,
San Jacinto,30.57948905,-95.16683273,23.88888888888889,wmoUnit:degC,90,6,15127.832986084028,wmoUnit:m,,,Flood Warning,Severe,Immediate,2025-06-10T05:00:00-05:00
Uvalde,29.35669829,-99.76203107,30.0,wmoUnit:degC,63,1,16093.44,wmoUnit:m,,,,,,
Haskell,33.17824805,-99.73029401,20.0,wmoUnit:degC,90,60,13824.265205566422,wmoUnit:m,FA,A,,,,
Somervell,32.22229511,-97.77456553,26.11111111111111,wmoUnit:degC,77,57,9656.064,wmoUnit:m,SV,A,,,,
Bexar,29.44884523,-98.51966309,27.77777777777778,wmoUnit:degC,76,0,16093.44,wmoUnit:m,,,,,,
Grayson,33.62684371,-96.67764864,25.555555555555557,wmoUnit:degC,74,99,9543.409643737756,wmoUnit:m,SV,A,,,,
Bailey,34.0684915,-102.8299069,16.666666666666668,wmoUnit:degC,93,18,14661.123287475511,wmoUnit:m,,,,,,
Jones,32.73970429,-99.87850599,20.0,wmoUnit:degC,90,55,16093.44,wmoUnit:m,,,,,,
Jefferson,29.88425832,-94.1708778,26.11111111111111,wmoUnit:degC,91,0,16093.44,wmoUnit:m,SV,A,,,,
Rusk,32.10803224,-94.76169577,20.555555555555557,wmoUnit:degC,90,82,9656.064,wmoUnit:m,,,Flood Warning,Severe,Expected,2025-06-09T19:00:00-05:00
Glasscock,31.8694238,-101.520742,26.666666666666668,wmoUnit:degC,58,5,16093.44,wmoUnit:m,,,,,,
Gillespie,30.31800246,-98.94627245,25.555555555555557,wmoUnit:degC,76,0,16093.44,wmoUnit:m,,,,,,
Fisher,32.74305155,-100.4019503,20.0,wmoUnit:degC,87,53,16093.44,wmoUnit:m,,,,,,
Henderson,32.21188078,-95.85356847,26.666666666666668,wmoUnit:degC,79,31,16093.44,wmoUnit:m,SV,A,Flood Warning,Severe,Expected,2025-06-10T03:00:00-05:00
Shackelford,32.7360276,-99.35403034,20.0,wmoUnit:degC,93,62,16093.44,wmoUnit:m,,,,,,
Palo Pinto,32.75316856,-98.31299522,22.77777777777778,wmoUnit:degC,84,98,9656.064,wmoUnit:m,SV,A,,,,
Wilbarger,34.08044953,-99.24089568,26.666666666666668,wmoUnit:degC,74,63,,,FA,A,,,,
Floyd,34.07239775,-101.3033037,16.666666666666668,wmoUnit:degC,100,17,15530.168986084027,wmoUnit:m,,,,,,
Orange,30.12807126,-93.89653794,27.22222222222222,wmoUnit:degC,85,0,16093.44,wmoUnit:m,,,,,,
Runnels,31.83105393,-99.97624799,18.88888888888889,wmoUnit:degC,87,20,16093.44,wmoUnit:m,,,,,,
Coleman,31.77329421,-99.45362579,18.333333333333332,wmoUnit:degC,97,34,16093.44,wmoUnit:m,,,,,,
Martin,32.30605847,-101.9512464,25.555555555555557,wmoUnit:degC,58,8,16093.44,wmoUnit:m,,,,,,
Wheeler,35.40129002,-100.2697634,17.22222222222222,wmoUnit:degC,87,16,,,,,,,,
Culberson,31.44709817,-104.5177421,27.77777777777778,wmoUnit:degC,16,1,16093.44,wmoUnit:m,,,,,,
Mitchell,32.30636024,-100.9211128,26.11111111111111,wmoUnit:degC,62,5,16093.44,wmoUnit:m,,,,,,
Hudspeth,31.45613738,-105.3869428,26.666666666666668,wmoUnit:degC,12,0,16093.44,wmoUnit:m,,,,,,
Upshur,32.7362827,-94.94132011,19.444444444444443,wmoUnit:degC,97,82,9656.064,wmoUnit:m,,,,,,
Liberty,30.15153187,-94.8120925,25.0,wmoUnit:degC,90,2,14757.68460278313,wmoUnit:m,SV,A,Flood Warning,Severe,Immediate,2025-06-10T05:00:00-05:00
Williamson,30.64834941,-97.60105467,27.77777777777778,wmoUnit:degC,74,0,16093.44,wmoUnit:m,,,,,,
Nacogdoches,31.61604108,-94.6158776,20.555555555555557,wmoUnit:degC,97,82,9656.064,wmoUnit:m,,,Flood Warning,Severe,Immediate,2025-06-10T08:15:00-05:00
Loving,31.84912973,-103.5799063,29.444444444444443,wmoUnit:degC,43,0,16093.44,wmoUnit:m,,,,,,
Jim Wells,27.73131099,-98.0898649,27.22222222222222,wmoUnit:degC,85,0,16093.44,wmoUnit:m,,,,,,
Upton,31.36853957,-102.0430005,28.333333333333332,wmoUnit:degC,49,3,16093.44,wmoUnit:m,,,,,,
Newton,30.78619977,-93.74462993,25.555555555555557,wmoUnit:degC,91,2,16093.44,wmoUnit:m,,,,,,
Lamar,33.66746186,-95.57110784,25.555555555555557,wmoUnit:degC,69,98,9656.064,wmoUnit:m,SV,A,,,,
Polk,30.79250963,-94.82994949,25.555555555555557,wmoUnit:degC,85,7,14870.338191650448,wmoUnit:m,,,Flood Warning,Severe,Immediate,2025-06-10T05:00:00-05:00
Collin,33.18789055,-96.57248871,26.11111111111111,wmoUnit:degC,72,97,9656.064,wmoUnit:m,SV,A,Flood Warning,Severe,Expected,2025-06-10T03:00:00-05:00
Hardeman,34.28865227,-99.7453851,23.88888888888889,wmoUnit:degC,77,91,,,FA,A,,,,
McMullen,28.35351091,-98.56842256,28.333333333333332,wmoUnit:degC,74,0,16093.44,wmoUnit:m,,,,,,
Cottle,34.0776571,-100.2786983,18.88888888888889,wmoUnit:degC,100,17,14918.619616699263,wmoUnit:m,,,,,,
Frio,28.86726774,-99.10826004,27.77777777777778,wmoUnit:degC,74,0,16093.44,wmoUnit:m,,,,,,
Gray,35.40130666,-100.812475,16.666666666666668,wmoUnit:degC,87,25,,,,,,,,
Dallam,36.27777107,-102.6021647,15.555555555555555,wmoUnit:degC,87,33,,,,,,,,
Kenedy,26.92409448,-97.68137783,26.11111111111111,wmoUnit:degC,92,0,,,,,,,,
Fort Bend,29.52763253,-95.77090562,26.666666666666668,wmoUnit:degC,94,0,14693.310904174776,wmoUnit:m,SV,A,,,,
Armstrong,34.96522076,-101.3572412,16.11111111111111,wmoUnit:degC,97,28,,,,,,,,
Collingsworth,34.96498493,-100.2700733,17.77777777777778,wmoUnit:degC,84,22,,,,,,,,
Cass,33.07750446,-94.34348771,20.0,wmoUnit:degC,100,81,9559.503452087469,wmoUnit:m,,,,,,
Sherman,36.27765824,-101.8933822,15.555555555555555,wmoUnit:degC,84,24,,,,,,,,
Terry,33.17373729,-102.335157,17.77777777777778,wmoUnit:degC,97,17,15932.504986084026,wmoUnit:m,,,,,,
Limestone,31.54541898,-96.58056718,28.333333333333332,wmoUnit:degC,67,15,16093.44,wmoUnit:m,SV,A,,,,
Real,29.83182711,-99.82215881,28.333333333333332,wmoUnit:degC,63,2,16093.44,wmoUnit:m,,,,,,
Lynn,33.17685487,-101.8160235,17.77777777777778,wmoUnit:degC,97,16,15626.730301391646,wmoUnit:m,,,,,,
Lavaca,29.38437003,-96.93020993,25.555555555555557,wmoUnit:degC,91,0,16093.44,wmoUnit:m,,,,,,
Nolan,32.3034718,-100.4060989,17.77777777777778,wmoUnit:degC,97,21,16093.44,wmoUnit:m,,,,,,
Gaines,32.74074537,-102.6351246,26.11111111111111,wmoUnit:degC,52,9,16093.44,wmoUnit:m,,,,,,
Montgomery,30.30022409,-95.50301411,26.11111111111111,wmoUnit:degC,85,4,16077.34619165045,wmoUnit:m,SV,A,,,,
Concho,31.32645211,-99.86413426,17.77777777777778,wmoUnit:degC,97,10,16093.44,wmoUnit:m,,,,,,
Hardin,30.33238431,-94.39021394,26.11111111111111,wmoUnit:degC,88,0,16077.34619165045,wmoUnit:m,,,,,,
Harris,29.85967144,-95.39782106,27.22222222222222,wmoUnit:degC,85,2,15497.982904174776,wmoUnit:m,SV,A,,,,
Leon,31.29655719,-95.99554292,27.77777777777778,wmoUnit:degC,79,5,16093.44,wmoUnit:m,SV,A,,,,
Bowie,33.44572786,-94.42324298,20.555555555555557,wmoUnit:degC,97,82,9656.064,wmoUnit:m,,,Flood Warning,Severe,Expected,2025-06-10T10:00:00-05:00
Kaufman,32.59927808,-96.28779341,27.22222222222222,wmoUnit:degC,79,53,16093.44,wmoUnit:m,SV,A,,,,
Anderson,31.81321543,-95.65251774,26.666666666666668,wmoUnit:degC,82,18,16093.44,wmoUnit:m,SV,A,Flood Warning,Severe,Immediate,2025-06-10T08:15:00-05:00
San Saba,31.15520543,-98.81754295,21.666666666666668,wmoUnit:degC,87,29,16093.44,wmoUnit:m,,,,,,
Schleicher,30.89661056,-100.538097,22.22222222222222,wmoUnit:degC,79,3,16093.44,wmoUnit:m,,,,,,
Colorado,29.6208542,-96.52630821,25.555555555555557,wmoUnit:degC,94,0,14966.899506958067,wmoUnit:m,,,,,,
Milam,30.78625299,-96.97683495,28.333333333333332,wmoUnit:degC,74,1,16093.44,wmoUnit:m,SV,A,,,,
Live Oak,28.3514375,-98.12474493,27.22222222222222,wmoUnit:degC,82,0,16093.44,wmoUnit:m,,,,,,
Borden,32.7436916,-101.4317533,23.88888888888889,wmoUnit:degC,71,12,16093.44,wmoUnit:m,,,,,,
McCulloch,31.19896752,-99.34754972,19.444444444444443,wmoUnit:degC,90,19,16093.44,wmoUnit:m,,,,,,
Johnson,32.37899918,-97.36660504,27.77777777777778,wmoUnit:degC,85,53,16093.44,wmoUnit:m,SV,A,,,,
Montague,33.67496328,-97.72466993,23.88888888888889,wmoUnit:degC,69,100,9656.064,wmoUnit:m,SV,A,,,,
Stonewall,33.17842158,-100.255259,19.444444444444443,wmoUnit:degC,100,23,15675.010191650448,wmoUnit:m,,,,,,
Comal,29.80816362,-98.27814516,25.555555555555557,wmoUnit:degC,84,0,16093.44,wmoUnit:m,,,,,,
Eastland,32.32739258,-98.8325713,25.0,wmoUnit:degC,64,86,9656.064,wmoUnit:m,SV,A,,,,
Comanche,31.9490639,-98.55841538,25.555555555555557,wmoUnit:degC,76,54,16093.44,wmoUnit:m,SV,A,,,,
King,33.61641863,-100.2558584,19.444444444444443,wmoUnit:degC,97,20,15497.982904174776,wmoUnit:m,,,,,,
Washington,30.2145299,-96.40356575,25.0,wmoUnit:degC,90,4,14950.805698608354,wmoUnit:m,SV,A,,,,
Webb,27.76102524,-99.33170164,30.0,wmoUnit:degC,59,0,16093.44,wmoUnit:m,,,,,,
Fayette,29.87683207,-96.91968047,26.11111111111111,wmoUnit:degC,89,0,16093.44,wmoUnit:m,,,,,,
Harrison,32.54814898,-94.37155736,20.0,wmoUnit:degC,97,80,7885.785753478953,wmoUnit:m,,,,,,
Presidio,29.99977786,-104.2405552,24.444444444444443,wmoUnit:degC,48,7,16093.44,wmoUnit:m,,,,,,
Austin,29.88711223,-96.27791829,25.0,wmoUnit:degC,97,2,14258.787287475512,wmoUnit:m,,,,,,
Randall,34.96594288,-101.8968527,16.11111111111111,wmoUnit:degC,97,31,,,,,,,,
Hood,32.43107878,-97.83280338,23.88888888888889,wmoUnit:degC,82,73,9656.064,wmoUnit:m,SV,A,,,,
Victoria,28.79640594,-96.97176602,26.666666666666668,wmoUnit:degC,88,0,16093.44,wmoUnit:m,,,,,,
Hutchinson,35.84000866,-101.3547257,16.11111111111111,wmoUnit:degC,84,27,,,,,,,,
Coryell,31.39087578,-97.7991883,30.0,wmoUnit:degC,68,19,16093.44,wmoUnit:m,SV,A,,,,
Jackson,28.95603133,-96.57883268,27.77777777777778,wmoUnit:degC,88,0,14902.525808349552,wmoUnit:m,,,,,,
Taylor,32.30138229,-99.89003941,18.333333333333332,wmoUnit:degC,93,49,16093.44,wmoUnit:m,,,,,,
Zapata,27.00089072,-99.16860134,25.555555555555557,wmoUnit:degC,86,0,,,,,,,,
San Patricio,28.00922186,-97.51859857,27.22222222222222,wmoUnit:degC,88,0,16093.44,wmoUnit:m,,,,,,
Grimes,30.54360689,-95.98557334,26.11111111111111,wmoUnit:degC,91,8,16093.44,wmoUnit:m,SV,A,,,,
Lamb,34.06861242,-102.3517095,16.666666666666668,wmoUnit:degC,100,18,15176.114411132843,wmoUnit:m,,,,,,
