countyName,latitude,longitude,temperature,temperature_unit,relativeHumidity,precipitationProbability,visibility,visibility_unit,hazard_phenomenon,hazard_significance,alert_event,alert_severity,alert_urgency,alert_expires
Foard,33.97408519,-99.77871109,18.88888888888889,wmoUnit:degC,95,32,,,,,,,,
Blanco,30.26636128,-98.39974086,26.666666666666668,wmoUnit:degC,70,25,16093.44,wmoUnit:m,SV,A,Severe Thunderstorm Watch,Severe,Future,2025-05-28T22:00:00-05:00
Hockley,33.60750375,-102.3430919,26.11111111111111,wmoUnit:degC,32,16,16093.44,wmoUnit:m,,,,,,
Llano,30.70566579,-98.68387398,25.555555555555557,wmoUnit:degC,78,28,16093.44,wmoUnit:m,SV,A,Severe Thunderstorm Watch,Severe,Future,2025-05-28T22:00:00-05:00
Swisher,34.53064989,-101.734951,23.333333333333332,wmoUnit:degC,55,12,16093.44,wmoUnit:m,,,,,,
Titus,33.2160906,-94.96509786,19.444444444444443,wmoUnit:degC,87,8,16093.44,wmoUnit:m,,,,,,
Navarro,32.04695429,-96.47248134,21.11111111111111,wmoUnit:degC,90,75,9656.064,wmoUnit:m,,,Flood Warning,Severe,Immediate,2025-05-29T08:30:00-05:00
Brazoria,29.19345387,-95.45578479,22.22222222222222,wmoUnit:degC,93,83,9656.064,wmoUnit:m,,,,,,
Hidalgo,26.396627,-98.18088681,27.22222222222222,wmoUnit:degC,84,32,,,,,,,,
Archer,33.61539176,-98.68783437,19.444444444444443,wmoUnit:degC,94,32,,,,,,,,
Refugio,28.32681413,-97.16546961,26.11111111111111,wmoUnit:degC,82,32,16093.44,wmoUnit:m,,,,,,
Andrews,32.30506283,-102.6378839,22.77777777777778,wmoUnit:degC,44,1,16093.44,wmoUnit:m,,,,,,
Galveston,29.39424415,-94.96474975,25.0,wmoUnit:degC,79,84,16093.44,wmoUnit:m,,,,,,
De Witt,29.08201599,-97.35666976,24.444444444444443,wmoUnit:degC,76,12,14113.947616699264,wmoUnit:m,,,,,,
Gonzales,29.45641495,-97.49279927,25.555555555555557,wmoUnit:degC,74,16,15787.665315307619,wmoUnit:m,,,,,,
Wharton,29.2778362,-96.22197375,22.22222222222222,wmoUnit:degC,90,69,9656.064,wmoUnit:m,,,,,,
Fannin,33.59396919,-96.10656755,20.0,wmoUnit:degC,87,4,16093.44,wmoUnit:m,,,,,,
Madison,30.96564645,-95.92818441,21.666666666666668,wmoUnit:degC,97,42,16093.44,wmoUnit:m,,,,,,
Moore,35.83768863,-101.8929556,16.11111111111111,wmoUnit:degC,90,4,,,SV,A,Severe Thunderstorm Watch,Severe,Future,2025-05-28T21:00:00-05:00
Tyler,30.7712607,-94.37651432,23.88888888888889,wmoUnit:degC,87,10,16077.34619165045,wmoUnit:m,,,,,,
Lipscomb,36.27778432,-100.27317,15.0,wmoUnit:degC,95,12,,,,,,,,
Burleson,30.49246139,-96.62109399,24.444444444444443,wmoUnit:degC,82,45,9656.064,wmoUnit:m,,,,,,
Jim Hogg,27.04340499,-98.6972921,27.77777777777778,wmoUnit:degC,75,21,,,,,,,,
Throckmorton,33.17753907,-99.21236832,20.0,wmoUnit:degC,93,20,16093.44,wmoUnit:m,,,,,,
Kleberg,27.43274395,-97.72889778,26.11111111111111,wmoUnit:degC,88,41,16093.44,wmoUnit:m,,,,,,
Shelby,31.79242191,-94.14495261,21.11111111111111,wmoUnit:degC,87,20,16093.44,wmoUnit:m,,,,,,
Garza,33.17991074,-101.2984496,25.0,wmoUnit:degC,54,29,16093.44,wmoUnit:m,,,,,,
Karnes,28.90493782,-97.85960621,24.444444444444443,wmoUnit:degC,74,10,15337.047890258802,wmoUnit:m,,,,,,
Reeves,31.32307061,-103.693143,25.555555555555557,wmoUnit:degC,39,0,16093.44,wmoUnit:m,,,Special Weather Statement,Moderate,Expected,2025-05-28T18:15:00-05:00
Houston,31.31764137,-95.42225367,21.11111111111111,wmoUnit:degC,97,43,16093.44,wmoUnit:m,,,,,,
El Paso,31.7686226,-106.2352229,16.666666666666668,wmoUnit:degC,62,0,16045.160109741197,wmoUnit:m,,,,,,
Carson,35.40346802,-101.3542037,15.555555555555555,wmoUnit:degC,95,3,,,,,,,,
Medina,29.35520493,-99.11008331,26.666666666666668,wmoUnit:degC,63,10,16093.44,wmoUnit:m,,,,,,
Wichita,33.98421585,-98.70153389,18.88888888888889,wmoUnit:degC,90,32,,,,,,,,
Chambers,29.73912276,-94.60891308,23.88888888888889,wmoUnit:degC,90,73,16093.44,wmoUnit:m,,,,,,
Donley,34.96540246,-100.8140501,16.11111111111111,wmoUnit:degC,98,5,,,,,,,,
Hopkins,33.14933822,-95.56414173,21.11111111111111,wmoUnit:degC,81,15,16093.44,wmoUnit:m,,,,,,
Lampasas,31.19627791,-98.24142711,22.77777777777778,wmoUnit:degC,87,19,16093.44,wmoUnit:m,SV,A,Severe Thunderstorm Watch,Severe,Future,2025-05-28T22:00:00-05:00
Falls,31.25317017,-96.93579511,21.11111111111111,wmoUnit:degC,100,43,16093.44,wmoUnit:m,SV,A,Severe Thunderstorm Watch,Severe,Future,2025-05-28T22:00:00-05:00
Stephens,32.73584155,-98.83612016,22.77777777777778,wmoUnit:degC,73,19,12697.7239451294,wmoUnit:m,SV,A,,,,
Travis,30.33423319,-97.78194654,27.77777777777778,wmoUnit:degC,71,35,16093.44,wmoUnit:m,SV,A,Severe Thunderstorm Warning,Severe,Immediate,2025-05-28T19:00:00-05:00
Roberts,35.8385577,-100.8135689,16.666666666666668,wmoUnit:degC,95,4,,,,,,,,
Crosby,33.61459873,-101.2998612,24.444444444444443,wmoUnit:degC,45,22,16093.44,wmoUnit:m,,,,,,
Kerr,30.06153035,-99.35016969,26.666666666666668,wmoUnit:degC,60,11,16093.44,wmoUnit:m,SV,A,Severe Thunderstorm Watch,Severe,Future,2025-05-28T22:00:00-05:00
Wood,32.78634374,-95.38206498,20.0,wmoUnit:degC,87,14,16093.44,wmoUnit:m,,,,,,
Jack,33.23345819,-98.1725509,21.11111111111111,wmoUnit:degC,84,18,16093.44,wmoUnit:m,,,,,,
Marion,32.79797929,-94.35725239,20.555555555555557,wmoUnit:degC,100,9,16093.44,wmoUnit:m,,,,,,
Hale,34.07051782,-101.8269082,25.555555555555557,wmoUnit:degC,36,15,16093.44,wmoUnit:m,,,,,,
Jeff Davis,30.71559322,-104.1403539,22.22222222222222,wmoUnit:degC,39,0,16093.44,wmoUnit:m,,,Special Weather Statement,Moderate,Expected,2025-05-28T18:15:00-05:00
Tarrant,32.77185236,-97.29116473,22.22222222222222,wmoUnit:degC,79,19,16093.44,wmoUnit:m,,,,,,
Waller,30.01093722,-95.98768942,22.77777777777778,wmoUnit:degC,97,65,9656.064,wmoUnit:m,,,,,,
Reagan,31.36617698,-101.5230108,23.333333333333332,wmoUnit:degC,62,1,16093.44,wmoUnit:m,,,,,,
Smith,32.37514553,-95.26909511,21.11111111111111,wmoUnit:degC,84,18,16093.44,wmoUnit:m,,,Flood Warning,Severe,Immediate,2025-05-29T08:45:00-05:00
Van Zandt,32.56368961,-95.8364862,20.555555555555557,wmoUnit:degC,84,36,16093.44,wmoUnit:m,,,,,,
Cooke,33.638465,-97.21247642,21.11111111111111,wmoUnit:degC,81,6,16093.44,wmoUnit:m,,,,,,
Zavala,28.86530621,-99.76102001,26.666666666666668,wmoUnit:degC,69,10,16093.44,wmoUnit:m,,,,,,
Hall,34.53074134,-100.6809876,23.333333333333332,wmoUnit:degC,71,10,16093.44,wmoUnit:m,,,,,,
Kendall,29.9446397,-98.71160511,26.11111111111111,wmoUnit:degC,71,14,16093.44,wmoUnit:m,SV,A,Severe Thunderstorm Watch,Severe,Future,2025-05-28T22:00:00-05:00
Goliad,28.65708563,-97.42646082,26.11111111111111,wmoUnit:degC,77,16,16093.44,wmoUnit:m,,,,,,
Yoakum,33.17293501,-102.8278792,21.666666666666668,wmoUnit:degC,51,14,16093.44,wmoUnit:m,,,,,,
Knox,33.60614755,-99.74144313,20.0,wmoUnit:degC,91,32,,,,,,,,
McLennan,31.55234489,-97.20184883,20.555555555555557,wmoUnit:degC,97,66,9656.064,wmoUnit:m,SV,A,,,,
Brewster,29.81205836,-103.2518906,24.444444444444443,wmoUnit:degC,50,0,16093.44,wmoUnit:m,,,Special Weather Statement,Moderate,Expected,2025-05-28T18:15:00-05:00
Panola,32.16222886,-94.30552858,21.666666666666668,wmoUnit:degC,90,12,16093.44,wmoUnit:m,,,,,,
Bandera,29.74724753,-99.24637282,26.11111111111111,wmoUnit:degC,64,10,16093.44,wmoUnit:m,,,,,,
Parmer,34.53014507,-102.784594,23.88888888888889,wmoUnit:degC,41,10,16093.44,wmoUnit:m,,,,,,
Rockwall,32.89786769,-96.40780584,21.11111111111111,wmoUnit:degC,78,14,16093.44,wmoUnit:m,,,,,,
Trinity,31.0885069,-95.13551682,22.22222222222222,wmoUnit:degC,87,42,16093.44,wmoUnit:m,,,Flood Warning,Severe,Immediate,2025-05-29T08:45:00-05:00
Bosque,31.90050476,-97.63437613,20.555555555555557,wmoUnit:degC,100,49,16093.44,wmoUnit:m,SV,A,,,,
Coke,31.88849293,-100.5298747,22.22222222222222,wmoUnit:degC,64,10,16093.44,wmoUnit:m,,,,,,
Franklin,33.17550691,-95.21841437,20.0,wmoUnit:degC,84,9,16093.44,wmoUnit:m,,,,,,
Hill,31.99079033,-97.1324142,21.666666666666668,wmoUnit:degC,93,74,9656.064,wmoUnit:m,SV,A,,,,
Calhoun,28.48966896,-96.64708119,26.11111111111111,wmoUnit:degC,88,46,16093.44,wmoUnit:m,,,,,,
Irion,31.30393203,-100.9824126,22.77777777777778,wmoUnit:degC,68,10,16093.44,wmoUnit:m,,,,,,
Midland,31.86921148,-102.0315032,23.88888888888889,wmoUnit:degC,50,0,16093.44,wmoUnit:m,,,,,,
Brown,31.77432313,-98.99989649,22.77777777777778,wmoUnit:degC,79,10,16093.44,wmoUnit:m,SV,A,Special Weather Statement,Moderate,Expected,2025-05-28T18:30:00-05:00
Wilson,29.17315896,-98.08621015,26.11111111111111,wmoUnit:degC,72,11,15900.318904174776,wmoUnit:m,,,,,,
Oldham,35.40497586,-102.6029949,17.22222222222222,wmoUnit:degC,87,7,,,,,,,,
Freestone,31.70486443,-96.14918535,21.666666666666668,wmoUnit:degC,90,74,9656.064,wmoUnit:m,,,,,,
Sabine,31.34321941,-93.85170439,23.88888888888889,wmoUnit:degC,84,24,16093.44,wmoUnit:m,,,,,,
Deaf Smith,34.96602014,-102.6048162,16.666666666666668,wmoUnit:degC,89,8,,,,,,,,
Angelina,31.25475875,-94.611742,22.77777777777778,wmoUnit:degC,87,31,16093.44,wmoUnit:m,,,Flood Warning,Severe,Immediate,2025-05-29T08:45:00-05:00
Kent,33.18284492,-100.7791031,24.444444444444443,wmoUnit:degC,62,32,16093.44,wmoUnit:m,,,,,,
Red River,33.62074539,-95.0501886,19.444444444444443,wmoUnit:degC,81,6,16093.44,wmoUnit:m,,,Flood Warning,Severe,Immediate,2025-05-29T09:15:00-05:00
Kinney,29.35000302,-100.4178441,27.22222222222222,wmoUnit:degC,55,10,16093.44,wmoUnit:m,,,,,,
Denton,33.205574,-97.11681154,21.11111111111111,wmoUnit:degC,78,12,16093.44,wmoUnit:m,,,Flood Warning,Severe,Immediate,2025-05-29T03:00:00-05:00
Sutton,30.49747152,-100.5382263,22.77777777777778,wmoUnit:degC,71,10,16093.44,wmoUnit:m,SV,A,Severe Thunderstorm Watch,Severe,Future,2025-05-28T22:00:00-05:00
Guadalupe,29.58257236,-97.94850308,26.11111111111111,wmoUnit:degC,76,15,16061.252383300736,wmoUnit:m,,,,,,
Winkler,31.85008609,-103.0484794,23.333333333333332,wmoUnit:degC,46,0,16093.44,wmoUnit:m,,,,,,
Dimmit,28.42161168,-99.760574,27.22222222222222,wmoUnit:degC,62,10,16093.44,wmoUnit:m,,,,,,
Wise,33.21585061,-97.65444124,21.11111111111111,wmoUnit:degC,81,17,16093.44,wmoUnit:m,,,Flood Warning,Severe,Immediate,2025-05-29T08:30:00-05:00
Hemphill,35.83750155,-100.2704628,16.11111111111111,wmoUnit:degC,93,5,,,,,,,,
Potter,35.40128927,-101.8940484,17.22222222222222,wmoUnit:degC,90,6,,,,,,,,
Childress,34.52929257,-100.2075664,25.555555555555557,wmoUnit:degC,64,11,16093.44,wmoUnit:m,,,,,,
Willacy,26.47132899,-97.64303323,26.666666666666668,wmoUnit:degC,92,36,,,,,,,,
Bastrop,30.10353518,-97.31187705,25.0,wmoUnit:degC,87,32,16093.44,wmoUnit:m,,,,,,
Kimble,30.48676251,-99.74892716,23.88888888888889,wmoUnit:degC,76,10,16093.44,wmoUnit:m,SV,A,Severe Thunderstorm Watch,Severe,Future,2025-05-28T22:00:00-05:00
Scurry,32.74720063,-100.9165071,23.88888888888889,wmoUnit:degC,60,29,16093.44,wmoUnit:m,,,,,,
Ochiltree,36.27846334,-100.815653,15.555555555555555,wmoUnit:degC,96,8,,,,,,,,
Hansford,36.27753179,-101.3545624,16.11111111111111,wmoUnit:degC,94,5,,,,,,,,
Hartley,35.83996755,-102.6028835,15.555555555555555,wmoUnit:degC,88,5,,,SV,A,Severe Thunderstorm Watch,Severe,Future,2025-05-28T21:00:00-05:00
Cameron,26.13847728,-97.51499968,26.666666666666668,wmoUnit:degC,86,29,,,,,,,,
Matagorda,28.86711039,-95.98533866,21.666666666666668,wmoUnit:degC,90,88,9495.129753478954,wmoUnit:m,,,,,,
Burnet,30.78843382,-98.18252382,25.0,wmoUnit:degC,83,32,16012.972493041932,wmoUnit:m,SV,A,Severe Thunderstorm Watch,Severe,Future,2025-05-28T22:00:00-05:00
Rains,32.87004212,-95.79347545,21.11111111111111,wmoUnit:degC,81,18,16093.44,wmoUnit:m,,,,,,
Hays,30.05782657,-98.03104087,24.444444444444443,wmoUnit:degC,81,25,16093.44,wmoUnit:m,SV,A,Severe Thunderstorm Watch,Severe,Future,2025-05-28T22:00:00-05:00
Mason,30.71742293,-99.2263026,23.88888888888889,wmoUnit:degC,76,10,16093.44,wmoUnit:m,SV,A,Severe Thunderstorm Watch,Severe,Future,2025-05-28T22:00:00-05:00
Ward,31.509424,-103.1024636,25.0,wmoUnit:degC,40,0,16093.44,wmoUnit:m,,,,,,
Delta,33.38623601,-95.67221685,20.555555555555557,wmoUnit:degC,84,5,16093.44,wmoUnit:m,,,,,,
Nueces,27.72621549,-97.61767326,26.11111111111111,wmoUnit:degC,85,37,16093.44,wmoUnit:m,,,,,,
Callahan,32.2977738,-99.37359692,22.22222222222222,wmoUnit:degC,73,20,16093.44,wmoUnit:m,SV,A,Special Weather Statement,Moderate,Expected,2025-05-28T18:30:00-05:00
Bell,31.03778267,-97.47790776,22.77777777777778,wmoUnit:degC,93,26,12697.7239451294,wmoUnit:m,SV,A,Severe Thunderstorm Watch,Severe,Future,2025-05-28T22:00:00-05:00
Cherokee,31.83695632,-95.16515234,20.555555555555557,wmoUnit:degC,100,37,16093.44,wmoUnit:m,,,Flood Warning,Severe,Immediate,2025-05-29T08:45:00-05:00
Ellis,32.34839264,-96.79467417,21.666666666666668,wmoUnit:degC,87,52,16093.44,wmoUnit:m,,,,,,
Lubbock,33.6101944,-101.8205745,26.11111111111111,wmoUnit:degC,36,19,16093.44,wmoUnit:m,,,,,,
Terrell,30.22502597,-102.0764533,26.666666666666668,wmoUnit:degC,49,0,16093.44,wmoUnit:m,,,,,,
Crockett,30.72291931,-101.4118364,23.333333333333332,wmoUnit:degC,62,10,16093.44,wmoUnit:m,,,,,,
Atascosa,28.89418432,-98.52741302,24.444444444444443,wmoUnit:degC,77,10,16061.252383300736,wmoUnit:m,,,,,,
Ector,31.86908156,-102.5430907,23.333333333333332,wmoUnit:degC,48,0,16093.44,wmoUnit:m,,,,,,
Brazos,30.6610425,-96.3022943,23.333333333333332,wmoUnit:degC,93,46,16093.44,wmoUnit:m,,,,,,
Aransas,28.12709562,-96.99258951,25.555555555555557,wmoUnit:degC,91,38,16093.44,wmoUnit:m,,,,,,
Dallas,32.76653746,-96.77781862,22.77777777777778,wmoUnit:degC,71,20,16093.44,wmoUnit:m,,,,,,
Howard,32.30610232,-101.4355097,22.77777777777778,wmoUnit:degC,51,14,16093.44,wmoUnit:m,,,,,,
Motley,34.07409017,-100.7798961,23.333333333333332,wmoUnit:degC,69,15,16093.44,wmoUnit:m,,,,,,
San Augustine,31.39427005,-94.16809762,23.333333333333332,wmoUnit:degC,84,26,16093.44,wmoUnit:m,,,,,,
Maverick,28.74260943,-100.3144638,27.77777777777778,wmoUnit:degC,60,10,16093.44,wmoUnit:m,,,,,,
Erath,32.23640361,-98.21722756,21.11111111111111,wmoUnit:degC,81,26,16093.44,wmoUnit:m,SV,A,,,,
Dickens,33.61663428,-100.7788138,22.77777777777778,wmoUnit:degC,66,24,16093.44,wmoUnit:m,,,,,,
Caldwell,29.83677935,-97.61983479,26.11111111111111,wmoUnit:degC,75,23,16077.34619165045,wmoUnit:m,,,,,,
Dawson,32.74258137,-101.9476136,23.88888888888889,wmoUnit:degC,52,2,16093.44,wmoUnit:m,,,,,,
Camp,32.97321771,-94.97860185,20.555555555555557,wmoUnit:degC,81,10,16093.44,wmoUnit:m,,,,,,
Duval,27.68133382,-98.50889672,26.666666666666668,wmoUnit:degC,77,14,16093.44,wmoUnit:m,,,,,,
Hunt,33.123531,-96.08550014,20.555555555555557,wmoUnit:degC,84,13,16093.44,wmoUnit:m,,,,,,
Mills,31.49524259,-98.59552736,23.88888888888889,wmoUnit:degC,79,19,16093.44,wmoUnit:m,SV,A,Severe Thunderstorm Watch,Severe,Future,2025-05-28T22:00:00-05:00
Val Verde,29.89300587,-101.15171,26.666666666666668,wmoUnit:degC,54,10,16093.44,wmoUnit:m,,,,,,
Pecos,30.78100044,-102.7235743,25.0,wmoUnit:degC,48,0,16093.44,wmoUnit:m,,,,,,
Baylor,33.61648147,-99.21351964,19.444444444444443,wmoUnit:degC,92,32,,,,,,,,
Gregg,32.48036452,-94.81723694,21.666666666666668,wmoUnit:degC,84,13,16093.44,wmoUnit:m,,,Flood Warning,Severe,Immediate,2025-05-29T08:45:00-05:00
Cochran,33.60410808,-102.8285264,25.0,wmoUnit:degC,39,13,16093.44,wmoUnit:m,,,,,,
Jasper,30.74391255,-94.02495849,24.444444444444443,wmoUnit:degC,90,10,16093.44,wmoUnit:m,,,,,,
Hamilton,31.70479181,-98.11066654,22.22222222222222,wmoUnit:degC,93,30,16093.44,wmoUnit:m,SV,A,Severe Thunderstorm Watch,Severe,Future,2025-05-28T22:00:00-05:00
Castro,34.53000304,-102.2617608,24.444444444444443,wmoUnit:degC,42,11,16093.44,wmoUnit:m,,,,,,
Sterling,31.82786516,-101.0500699,21.666666666666668,wmoUnit:degC,66,10,16093.44,wmoUnit:m,,,,,,
Starr,26.56212627,-98.73834895,27.22222222222222,wmoUnit:degC,83,27,,,,,,,,
Crane,31.42846287,-102.5156425,25.555555555555557,wmoUnit:degC,45,0,16093.44,wmoUnit:m,,,,,,
Morris,33.11368507,-94.73205137,20.0,wmoUnit:degC,87,9,16093.44,wmoUnit:m,,,,,,
Briscoe,34.53041048,-101.2085769,20.555555555555557,wmoUnit:degC,73,11,16093.44,wmoUnit:m,,,,,,
Tom Green,31.4044442,-100.4620678,22.77777777777778,wmoUnit:degC,68,10,16093.44,wmoUnit:m,SV,A,Severe Thunderstorm Watch,Severe,Future,2025-05-28T22:00:00-05:00
Menard,30.88981785,-99.82061472,23.333333333333332,wmoUnit:degC,74,10,16093.44,wmoUnit:m,SV,A,Severe Thunderstorm Watch,Severe,Future,2025-05-28T22:00:00-05:00
Parker,32.77852261,-97.80472194,20.555555555555557,wmoUnit:degC,87,19,16093.44,wmoUnit:m,,,,,,
Walker,30.73899492,-95.57224172,22.77777777777778,wmoUnit:degC,93,60,16093.44,wmoUnit:m,,,,,,
Brooks,27.0315669,-98.21874127,27.22222222222222,wmoUnit:degC,80,40,,,,,Hydrologic Outlook,Unknown,Future,2025-05-29T04:00:00-05:00
La Salle,28.34621032,-99.1034773,26.666666666666668,wmoUnit:degC,79,11,16093.44,wmoUnit:m,,,,,,
Edwards,29.98248216,-100.3048937,26.666666666666668,wmoUnit:degC,48,10,16093.44,wmoUnit:m,,,,,,
Lee,30.31065065,-96.96568735,22.77777777777778,wmoUnit:degC,90,34,16029.066301391646,wmoUnit:m,,,,,,
Robertson,31.02705415,-96.51272568,21.666666666666668,wmoUnit:degC,97,38,12697.7239451294,wmoUnit:m,,,Flood Warning,Severe,Immediate,2025-05-29T08:30:00-05:00
Young,33.17670764,-98.68781396,21.666666666666668,wmoUnit:degC,84,19,16093.44,wmoUnit:m,,,,,,
Bee,28.41736675,-97.74116811,26.11111111111111,wmoUnit:degC,77,15,16093.44,wmoUnit:m,,,,,,
Clay,33.78379717,-98.208958,18.333333333333332,wmoUnit:degC,95,25,,,,,,,,
San Jacinto,30.57948905,-95.16683273,22.22222222222222,wmoUnit:degC,97,50,16093.44,wmoUnit:m,,,,,,
Uvalde,29.35669829,-99.76203107,27.22222222222222,wmoUnit:degC,58,10,16093.44,wmoUnit:m,,,,,,
Haskell,33.17824805,-99.73029401,22.22222222222222,wmoUnit:degC,79,20,16093.44,wmoUnit:m,,,,,,
Somervell,32.22229511,-97.77456553,21.11111111111111,wmoUnit:degC,87,31,16093.44,wmoUnit:m,,,,,,
Bexar,29.44884523,-98.51966309,26.666666666666668,wmoUnit:degC,73,11,16093.44,wmoUnit:m,,,,,,
Grayson,33.62684371,-96.67764864,19.444444444444443,wmoUnit:degC,87,5,16093.44,wmoUnit:m,,,,,,
Bailey,34.0684915,-102.8299069,24.444444444444443,wmoUnit:degC,39,12,16093.44,wmoUnit:m,,,,,,
Jones,32.73970429,-99.87850599,23.333333333333332,wmoUnit:degC,69,20,16093.44,wmoUnit:m,,,,,,
Jefferson,29.88425832,-94.1708778,25.0,wmoUnit:degC,88,19,16077.34619165045,wmoUnit:m,,,,,,
Rusk,32.10803224,-94.76169577,22.22222222222222,wmoUnit:degC,90,15,16093.44,wmoUnit:m,,,Flood Warning,Severe,Immediate,2025-05-29T08:45:00-05:00
Glasscock,31.8694238,-101.520742,22.77777777777778,wmoUnit:degC,62,5,16093.44,wmoUnit:m,,,,,,
Gillespie,30.31800246,-98.94627245,26.11111111111111,wmoUnit:degC,63,17,16093.44,wmoUnit:m,SV,A,Severe Thunderstorm Watch,Severe,Future,2025-05-28T22:00:00-05:00
Fisher,32.74305155,-100.4019503,23.333333333333332,wmoUnit:degC,66,20,16093.44,wmoUnit:m,,,,,,
Henderson,32.21188078,-95.85356847,21.666666666666668,wmoUnit:degC,84,71,9656.064,wmoUnit:m,,,Flood Warning,Severe,Immediate,2025-05-29T08:30:00-05:00
Shackelford,32.7360276,-99.35403034,22.77777777777778,wmoUnit:degC,76,20,16093.44,wmoUnit:m,,,,,,
Palo Pinto,32.75316856,-98.31299522,21.666666666666668,wmoUnit:degC,79,20,16093.44,wmoUnit:m,SV,A,,,,
Wilbarger,34.08044953,-99.24089568,18.333333333333332,wmoUnit:degC,96,32,,,,,,,,
Floyd,34.07239775,-101.3033037,24.444444444444443,wmoUnit:degC,48,16,16093.44,wmoUnit:m,,,,,,
Orange,30.12807126,-93.89653794,25.555555555555557,wmoUnit:degC,85,15,16093.44,wmoUnit:m,,,Flood Warning,Severe,Immediate,2025-05-29T11:15:00-05:00
Runnels,31.83105393,-99.97624799,22.77777777777778,wmoUnit:degC,71,10,16093.44,wmoUnit:m,SV,A,Severe Thunderstorm Watch,Severe,Future,2025-05-28T22:00:00-05:00
Coleman,31.77329421,-99.45362579,21.666666666666668,wmoUnit:degC,81,10,16093.44,wmoUnit:m,SV,A,Special Weather Statement,Moderate,Expected,2025-05-28T18:30:00-05:00
Martin,32.30605847,-101.9512464,22.77777777777778,wmoUnit:degC,55,2,16093.44,wmoUnit:m,,,,,,
Wheeler,35.40129002,-100.2697634,16.666666666666668,wmoUnit:degC,91,3,,,,,,,,
Culberson,31.44709817,-104.5177421,23.88888888888889,wmoUnit:degC,29,0,16093.44,wmoUnit:m,,,Special Weather Statement,Moderate,Expected,2025-05-28T18:15:00-05:00
Mitchell,32.30636024,-100.9211128,25.0,wmoUnit:degC,54,35,16093.44,wmoUnit:m,,,,,,
Hudspeth,31.45613738,-105.3869428,12.777777777777779,wmoUnit:degC,86,0,16093.44,wmoUnit:m,,,,,,
Upshur,32.7362827,-94.94132011,21.11111111111111,wmoUnit:degC,81,12,16093.44,wmoUnit:m,,,,,,
Liberty,30.15153187,-94.8120925,22.77777777777778,wmoUnit:degC,90,61,16093.44,wmoUnit:m,,,,,,
Williamson,30.64834941,-97.60105467,27.22222222222222,wmoUnit:degC,79,35,16045.160109741197,wmoUnit:m,SV,A,Severe Thunderstorm Warning,Severe,Immediate,2025-05-28T19:00:00-05:00
Nacogdoches,31.61604108,-94.6158776,22.77777777777778,wmoUnit:degC,81,25,16093.44,wmoUnit:m,,,Flood Warning,Severe,Immediate,2025-05-29T08:45:00-05:00
Loving,31.84912973,-103.5799063,22.77777777777778,wmoUnit:degC,49,0,16093.44,wmoUnit:m,,,,,,
Jim Wells,27.73131099,-98.0898649,26.11111111111111,wmoUnit:degC,85,27,16093.44,wmoUnit:m,,,,,,
Upton,31.36853957,-102.0430005,23.333333333333332,wmoUnit:degC,62,0,16093.44,wmoUnit:m,,,,,,
Newton,30.78619977,-93.74462993,24.444444444444443,wmoUnit:degC,90,8,16093.44,wmoUnit:m,,,Flood Warning,Severe,Immediate,2025-05-29T11:15:00-05:00
Lamar,33.66746186,-95.57110784,20.0,wmoUnit:degC,81,3,16093.44,wmoUnit:m,,,,,,
Polk,30.79250963,-94.82994949,22.77777777777778,wmoUnit:degC,84,35,16093.44,wmoUnit:m,,,Flood Warning,Severe,Immediate,2025-05-29T08:45:00-05:00
Collin,33.18789055,-96.57248871,21.666666666666668,wmoUnit:degC,73,10,16093.44,wmoUnit:m,,,,,,
Hardeman,34.28865227,-99.7453851,17.77777777777778,wmoUnit:degC,97,32,,,,,,,,
McMullen,28.35351091,-98.56842256,27.22222222222222,wmoUnit:degC,74,12,16093.44,wmoUnit:m,,,,,,
Cottle,34.0776571,-100.2786983,25.0,wmoUnit:degC,69,16,16093.44,wmoUnit:m,,,,,,
Frio,28.86726774,-99.10826004,27.22222222222222,wmoUnit:degC,71,10,16093.44,wmoUnit:m,,,,,,
Gray,35.40130666,-100.812475,16.11111111111111,wmoUnit:degC,97,3,,,,,,,,
Dallam,36.27777107,-102.6021647,15.0,wmoUnit:degC,92,2,,,SV,A,Severe Thunderstorm Watch,Severe,Future,2025-05-28T21:00:00-05:00
Kenedy,26.92409448,-97.68137783,26.666666666666668,wmoUnit:degC,90,49,,,,,,,,
Fort Bend,29.52763253,-95.77090562,21.666666666666668,wmoUnit:degC,97,69,9656.064,wmoUnit:m,,,,,,
Armstrong,34.96522076,-101.3572412,15.555555555555555,wmoUnit:degC,100,4,,,,,,,,
Collingsworth,34.96498493,-100.2700733,17.77777777777778,wmoUnit:degC,90,4,,,,,,,,
Cass,33.07750446,-94.34348771,20.0,wmoUnit:degC,93,8,16093.44,wmoUnit:m,,,,,,
Sherman,36.27765824,-101.8933822,15.555555555555555,wmoUnit:degC,95,3,,,SV,A,Severe Thunderstorm Watch,Severe,Future,2025-05-28T21:00:00-05:00
Terry,33.17373729,-102.335157,25.0,wmoUnit:degC,39,19,16093.44,wmoUnit:m,,,,,,
Limestone,31.54541898,-96.58056718,21.11111111111111,wmoUnit:degC,90,69,9656.064,wmoUnit:m,,,,,,
Real,29.83182711,-99.82215881,27.22222222222222,wmoUnit:degC,50,10,16093.44,wmoUnit:m,,,,,,
Lynn,33.17685487,-101.8160235,24.444444444444443,wmoUnit:degC,45,25,16093.44,wmoUnit:m,,,,,,
Lavaca,29.38437003,-96.93020993,23.333333333333332,wmoUnit:degC,88,16,14628.93720556642,wmoUnit:m,,,,,,
Nolan,32.3034718,-100.4060989,23.333333333333332,wmoUnit:degC,57,20,16093.44,wmoUnit:m,,,,,,
Gaines,32.74074537,-102.6351246,21.666666666666668,wmoUnit:degC,53,1,16093.44,wmoUnit:m,,,,,,
Montgomery,30.30022409,-95.50301411,22.77777777777778,wmoUnit:degC,93,71,16093.44,wmoUnit:m,,,,,,
Concho,31.32645211,-99.86413426,21.666666666666668,wmoUnit:degC,79,10,16093.44,wmoUnit:m,SV,A,Severe Thunderstorm Watch,Severe,Future,2025-05-28T22:00:00-05:00
Hardin,30.33238431,-94.39021394,23.333333333333332,wmoUnit:degC,93,13,16045.160109741197,wmoUnit:m,,,,,,
Harris,29.85967144,-95.39782106,23.88888888888889,wmoUnit:degC,94,73,16093.44,wmoUnit:m,,,,,,
Leon,31.29655719,-95.99554292,21.11111111111111,wmoUnit:degC,100,41,16093.44,wmoUnit:m,,,Flood Warning,Severe,Immediate,2025-05-29T08:30:00-05:00
Bowie,33.44572786,-94.42324298,20.0,wmoUnit:degC,93,6,16093.44,wmoUnit:m,,,Flood Warning,Severe,Immediate,2025-05-29T09:15:00-05:00
Kaufman,32.59927808,-96.28779341,21.666666666666668,wmoUnit:degC,76,30,16093.44,wmoUnit:m,,,,,,
Anderson,31.81321543,-95.65251774,20.555555555555557,wmoUnit:degC,97,73,9656.064,wmoUnit:m,,,Flood Warning,Severe,Immediate,2025-05-29T08:45:00-05:00
San Saba,31.15520543,-98.81754295,24.444444444444443,wmoUnit:degC,79,10,16093.44,wmoUnit:m,SV,A,Severe Thunderstorm Warning,Severe,Immediate,2025-05-28T18:45:00-05:00
Schleicher,30.89661056,-100.538097,22.22222222222222,wmoUnit:degC,66,10,16093.44,wmoUnit:m,SV,A,Severe Thunderstorm Watch,Severe,Future,2025-05-28T22:00:00-05:00
Colorado,29.6208542,-96.52630821,21.666666666666668,wmoUnit:degC,93,48,9656.064,wmoUnit:m,,,,,,
Milam,30.78625299,-96.97683495,23.88888888888889,wmoUnit:degC,90,29,16093.44,wmoUnit:m,SV,A,Severe Thunderstorm Watch,Severe,Future,2025-05-28T22:00:00-05:00
Live Oak,28.3514375,-98.12474493,27.22222222222222,wmoUnit:degC,74,13,16093.44,wmoUnit:m,,,,,,
Borden,32.7436916,-101.4317533,22.77777777777778,wmoUnit:degC,55,7,16093.44,wmoUnit:m,,,,,,
McCulloch,31.19896752,-99.34754972,23.333333333333332,wmoUnit:degC,76,10,16093.44,wmoUnit:m,SV,A,Severe Thunderstorm Warning,Severe,Immediate,2025-05-28T18:45:00-05:00
Johnson,32.37899918,-97.36660504,22.22222222222222,wmoUnit:degC,90,33,16093.44,wmoUnit:m,,,,,,
Montague,33.67496328,-97.72466993,21.666666666666668,wmoUnit:degC,84,9,16093.44,wmoUnit:m,,,,,,
Stonewall,33.17842158,-100.255259,23.88888888888889,wmoUnit:degC,71,32,16093.44,wmoUnit:m,,,,,,
Comal,29.80816362,-98.27814516,23.88888888888889,wmoUnit:degC,85,16,16093.44,wmoUnit:m,,,,,,
Eastland,32.32739258,-98.8325713,21.666666666666668,wmoUnit:degC,73,21,16093.44,wmoUnit:m,SV,A,,,,
Comanche,31.9490639,-98.55841538,22.77777777777778,wmoUnit:degC,90,29,16093.44,wmoUnit:m,SV,A,Severe Thunderstorm Watch,Severe,Future,2025-05-28T22:00:00-05:00
King,33.61641863,-100.2558584,26.666666666666668,wmoUnit:degC,58,26,16093.44,wmoUnit:m,,,,,,
Washington,30.2145299,-96.40356575,23.88888888888889,wmoUnit:degC,94,47,9656.064,wmoUnit:m,,,,,,
Webb,27.76102524,-99.33170164,26.666666666666668,wmoUnit:degC,74,13,16093.44,wmoUnit:m,,,,,,
Fayette,29.87683207,-96.91968047,25.0,wmoUnit:degC,83,29,15996.878684692381,wmoUnit:m,,,,,,
Harrison,32.54814898,-94.37155736,20.0,wmoUnit:degC,100,9,16093.44,wmoUnit:m,,,,,,
Presidio,29.99977786,-104.2405552,22.77777777777778,wmoUnit:degC,46,0,16093.44,wmoUnit:m,,,Special Weather Statement,Moderate,Expected,2025-05-28T18:15:00-05:00
Austin,29.88711223,-96.27791829,22.77777777777778,wmoUnit:degC,93,58,9656.064,wmoUnit:m,,,,,,
Randall,34.96594288,-101.8968527,16.11111111111111,wmoUnit:degC,99,6,,,,,,,,
Hood,32.43107878,-97.83280338,21.11111111111111,wmoUnit:degC,87,25,16093.44,wmoUnit:m,,,,,,
Victoria,28.79640594,-96.97176602,26.11111111111111,wmoUnit:degC,85,31,16093.44,wmoUnit:m,,,,,,
Hutchinson,35.84000866,-101.3547257,17.22222222222222,wmoUnit:degC,90,2,,,,,,,,
Coryell,31.39087578,-97.7991883,22.77777777777778,wmoUnit:degC,87,30,16093.44,wmoUnit:m,SV,A,Severe Thunderstorm Watch,Severe,Future,2025-05-28T22:00:00-05:00
Jackson,28.95603133,-96.57883268,21.666666666666668,wmoUnit:degC,93,67,9495.129753478954,wmoUnit:m,,,,,,
Taylor,32.30138229,-99.89003941,22.77777777777778,wmoUnit:degC,64,20,16093.44,wmoUnit:m,,,,,,
Zapata,27.00089072,-99.16860134,28.88888888888889,wmoUnit:degC,68,14,,,,,,,,
San Patricio,28.00922186,-97.51859857,26.11111111111111,wmoUnit:degC,88,32,16093.44,wmoUnit:m,,,,,,
Grimes,30.54360689,-95.98557334,23.333333333333332,wmoUnit:degC,93,56,16093.44,wmoUnit:m,,,,,,
Lamb,34.06861242,-102.3517095,23.88888888888889,wmoUnit:degC,38,14,16093.44,wmoUnit:m,,,,,,
