countyName,latitude,longitude,temperature,temperature_unit,relativeHumidity,precipitationProbability,visibility,visibility_unit,hazard_phenomenon,hazard_significance,alert_event,alert_severity,alert_urgency,alert_expires
Foard,33.97408519,-99.77871109,27.22222222222222,wmoUnit:degC,72,25,,,,,,,,
Blanco,30.26636128,-98.39974086,24.444444444444443,wmoUnit:degC,90,3,16093.44,wmoUnit:m,,,,,,
Hockley,33.60750375,-102.3430919,21.11111111111111,wmoUnit:degC,71,15,16093.44,wmoUnit:m,,,,,,
Llano,30.70566579,-98.68387398,25.0,wmoUnit:degC,90,0,16093.44,wmoUnit:m,,,,,,
Swisher,34.53064989,-101.734951,18.88888888888889,wmoUnit:degC,63,11,16093.44,wmoUnit:m,,,,,,
Titus,33.2160906,-94.96509786,21.11111111111111,wmoUnit:degC,97,9,14548.469698608355,wmoUnit:m,,,Flood Warning,Severe,Immediate,2025-06-15T12:45:00-05:00
Navarro,32.04695429,-96.47248134,22.22222222222222,wmoUnit:degC,93,2,16093.44,wmoUnit:m,,,Flood Warning,Severe,Immediate,2025-06-15T03:45:00-05:00
Brazoria,29.19345387,-95.45578479,26.666666666666668,wmoUnit:degC,100,18,13888.638904174775,wmoUnit:m,,,Flood Advisory,Minor,Expected,2025-06-14T14:00:00-05:00
Hidalgo,26.396627,-98.18088681,27.22222222222222,wmoUnit:degC,93,0,,,,,,,,
Archer,33.61539176,-98.68783437,25.555555555555557,wmoUnit:degC,85,7,,,,,,,,
Refugio,28.32681413,-97.16546961,26.11111111111111,wmoUnit:degC,94,8,12778.191452087469,wmoUnit:m,,,Flood Warning,Severe,Immediate,2025-06-15T00:45:00-05:00
Andrews,32.30506283,-102.6378839,22.22222222222222,wmoUnit:degC,74,8,16093.44,wmoUnit:m,,,,,,
Galveston,29.39424415,-94.96474975,26.666666666666668,wmoUnit:degC,91,20,15160.02060278313,wmoUnit:m,,,,,,
De Witt,29.08201599,-97.35666976,25.555555555555557,wmoUnit:degC,91,5,14065.666191650449,wmoUnit:m,,,,,,
Gonzales,29.45641495,-97.49279927,25.555555555555557,wmoUnit:degC,94,7,14838.152109741197,wmoUnit:m,,,,,,
Wharton,29.2778362,-96.22197375,26.11111111111111,wmoUnit:degC,100,15,11506.809753478952,wmoUnit:m,,,Special Weather Statement,Moderate,Expected,2025-06-14T13:15:00-05:00
Fannin,33.59396919,-96.10656755,22.22222222222222,wmoUnit:degC,93,9,11265.408,wmoUnit:m,,,,,,
Madison,30.96564645,-95.92818441,22.77777777777778,wmoUnit:degC,97,1,13759.891506958067,wmoUnit:m,,,Flood Warning,Severe,Immediate,2025-06-15T03:15:00-05:00
Moore,35.83768863,-101.8929556,19.444444444444443,wmoUnit:degC,61,10,,,,,,,,
Tyler,30.7712607,-94.37651432,22.22222222222222,wmoUnit:degC,100,4,8658.270904174777,wmoUnit:m,,,,,,
Lipscomb,36.27778432,-100.27317,21.666666666666668,wmoUnit:degC,91,16,,,,,,,,
Burleson,30.49246139,-96.62109399,23.333333333333332,wmoUnit:degC,100,2,11957.425643737755,wmoUnit:m,,,,,,
Jim Hogg,27.04340499,-98.6972921,25.0,wmoUnit:degC,97,0,,,,,,,,
Throckmorton,33.17753907,-99.21236832,22.77777777777778,wmoUnit:degC,93,5,16093.44,wmoUnit:m,,,,,,
Kleberg,27.43274395,-97.72889778,27.22222222222222,wmoUnit:degC,91,10,14226.601205566421,wmoUnit:m,,,,,,
Shelby,31.79242191,-94.14495261,20.555555555555557,wmoUnit:degC,97,4,12746.00460278313,wmoUnit:m,,,,,,
Garza,33.17991074,-101.2984496,23.333333333333332,wmoUnit:degC,66,9,11265.408,wmoUnit:m,,,,,,
Karnes,28.90493782,-97.85960621,25.555555555555557,wmoUnit:degC,97,3,16093.44,wmoUnit:m,,,Flood Warning,Severe,Immediate,2025-06-15T02:45:00-05:00
Reeves,31.32307061,-103.693143,22.77777777777778,wmoUnit:degC,66,19,16093.44,wmoUnit:m,,,,,,
Houston,31.31764137,-95.42225367,22.22222222222222,wmoUnit:degC,100,2,12601.16339721687,wmoUnit:m,,,Flood Warning,Severe,Immediate,2025-06-15T11:30:00-05:00
El Paso,31.7686226,-106.2352229,22.22222222222222,wmoUnit:degC,37,0,16093.44,wmoUnit:m,HT,Y,Heat Advisory,Moderate,Expected,2025-06-15T06:00:00-06:00
Carson,35.40346802,-101.3542037,20.555555555555557,wmoUnit:degC,78,7,,,,,,,,
Medina,29.35520493,-99.11008331,25.0,wmoUnit:degC,94,4,16093.44,wmoUnit:m,,,,,,
Wichita,33.98421585,-98.70153389,25.555555555555557,wmoUnit:degC,87,11,,,,,,,,
Chambers,29.73912276,-94.60891308,25.555555555555557,wmoUnit:degC,97,13,13888.638904174775,wmoUnit:m,,,Flood Warning,Severe,Immediate,2025-06-15T03:15:00-05:00
Donley,34.96540246,-100.8140501,21.666666666666668,wmoUnit:degC,79,7,,,,,,,,
Hopkins,33.14933822,-95.56414173,22.22222222222222,wmoUnit:degC,97,5,14548.469698608355,wmoUnit:m,,,,,,
Lampasas,31.19627791,-98.24142711,23.333333333333332,wmoUnit:degC,100,0,16093.44,wmoUnit:m,,,,,,
Falls,31.25317017,-96.93579511,21.11111111111111,wmoUnit:degC,100,0,16093.44,wmoUnit:m,,,,,,
Stephens,32.73584155,-98.83612016,22.22222222222222,wmoUnit:degC,100,4,16093.44,wmoUnit:m,,,,,,
Travis,30.33423319,-97.78194654,24.444444444444443,wmoUnit:degC,90,6,16093.44,wmoUnit:m,,,,,,
Roberts,35.8385577,-100.8135689,21.666666666666668,wmoUnit:degC,77,12,,,,,,,,
Crosby,33.61459873,-101.2998612,20.0,wmoUnit:degC,76,8,16093.44,wmoUnit:m,,,,,,
Kerr,30.06153035,-99.35016969,23.88888888888889,wmoUnit:degC,94,2,16093.44,wmoUnit:m,,,,,,
Wood,32.78634374,-95.38206498,22.77777777777778,wmoUnit:degC,97,5,11265.408,wmoUnit:m,,,Flood Warning,Severe,Immediate,2025-06-15T11:30:00-05:00
Jack,33.23345819,-98.1725509,22.77777777777778,wmoUnit:degC,97,7,16093.44,wmoUnit:m,,,,,,
Marion,32.79797929,-94.35725239,20.0,wmoUnit:degC,100,7,16093.44,wmoUnit:m,,,Flood Warning,Severe,Immediate,2025-06-15T12:45:00-05:00
Hale,34.07051782,-101.8269082,18.88888888888889,wmoUnit:degC,65,10,16093.44,wmoUnit:m,,,,,,
Jeff Davis,30.71559322,-104.1403539,18.88888888888889,wmoUnit:degC,55,17,16093.44,wmoUnit:m,,,,,,
Tarrant,32.77185236,-97.29116473,24.444444444444443,wmoUnit:degC,82,5,16093.44,wmoUnit:m,,,,,,
Waller,30.01093722,-95.98768942,25.0,wmoUnit:degC,100,9,11265.408,wmoUnit:m,,,,,,
Reagan,31.36617698,-101.5230108,23.333333333333332,wmoUnit:degC,83,1,16093.44,wmoUnit:m,,,,,,
Smith,32.37514553,-95.26909511,21.666666666666668,wmoUnit:degC,93,4,16093.44,wmoUnit:m,,,Flood Warning,Severe,Immediate,2025-06-15T11:30:00-05:00
Van Zandt,32.56368961,-95.8364862,22.22222222222222,wmoUnit:degC,93,3,16093.44,wmoUnit:m,,,,,,
Cooke,33.638465,-97.21247642,22.22222222222222,wmoUnit:degC,100,8,16093.44,wmoUnit:m,,,,,,
Zavala,28.86530621,-99.76102001,25.555555555555557,wmoUnit:degC,94,1,16093.44,wmoUnit:m,,,,,,
Hall,34.53074134,-100.6809876,21.11111111111111,wmoUnit:degC,78,11,16093.44,wmoUnit:m,,,,,,
Kendall,29.9446397,-98.71160511,24.444444444444443,wmoUnit:degC,94,3,16093.44,wmoUnit:m,,,,,,
Goliad,28.65708563,-97.42646082,25.0,wmoUnit:degC,97,7,10702.137753478954,wmoUnit:m,,,Flood Warning,Severe,Immediate,2025-06-15T03:30:00-05:00
Yoakum,33.17293501,-102.8278792,21.11111111111111,wmoUnit:degC,84,10,16093.44,wmoUnit:m,,,,,,
Knox,33.60614755,-99.74144313,28.333333333333332,wmoUnit:degC,66,15,,,,,,,,
McLennan,31.55234489,-97.20184883,22.22222222222222,wmoUnit:degC,87,0,16093.44,wmoUnit:m,,,,,,
Brewster,29.81205836,-103.2518906,22.22222222222222,wmoUnit:degC,70,9,16093.44,wmoUnit:m,,,,,,
Panola,32.16222886,-94.30552858,20.555555555555557,wmoUnit:degC,97,4,14548.469698608355,wmoUnit:m,,,,,,
Bandera,29.74724753,-99.24637282,23.88888888888889,wmoUnit:degC,94,5,16093.44,wmoUnit:m,,,,,,
Parmer,34.53014507,-102.784594,18.88888888888889,wmoUnit:degC,61,9,16093.44,wmoUnit:m,,,,,,
Rockwall,32.89786769,-96.40780584,22.77777777777778,wmoUnit:degC,97,5,16093.44,wmoUnit:m,,,,,,
Trinity,31.0885069,-95.13551682,22.22222222222222,wmoUnit:degC,100,2,12568.97654791253,wmoUnit:m,,,Flood Warning,Severe,Immediate,2025-06-15T11:30:00-05:00
Bosque,31.90050476,-97.63437613,23.333333333333332,wmoUnit:degC,93,1,16093.44,wmoUnit:m,,,,,,
Coke,31.88849293,-100.5298747,22.77777777777778,wmoUnit:degC,87,6,16093.44,wmoUnit:m,,,,,,
Franklin,33.17550691,-95.21841437,21.666666666666668,wmoUnit:degC,97,7,16093.44,wmoUnit:m,,,Flood Warning,Severe,Immediate,2025-06-15T12:45:00-05:00
Hill,31.99079033,-97.1324142,22.77777777777778,wmoUnit:degC,90,1,16093.44,wmoUnit:m,,,,,,
Calhoun,28.48966896,-96.64708119,27.77777777777778,wmoUnit:degC,94,16,13244.900383300735,wmoUnit:m,,,Flood Warning,Severe,Immediate,2025-06-15T00:45:00-05:00
Irion,31.30393203,-100.9824126,22.77777777777778,wmoUnit:degC,87,10,16093.44,wmoUnit:m,,,,,,
Midland,31.86921148,-102.0315032,23.333333333333332,wmoUnit:degC,75,7,11265.408,wmoUnit:m,,,,,,
Brown,31.77432313,-98.99989649,22.77777777777778,wmoUnit:degC,97,3,16093.44,wmoUnit:m,,,,,,
Wilson,29.17315896,-98.08621015,25.555555555555557,wmoUnit:degC,94,4,16093.44,wmoUnit:m,,,Flood Warning,Severe,Immediate,2025-06-15T02:45:00-05:00
Oldham,35.40497586,-102.6029949,18.88888888888889,wmoUnit:degC,66,6,,,,,,,,
Freestone,31.70486443,-96.14918535,22.22222222222222,wmoUnit:degC,97,2,16093.44,wmoUnit:m,,,Flood Warning,Severe,Immediate,2025-06-15T03:45:00-05:00
Sabine,31.34321941,-93.85170439,23.333333333333332,wmoUnit:degC,100,6,7885.785753478953,wmoUnit:m,,,,,,
Deaf Smith,34.96602014,-102.6048162,18.88888888888889,wmoUnit:degC,48,7,,,,,,,,
Angelina,31.25475875,-94.611742,22.22222222222222,wmoUnit:degC,97,4,11088.379945129402,wmoUnit:m,,,Flood Warning,Severe,Immediate,2025-06-15T11:30:00-05:00
Kent,33.18284492,-100.7791031,23.333333333333332,wmoUnit:degC,82,7,16093.44,wmoUnit:m,,,,,,
Red River,33.62074539,-95.0501886,21.666666666666668,wmoUnit:degC,97,10,14532.375890258803,wmoUnit:m,,,Flood Warning,Severe,Immediate,2025-06-15T12:45:00-05:00
Kinney,29.35000302,-100.4178441,25.555555555555557,wmoUnit:degC,85,0,16093.44,wmoUnit:m,,,,,,
Denton,33.205574,-97.11681154,23.88888888888889,wmoUnit:degC,90,6,16093.44,wmoUnit:m,,,,,,
Sutton,30.49747152,-100.5382263,22.77777777777778,wmoUnit:degC,93,4,16093.44,wmoUnit:m,,,,,,
Guadalupe,29.58257236,-97.94850308,25.555555555555557,wmoUnit:degC,97,7,16093.44,wmoUnit:m,,,,,,
Winkler,31.85008609,-103.0484794,22.77777777777778,wmoUnit:degC,73,6,16093.44,wmoUnit:m,,,,,,
Dimmit,28.42161168,-99.760574,26.11111111111111,wmoUnit:degC,91,0,16093.44,wmoUnit:m,,,,,,
Wise,33.21585061,-97.65444124,23.333333333333332,wmoUnit:degC,93,6,16093.44,wmoUnit:m,,,,,,
Hemphill,35.83750155,-100.2704628,21.666666666666668,wmoUnit:degC,87,10,,,,,,,,
Potter,35.40128927,-101.8940484,20.555555555555557,wmoUnit:degC,56,7,,,,,,,,
Childress,34.52929257,-100.2075664,21.666666666666668,wmoUnit:degC,81,11,16093.44,wmoUnit:m,,,,,,
Willacy,26.47132899,-97.64303323,27.22222222222222,wmoUnit:degC,95,4,,,,,,,,
Bastrop,30.10353518,-97.31187705,23.88888888888889,wmoUnit:degC,97,7,14838.152109741197,wmoUnit:m,,,,,,
Kimble,30.48676251,-99.74892716,22.77777777777778,wmoUnit:degC,97,2,16093.44,wmoUnit:m,,,,,,
Scurry,32.74720063,-100.9165071,22.22222222222222,wmoUnit:degC,80,21,11265.408,wmoUnit:m,,,,,,
Ochiltree,36.27846334,-100.815653,20.555555555555557,wmoUnit:degC,87,19,,,,,,,,
Hansford,36.27753179,-101.3545624,21.11111111111111,wmoUnit:degC,74,19,,,,,,,,
Hartley,35.83996755,-102.6028835,17.77777777777778,wmoUnit:degC,58,8,,,,,,,,
Cameron,26.13847728,-97.51499968,27.22222222222222,wmoUnit:degC,91,3,,,,,,,,
Matagorda,28.86711039,-95.98533866,27.77777777777778,wmoUnit:degC,97,15,15127.832986084028,wmoUnit:m,,,Flood Advisory,Minor,Expected,2025-06-14T15:45:00-05:00
Burnet,30.78843382,-98.18252382,23.333333333333332,wmoUnit:degC,93,1,16093.44,wmoUnit:m,,,,,,
Rains,32.87004212,-95.79347545,22.22222222222222,wmoUnit:degC,97,4,16093.44,wmoUnit:m,,,,,,
Hays,30.05782657,-98.03104087,24.444444444444443,wmoUnit:degC,94,6,16093.44,wmoUnit:m,,,,,,
Mason,30.71742293,-99.2263026,22.77777777777778,wmoUnit:degC,93,1,16093.44,wmoUnit:m,,,,,,
Ward,31.509424,-103.1024636,23.333333333333332,wmoUnit:degC,72,8,16093.44,wmoUnit:m,,,,,,
Delta,33.38623601,-95.67221685,22.77777777777778,wmoUnit:degC,90,7,14548.469698608355,wmoUnit:m,,,,,,
Nueces,27.72621549,-97.61767326,26.666666666666668,wmoUnit:degC,94,8,14403.628493041933,wmoUnit:m,,,,,,
Callahan,32.2977738,-99.37359692,22.77777777777778,wmoUnit:degC,93,2,16093.44,wmoUnit:m,,,,,,
Bell,31.03778267,-97.47790776,22.77777777777778,wmoUnit:degC,84,0,16093.44,wmoUnit:m,,,,,,
Cherokee,31.83695632,-95.16515234,21.11111111111111,wmoUnit:degC,100,3,11265.408,wmoUnit:m,,,Flood Warning,Severe,Immediate,2025-06-15T11:30:00-05:00
Ellis,32.34839264,-96.79467417,22.22222222222222,wmoUnit:degC,97,3,16093.44,wmoUnit:m,,,,,,
Lubbock,33.6101944,-101.8205745,20.555555555555557,wmoUnit:degC,63,10,16093.44,wmoUnit:m,,,,,,
Terrell,30.22502597,-102.0764533,23.88888888888889,wmoUnit:degC,85,0,16093.44,wmoUnit:m,,,,,,
Crockett,30.72291931,-101.4118364,22.77777777777778,wmoUnit:degC,87,5,16093.44,wmoUnit:m,,,,,,
Atascosa,28.89418432,-98.52741302,25.555555555555557,wmoUnit:degC,91,1,16093.44,wmoUnit:m,,,,,,
Ector,31.86908156,-102.5430907,23.333333333333332,wmoUnit:degC,72,4,11265.408,wmoUnit:m,,,,,,
Brazos,30.6610425,-96.3022943,23.333333333333332,wmoUnit:degC,97,2,15079.553095825224,wmoUnit:m,,,Flood Warning,Severe,Immediate,2025-06-15T03:15:00-05:00
Aransas,28.12709562,-96.99258951,27.77777777777778,wmoUnit:degC,91,12,14966.899506958067,wmoUnit:m,,,,,,
Dallas,32.76653746,-96.77781862,23.333333333333332,wmoUnit:degC,84,5,16093.44,wmoUnit:m,,,,,,
Howard,32.30610232,-101.4355097,23.333333333333332,wmoUnit:degC,76,16,11265.408,wmoUnit:m,,,,,,
Motley,34.07409017,-100.7798961,21.666666666666668,wmoUnit:degC,68,9,16093.44,wmoUnit:m,,,,,,
San Augustine,31.39427005,-94.16809762,22.22222222222222,wmoUnit:degC,97,4,9559.503452087469,wmoUnit:m,,,,,,
Maverick,28.74260943,-100.3144638,26.11111111111111,wmoUnit:degC,91,0,16093.44,wmoUnit:m,,,,,,
Erath,32.23640361,-98.21722756,22.77777777777778,wmoUnit:degC,93,3,16093.44,wmoUnit:m,,,,,,
Dickens,33.61663428,-100.7788138,20.555555555555557,wmoUnit:degC,81,7,16093.44,wmoUnit:m,,,,,,
Caldwell,29.83677935,-97.61983479,25.0,wmoUnit:degC,97,8,16093.44,wmoUnit:m,,,,,,
Dawson,32.74258137,-101.9476136,22.22222222222222,wmoUnit:degC,77,16,14548.469698608355,wmoUnit:m,,,,,,
Camp,32.97321771,-94.97860185,21.11111111111111,wmoUnit:degC,97,8,14548.469698608355,wmoUnit:m,,,,,,
Duval,27.68133382,-98.50889672,25.555555555555557,wmoUnit:degC,94,0,12279.294904174776,wmoUnit:m,,,,,,
Hunt,33.123531,-96.08550014,22.77777777777778,wmoUnit:degC,93,6,16093.44,wmoUnit:m,,,,,,
Mills,31.49524259,-98.59552736,22.77777777777778,wmoUnit:degC,100,2,16093.44,wmoUnit:m,,,,,,
Val Verde,29.89300587,-101.15171,24.444444444444443,wmoUnit:degC,94,1,16093.44,wmoUnit:m,,,,,,
Pecos,30.78100044,-102.7235743,21.666666666666668,wmoUnit:degC,83,1,16093.44,wmoUnit:m,,,,,,
Baylor,33.61648147,-99.21351964,26.666666666666668,wmoUnit:degC,76,12,,,,,,,,
Gregg,32.48036452,-94.81723694,21.11111111111111,wmoUnit:degC,97,6,16093.44,wmoUnit:m,,,Flood Warning,Severe,Immediate,2025-06-15T11:30:00-05:00
Cochran,33.60410808,-102.8285264,20.555555555555557,wmoUnit:degC,78,11,16093.44,wmoUnit:m,,,,,,
Jasper,30.74391255,-94.02495849,22.77777777777778,wmoUnit:degC,97,8,8658.270904174777,wmoUnit:m,,,Flood Warning,Severe,Immediate,2025-06-15T10:45:00-05:00
Hamilton,31.70479181,-98.11066654,23.333333333333332,wmoUnit:degC,93,2,16093.44,wmoUnit:m,,,,,,
Castro,34.53000304,-102.2617608,19.444444444444443,wmoUnit:degC,68,11,16093.44,wmoUnit:m,,,,,,
Sterling,31.82786516,-101.0500699,23.333333333333332,wmoUnit:degC,79,11,16093.44,wmoUnit:m,,,,,,
Starr,26.56212627,-98.73834895,25.555555555555557,wmoUnit:degC,93,0,,,,,,,,
Crane,31.42846287,-102.5156425,23.88888888888889,wmoUnit:degC,75,1,16093.44,wmoUnit:m,,,,,,
Morris,33.11368507,-94.73205137,20.555555555555557,wmoUnit:degC,97,9,14548.469698608355,wmoUnit:m,,,Flood Warning,Severe,Immediate,2025-06-15T12:45:00-05:00
Briscoe,34.53041048,-101.2085769,20.555555555555557,wmoUnit:degC,66,11,16093.44,wmoUnit:m,,,,,,
Tom Green,31.4044442,-100.4620678,22.22222222222222,wmoUnit:degC,97,4,16093.44,wmoUnit:m,,,,,,
Menard,30.88981785,-99.82061472,22.22222222222222,wmoUnit:degC,97,1,16093.44,wmoUnit:m,,,,,,
Parker,32.77852261,-97.80472194,23.333333333333332,wmoUnit:degC,87,5,16093.44,wmoUnit:m,,,,,,
Walker,30.73899492,-95.57224172,23.88888888888889,wmoUnit:degC,97,2,14580.657315307619,wmoUnit:m,,,Flood Warning,Severe,Immediate,2025-06-15T03:15:00-05:00
Brooks,27.0315669,-98.21874127,25.555555555555557,wmoUnit:degC,96,2,,,,,,,,
La Salle,28.34621032,-99.1034773,26.11111111111111,wmoUnit:degC,85,0,12070.08,wmoUnit:m,,,,,,
Edwards,29.98248216,-100.3048937,23.333333333333332,wmoUnit:degC,93,1,16093.44,wmoUnit:m,,,,,,
Lee,30.31065065,-96.96568735,22.77777777777778,wmoUnit:degC,100,4,13212.714301391645,wmoUnit:m,,,,,,
Robertson,31.02705415,-96.51272568,22.77777777777778,wmoUnit:degC,97,2,11265.408,wmoUnit:m,,,Flood Warning,Severe,Immediate,2025-06-15T03:45:00-05:00
Young,33.17670764,-98.68781396,22.77777777777778,wmoUnit:degC,100,7,16093.44,wmoUnit:m,,,,,,
Bee,28.41736675,-97.74116811,24.444444444444443,wmoUnit:degC,100,6,12665.537095825224,wmoUnit:m,,,,,,
Clay,33.78379717,-98.208958,25.555555555555557,wmoUnit:degC,81,6,,,,,,,,
San Jacinto,30.57948905,-95.16683273,22.77777777777778,wmoUnit:degC,100,5,9575.596493041932,wmoUnit:m,,,Flood Warning,Severe,Immediate,2025-06-15T03:15:00-05:00
Uvalde,29.35669829,-99.76203107,25.0,wmoUnit:degC,97,2,16093.44,wmoUnit:m,,,,,,
Haskell,33.17824805,-99.73029401,22.77777777777778,wmoUnit:degC,90,2,16093.44,wmoUnit:m,,,,,,
Somervell,32.22229511,-97.77456553,23.333333333333332,wmoUnit:degC,93,3,16093.44,wmoUnit:m,,,,,,
Bexar,29.44884523,-98.51966309,25.555555555555557,wmoUnit:degC,94,4,16093.44,wmoUnit:m,,,,,,
Grayson,33.62684371,-96.67764864,23.333333333333332,wmoUnit:degC,87,9,11265.408,wmoUnit:m,,,,,,
Bailey,34.0684915,-102.8299069,18.333333333333332,wmoUnit:degC,73,10,16093.44,wmoUnit:m,,,,,,
Jones,32.73970429,-99.87850599,24.444444444444443,wmoUnit:degC,82,2,16093.44,wmoUnit:m,,,,,,
Jefferson,29.88425832,-94.1708778,25.555555555555557,wmoUnit:degC,94,11,14564.563506958068,wmoUnit:m,FA,A,Flood Warning,Severe,Immediate,2025-06-15T10:45:00-05:00
Rusk,32.10803224,-94.76169577,21.11111111111111,wmoUnit:degC,93,3,14548.469698608355,wmoUnit:m,,,Flood Warning,Severe,Immediate,2025-06-15T11:30:00-05:00
Glasscock,31.8694238,-101.520742,22.77777777777778,wmoUnit:degC,78,9,11265.408,wmoUnit:m,,,,,,
Gillespie,30.31800246,-98.94627245,23.88888888888889,wmoUnit:degC,90,2,16093.44,wmoUnit:m,,,,,,
Fisher,32.74305155,-100.4019503,23.88888888888889,wmoUnit:degC,82,4,16093.44,wmoUnit:m,,,,,,
Henderson,32.21188078,-95.85356847,22.22222222222222,wmoUnit:degC,93,2,14548.469698608355,wmoUnit:m,,,Flood Warning,Severe,Immediate,2025-06-15T03:45:00-05:00
Shackelford,32.7360276,-99.35403034,22.77777777777778,wmoUnit:degC,93,4,16093.44,wmoUnit:m,,,,,,
Palo Pinto,32.75316856,-98.31299522,22.77777777777778,wmoUnit:degC,100,5,16093.44,wmoUnit:m,,,,,,
Wilbarger,34.08044953,-99.24089568,26.11111111111111,wmoUnit:degC,77,15,,,,,,,,
Floyd,34.07239775,-101.3033037,19.444444444444443,wmoUnit:degC,73,10,16093.44,wmoUnit:m,,,,,,
Orange,30.12807126,-93.89653794,25.555555555555557,wmoUnit:degC,94,6,13872.545095825224,wmoUnit:m,FA,A,Flood Warning,Severe,Immediate,2025-06-15T10:45:00-05:00
Runnels,31.83105393,-99.97624799,22.77777777777778,wmoUnit:degC,93,3,16093.44,wmoUnit:m,,,,,,
Coleman,31.77329421,-99.45362579,22.77777777777778,wmoUnit:degC,93,4,16093.44,wmoUnit:m,,,,,,
Martin,32.30605847,-101.9512464,23.333333333333332,wmoUnit:degC,74,13,11265.408,wmoUnit:m,,,,,,
Wheeler,35.40129002,-100.2697634,21.666666666666668,wmoUnit:degC,93,8,,,,,,,,
Culberson,31.44709817,-104.5177421,21.666666666666668,wmoUnit:degC,57,20,16093.44,wmoUnit:m,,,,,,
Mitchell,32.30636024,-100.9211128,23.88888888888889,wmoUnit:degC,73,16,16093.44,wmoUnit:m,,,,,,
Hudspeth,31.45613738,-105.3869428,19.444444444444443,wmoUnit:degC,54,0,16093.44,wmoUnit:m,HT,Y,Heat Advisory,Moderate,Expected,2025-06-15T06:00:00-06:00
Upshur,32.7362827,-94.94132011,21.11111111111111,wmoUnit:degC,100,7,16093.44,wmoUnit:m,,,Flood Warning,Severe,Immediate,2025-06-15T11:30:00-05:00
Liberty,30.15153187,-94.8120925,23.333333333333332,wmoUnit:degC,100,9,9511.22279443358,wmoUnit:m,,,Flood Warning,Severe,Immediate,2025-06-15T03:15:00-05:00
Williamson,30.64834941,-97.60105467,23.88888888888889,wmoUnit:degC,87,2,16093.44,wmoUnit:m,,,,,,
Nacogdoches,31.61604108,-94.6158776,21.11111111111111,wmoUnit:degC,100,3,12746.00460278313,wmoUnit:m,,,Flood Warning,Severe,Immediate,2025-06-15T11:30:00-05:00
Loving,31.84912973,-103.5799063,23.333333333333332,wmoUnit:degC,73,14,16093.44,wmoUnit:m,,,,,,
Jim Wells,27.73131099,-98.0898649,25.555555555555557,wmoUnit:degC,97,1,10171.054356262244,wmoUnit:m,,,,,,
Upton,31.36853957,-102.0430005,23.333333333333332,wmoUnit:degC,82,1,12746.00460278313,wmoUnit:m,,,,,,
Newton,30.78619977,-93.74462993,23.333333333333332,wmoUnit:degC,93,9,9302.008657653729,wmoUnit:m,,,Flood Warning,Severe,Immediate,2025-06-15T10:45:00-05:00
Lamar,33.66746186,-95.57110784,21.666666666666668,wmoUnit:degC,93,9,16093.44,wmoUnit:m,,,,,,
Polk,30.79250963,-94.82994949,22.77777777777778,wmoUnit:degC,100,4,11265.408,wmoUnit:m,,,Flood Warning,Severe,Immediate,2025-06-15T11:30:00-05:00
Collin,33.18789055,-96.57248871,22.77777777777778,wmoUnit:degC,87,7,16093.44,wmoUnit:m,,,,,,
Hardeman,34.28865227,-99.7453851,26.666666666666668,wmoUnit:degC,71,30,,,,,,,,
McMullen,28.35351091,-98.56842256,25.555555555555557,wmoUnit:degC,94,0,12247.108054870598,wmoUnit:m,,,,,,
Cottle,34.0776571,-100.2786983,22.77777777777778,wmoUnit:degC,79,9,16093.44,wmoUnit:m,,,,,,
Frio,28.86726774,-99.10826004,25.555555555555557,wmoUnit:degC,91,2,16093.44,wmoUnit:m,,,,,,
Gray,35.40130666,-100.812475,20.555555555555557,wmoUnit:degC,90,7,,,,,,,,
Dallam,36.27777107,-102.6021647,16.666666666666668,wmoUnit:degC,62,9,,,,,,,,
Kenedy,26.92409448,-97.68137783,26.11111111111111,wmoUnit:degC,96,8,,,,,,,,
Fort Bend,29.52763253,-95.77090562,26.666666666666668,wmoUnit:degC,94,17,11619.463342346271,wmoUnit:m,,,Flood Warning,Severe,Immediate,2025-06-15T03:15:00-05:00
Armstrong,34.96522076,-101.3572412,20.555555555555557,wmoUnit:degC,56,7,,,,,,,,
Collingsworth,34.96498493,-100.2700733,22.77777777777778,wmoUnit:degC,88,7,,,,,,,,
Cass,33.07750446,-94.34348771,20.555555555555557,wmoUnit:degC,97,9,16093.44,wmoUnit:m,,,Flood Warning,Severe,Immediate,2025-06-15T12:45:00-05:00
Sherman,36.27765824,-101.8933822,18.88888888888889,wmoUnit:degC,72,17,,,,,,,,
Terry,33.17373729,-102.335157,21.666666666666668,wmoUnit:degC,90,15,16093.44,wmoUnit:m,,,,,,
Limestone,31.54541898,-96.58056718,21.11111111111111,wmoUnit:degC,100,1,14548.469698608355,wmoUnit:m,,,,,,
Real,29.83182711,-99.82215881,23.333333333333332,wmoUnit:degC,97,2,16093.44,wmoUnit:m,,,,,,
Lynn,33.17685487,-101.8160235,20.555555555555557,wmoUnit:degC,90,11,16093.44,wmoUnit:m,,,,,,
Lavaca,29.38437003,-96.93020993,25.555555555555557,wmoUnit:degC,97,6,14323.160986084027,wmoUnit:m,,,,,,
Nolan,32.3034718,-100.4060989,22.77777777777778,wmoUnit:degC,84,3,16093.44,wmoUnit:m,,,,,,
Gaines,32.74074537,-102.6351246,21.11111111111111,wmoUnit:degC,83,11,16093.44,wmoUnit:m,,,,,,
Montgomery,30.30022409,-95.50301411,23.88888888888889,wmoUnit:degC,94,6,14548.469698608355,wmoUnit:m,,,,,,
Concho,31.32645211,-99.86413426,22.77777777777778,wmoUnit:degC,93,1,16093.44,wmoUnit:m,,,,,,
Hardin,30.33238431,-94.39021394,23.333333333333332,wmoUnit:degC,97,8,9157.167452087468,wmoUnit:m,FA,A,Flood Warning,Severe,Immediate,2025-06-15T10:45:00-05:00
Harris,29.85967144,-95.39782106,26.666666666666668,wmoUnit:degC,91,13,11683.837808349552,wmoUnit:m,,,,,,
Leon,31.29655719,-95.99554292,22.77777777777778,wmoUnit:degC,97,3,12746.00460278313,wmoUnit:m,,,Flood Warning,Severe,Immediate,2025-06-15T03:45:00-05:00
Bowie,33.44572786,-94.42324298,21.11111111111111,wmoUnit:degC,97,12,11265.408,wmoUnit:m,,,Flood Warning,Severe,Immediate,2025-06-15T12:45:00-05:00
Kaufman,32.59927808,-96.28779341,22.22222222222222,wmoUnit:degC,90,3,16093.44,wmoUnit:m,,,,,,
Anderson,31.81321543,-95.65251774,22.22222222222222,wmoUnit:degC,97,3,16093.44,wmoUnit:m,,,Flood Warning,Severe,Immediate,2025-06-15T11:30:00-05:00
San Saba,31.15520543,-98.81754295,23.333333333333332,wmoUnit:degC,93,0,16093.44,wmoUnit:m,,,,,,
Schleicher,30.89661056,-100.538097,22.77777777777778,wmoUnit:degC,90,5,16093.44,wmoUnit:m,,,,,,
Colorado,29.6208542,-96.52630821,25.555555555555557,wmoUnit:degC,100,1,11474.622904174776,wmoUnit:m,,,,,,
Milam,30.78625299,-96.97683495,22.22222222222222,wmoUnit:degC,97,2,16093.44,wmoUnit:m,,,,,,
Live Oak,28.3514375,-98.12474493,25.555555555555557,wmoUnit:degC,94,1,10911.352657653728,wmoUnit:m,,,,,,
Borden,32.7436916,-101.4317533,22.22222222222222,wmoUnit:degC,77,19,11265.408,wmoUnit:m,,,,,,
McCulloch,31.19896752,-99.34754972,22.77777777777778,wmoUnit:degC,93,2,16093.44,wmoUnit:m,,,,,,
Johnson,32.37899918,-97.36660504,22.22222222222222,wmoUnit:degC,97,3,16093.44,wmoUnit:m,,,,,,
Montague,33.67496328,-97.72466993,22.77777777777778,wmoUnit:degC,97,8,16093.44,wmoUnit:m,,,,,,
Stonewall,33.17842158,-100.255259,22.77777777777778,wmoUnit:degC,90,4,16093.44,wmoUnit:m,,,,,,
Comal,29.80816362,-98.27814516,24.444444444444443,wmoUnit:degC,94,6,16093.44,wmoUnit:m,,,,,,
Eastland,32.32739258,-98.8325713,22.77777777777778,wmoUnit:degC,93,3,16093.44,wmoUnit:m,,,,,,
Comanche,31.9490639,-98.55841538,22.77777777777778,wmoUnit:degC,93,3,16093.44,wmoUnit:m,,,,,,
King,33.61641863,-100.2558584,22.22222222222222,wmoUnit:degC,90,5,16093.44,wmoUnit:m,,,,,,
Washington,30.2145299,-96.40356575,24.444444444444443,wmoUnit:degC,97,4,11571.183452087469,wmoUnit:m,,,,,,
Webb,27.76102524,-99.33170164,26.11111111111111,wmoUnit:degC,85,0,14918.619616699263,wmoUnit:m,,,,,,
Fayette,29.87683207,-96.91968047,25.0,wmoUnit:degC,100,7,14146.133698608355,wmoUnit:m,,,,,,
Harrison,32.54814898,-94.37155736,20.0,wmoUnit:degC,100,6,16093.44,wmoUnit:m,,,Flood Warning,Severe,Immediate,2025-06-15T12:45:00-05:00
Presidio,29.99977786,-104.2405552,20.0,wmoUnit:degC,62,11,16093.44,wmoUnit:m,,,,,,
Austin,29.88711223,-96.27791829,25.555555555555557,wmoUnit:degC,100,4,11265.408,wmoUnit:m,,,,,,
Randall,34.96594288,-101.8968527,18.88888888888889,wmoUnit:degC,60,7,,,,,,,,
Hood,32.43107878,-97.83280338,23.333333333333332,wmoUnit:degC,87,4,16093.44,wmoUnit:m,,,,,,
Victoria,28.79640594,-96.97176602,25.555555555555557,wmoUnit:degC,97,7,8754.831452087468,wmoUnit:m,,,Flood Warning,Severe,Immediate,2025-06-15T00:45:00-05:00
Hutchinson,35.84000866,-101.3547257,21.666666666666668,wmoUnit:degC,74,13,,,,,,,,
Coryell,31.39087578,-97.7991883,23.333333333333332,wmoUnit:degC,100,1,16093.44,wmoUnit:m,,,,,,
Jackson,28.95603133,-96.57883268,26.666666666666668,wmoUnit:degC,94,2,11313.688657653729,wmoUnit:m,,,Special Weather Statement,Moderate,Expected,2025-06-14T13:15:00-05:00
Taylor,32.30138229,-99.89003941,22.77777777777778,wmoUnit:degC,87,2,16093.44,wmoUnit:m,,,,,,
Zapata,27.00089072,-99.16860134,24.444444444444443,wmoUnit:degC,97,0,,,,,,,,
San Patricio,28.00922186,-97.51859857,27.22222222222222,wmoUnit:degC,94,10,12955.219506958067,wmoUnit:m,,,,,,
Grimes,30.54360689,-95.98557334,23.333333333333332,wmoUnit:degC,100,4,14838.152109741197,wmoUnit:m,,,Flood Warning,Severe,Immediate,2025-06-15T03:15:00-05:00
Lamb,34.06861242,-102.3517095,21.11111111111111,wmoUnit:degC,63,12,16093.44,wmoUnit:m,,,,,,
