countyName,latitude,longitude,temperature,temperature_unit,relativeHumidity,precipitationProbability,visibility,visibility_unit,hazard_phenomenon,hazard_significance,alert_event,alert_severity,alert_urgency,alert_expires
Foard,33.97408519,-99.77871109,21.11111111111111,wmoUnit:degC,78,0,,,,,,,,
Blanco,30.26636128,-98.39974086,23.333333333333332,wmoUnit:degC,97,2,16093.44,wmoUnit:m,,,,,,
Hockley,33.60750375,-102.3430919,17.77777777777778,wmoUnit:degC,89,61,13566.770411132842,wmoUnit:m,,,,,,
Llano,30.70566579,-98.68387398,23.333333333333332,wmoUnit:degC,93,2,16093.44,wmoUnit:m,,,,,,
Swisher,34.53064989,-101.734951,15.555555555555555,wmoUnit:degC,95,60,13727.703890258803,wmoUnit:m,,,,,,
Navarro,32.04695429,-96.47248134,23.88888888888889,wmoUnit:degC,94,4,15465.795287475512,wmoUnit:m,,,Flood Warning,Severe,Immediate,2025-06-06T01:45:00-05:00
Brazoria,29.19345387,-95.45578479,25.555555555555557,wmoUnit:degC,94,0,11265.408,wmoUnit:m,,,,,,
Hidalgo,26.396627,-98.18088681,26.666666666666668,wmoUnit:degC,89,0,,,,,,,,
Archer,33.61539176,-98.68783437,19.444444444444443,wmoUnit:degC,93,0,,,,,,,,
Refugio,28.32681413,-97.16546961,25.555555555555557,wmoUnit:degC,92,2,15304.861808349551,wmoUnit:m,,,,,,
Andrews,32.30506283,-102.6378839,22.22222222222222,wmoUnit:degC,87,0,16093.44,wmoUnit:m,,,,,,
Galveston,29.39424415,-94.96474975,25.555555555555557,wmoUnit:degC,91,0,15739.383890258803,wmoUnit:m,,,,,,
De Witt,29.08201599,-97.35666976,25.555555555555557,wmoUnit:degC,91,2,12746.00460278313,wmoUnit:m,,,,,,
Gonzales,29.45641495,-97.49279927,25.0,wmoUnit:degC,94,2,12746.00460278313,wmoUnit:m,,,,,,
Wharton,29.2778362,-96.22197375,25.0,wmoUnit:degC,97,0,12617.25720556642,wmoUnit:m,,,,,,
Fannin,33.59396919,-96.10656755,20.555555555555557,wmoUnit:degC,97,8,11265.408,wmoUnit:m,,,,,,
Madison,30.96564645,-95.92818441,21.666666666666668,wmoUnit:degC,100,0,15691.104,wmoUnit:m,,,,,,
Moore,35.83768863,-101.8929556,15.555555555555555,wmoUnit:degC,96,21,,,,,,,,
Tyler,30.7712607,-94.37651432,22.22222222222222,wmoUnit:degC,97,3,7885.785753478953,wmoUnit:m,,,,,,
Lipscomb,36.27778432,-100.27317,16.11111111111111,wmoUnit:degC,97,19,,,,,,,,
Burleson,30.49246139,-96.62109399,24.444444444444443,wmoUnit:degC,94,0,8400.775342346271,wmoUnit:m,,,,,,
Jim Hogg,27.04340499,-98.6972921,25.0,wmoUnit:degC,93,0,,,,,,,,
Throckmorton,33.17753907,-99.21236832,18.88888888888889,wmoUnit:degC,93,16,16093.44,wmoUnit:m,,,,,,
Kleberg,27.43274395,-97.72889778,26.11111111111111,wmoUnit:degC,89,0,15916.412712524489,wmoUnit:m,,,,,,
Garza,33.17991074,-101.2984496,18.333333333333332,wmoUnit:degC,92,53,14580.657315307619,wmoUnit:m,,,,,,
Karnes,28.90493782,-97.85960621,25.0,wmoUnit:degC,90,0,16093.44,wmoUnit:m,,,,,,
Reeves,31.32307061,-103.693143,23.333333333333332,wmoUnit:degC,76,0,16093.44,wmoUnit:m,,,,,,
Houston,31.31764137,-95.42225367,22.22222222222222,wmoUnit:degC,100,0,8416.869150695822,wmoUnit:m,,,Flood Warning,Severe,Immediate,2025-06-05T21:45:00-05:00
El Paso,31.7686226,-106.2352229,25.555555555555557,wmoUnit:degC,34,8,15723.291616699264,wmoUnit:m,,,,,,
Carson,35.40346802,-101.3542037,16.11111111111111,wmoUnit:degC,97,16,,,,,,,,
Medina,29.35520493,-99.11008331,24.444444444444443,wmoUnit:degC,90,2,16093.44,wmoUnit:m,,,,,,
Wichita,33.98421585,-98.70153389,20.0,wmoUnit:degC,87,0,,,,,,,,
Chambers,29.73912276,-94.60891308,24.444444444444443,wmoUnit:degC,90,0,15546.262794433578,wmoUnit:m,,,Flood Warning,Severe,Immediate,2025-06-06T02:45:00-05:00
Donley,34.96540246,-100.8140501,17.22222222222222,wmoUnit:degC,100,12,,,,,,,,
Hopkins,33.14933822,-95.56414173,21.666666666666668,wmoUnit:degC,97,5,15707.197808349552,wmoUnit:m,,,,,,
Lampasas,31.19627791,-98.24142711,22.77777777777778,wmoUnit:degC,97,7,12649.444054870599,wmoUnit:m,,,,,,
Falls,31.25317017,-96.93579511,22.77777777777778,wmoUnit:degC,100,8,12343.668602783131,wmoUnit:m,,,,,,
Stephens,32.73584155,-98.83612016,18.88888888888889,wmoUnit:degC,100,14,11265.408,wmoUnit:m,,,,,,
Travis,30.33423319,-97.78194654,25.0,wmoUnit:degC,94,4,16093.44,wmoUnit:m,,,,,,
Roberts,35.8385577,-100.8135689,16.11111111111111,wmoUnit:degC,97,17,,,,,Special Weather Statement,Moderate,Expected,2025-06-05T12:30:00-05:00
Crosby,33.61459873,-101.2998612,17.77777777777778,wmoUnit:degC,94,57,13840.359013915973,wmoUnit:m,,,,,,
Kerr,30.06153035,-99.35016969,22.77777777777778,wmoUnit:degC,90,1,16093.44,wmoUnit:m,,,,,,
Jack,33.23345819,-98.1725509,17.77777777777778,wmoUnit:degC,97,14,11265.408,wmoUnit:m,,,,,,
Hale,34.07051782,-101.8269082,17.22222222222222,wmoUnit:degC,95,61,14645.031013915974,wmoUnit:m,,,,,,
Jeff Davis,30.71559322,-104.1403539,18.88888888888889,wmoUnit:degC,78,0,12746.00460278313,wmoUnit:m,,,,,,
Tarrant,32.77185236,-97.29116473,21.11111111111111,wmoUnit:degC,93,3,16093.44,wmoUnit:m,,,,,,
Waller,30.01093722,-95.98768942,25.0,wmoUnit:degC,94,0,11265.408,wmoUnit:m,,,,,,
Reagan,31.36617698,-101.5230108,23.333333333333332,wmoUnit:degC,90,0,16093.44,wmoUnit:m,,,,,,
Van Zandt,32.56368961,-95.8364862,22.22222222222222,wmoUnit:degC,97,5,11265.408,wmoUnit:m,,,,,,
Cooke,33.638465,-97.21247642,17.77777777777778,wmoUnit:degC,100,3,13598.956493041933,wmoUnit:m,,,,,,
Zavala,28.86530621,-99.76102001,25.555555555555557,wmoUnit:degC,91,0,16093.44,wmoUnit:m,,,,,,
Hall,34.53074134,-100.6809876,18.333333333333332,wmoUnit:degC,92,42,12568.97654791253,wmoUnit:m,,,,,,
Kendall,29.9446397,-98.71160511,22.77777777777778,wmoUnit:degC,97,2,16093.44,wmoUnit:m,,,,,,
Goliad,28.65708563,-97.42646082,24.444444444444443,wmoUnit:degC,97,1,15160.02060278313,wmoUnit:m,,,,,,
Yoakum,33.17293501,-102.8278792,17.77777777777778,wmoUnit:degC,89,58,15288.768,wmoUnit:m,,,,,,
Knox,33.60614755,-99.74144313,21.11111111111111,wmoUnit:degC,78,0,,,,,,,,
McLennan,31.55234489,-97.20184883,22.77777777777778,wmoUnit:degC,97,7,11265.408,wmoUnit:m,,,,,,
Brewster,29.81205836,-103.2518906,23.88888888888889,wmoUnit:degC,84,0,16093.44,wmoUnit:m,,,,,,
Bandera,29.74724753,-99.24637282,23.333333333333332,wmoUnit:degC,93,3,16093.44,wmoUnit:m,,,,,,
Parmer,34.53014507,-102.784594,15.0,wmoUnit:degC,97,62,13808.171397216869,wmoUnit:m,,,,,,
Rockwall,32.89786769,-96.40780584,21.11111111111111,wmoUnit:degC,93,4,16093.44,wmoUnit:m,,,,,,
Trinity,31.0885069,-95.13551682,22.22222222222222,wmoUnit:degC,100,0,8722.64460278313,wmoUnit:m,,,Flood Warning,Severe,Immediate,2025-06-05T21:45:00-05:00
Bosque,31.90050476,-97.63437613,21.666666666666668,wmoUnit:degC,97,6,12021.79934234627,wmoUnit:m,,,,,,
Coke,31.88849293,-100.5298747,22.77777777777778,wmoUnit:degC,81,10,16093.44,wmoUnit:m,,,,,,
Hill,31.99079033,-97.1324142,22.77777777777778,wmoUnit:degC,93,7,15320.955616699264,wmoUnit:m,,,,,,
Calhoun,28.48966896,-96.64708119,27.22222222222222,wmoUnit:degC,92,2,15916.412712524489,wmoUnit:m,,,,,,
Irion,31.30393203,-100.9824126,22.77777777777778,wmoUnit:degC,90,7,16093.44,wmoUnit:m,,,,,,
Midland,31.86921148,-102.0315032,22.22222222222222,wmoUnit:degC,87,0,16093.44,wmoUnit:m,,,,,,
Brown,31.77432313,-98.99989649,20.555555555555557,wmoUnit:degC,93,1,11265.408,wmoUnit:m,,,,,,
Wilson,29.17315896,-98.08621015,25.0,wmoUnit:degC,90,1,16093.44,wmoUnit:m,,,,,,
Oldham,35.40497586,-102.6029949,15.555555555555555,wmoUnit:degC,96,43,,,,,,,,
Freestone,31.70486443,-96.14918535,22.22222222222222,wmoUnit:degC,97,5,11265.408,wmoUnit:m,,,,,,
Deaf Smith,34.96602014,-102.6048162,15.0,wmoUnit:degC,93,28,,,,,,,,
Kent,33.18284492,-100.7791031,18.88888888888889,wmoUnit:degC,94,45,14435.816109741198,wmoUnit:m,,,,,,
Kinney,29.35000302,-100.4178441,25.0,wmoUnit:degC,88,3,16093.44,wmoUnit:m,,,,,,
Denton,33.205574,-97.11681154,20.555555555555557,wmoUnit:degC,90,4,16093.44,wmoUnit:m,,,,,,
Sutton,30.49747152,-100.5382263,23.88888888888889,wmoUnit:degC,90,2,16093.44,wmoUnit:m,,,,,,
Guadalupe,29.58257236,-97.94850308,24.444444444444443,wmoUnit:degC,97,5,16093.44,wmoUnit:m,,,,,,
Winkler,31.85008609,-103.0484794,22.22222222222222,wmoUnit:degC,84,0,16093.44,wmoUnit:m,,,,,,
Dimmit,28.42161168,-99.760574,26.11111111111111,wmoUnit:degC,85,0,16093.44,wmoUnit:m,,,,,,
Wise,33.21585061,-97.65444124,18.333333333333332,wmoUnit:degC,97,7,11265.408,wmoUnit:m,,,,,,
Hemphill,35.83750155,-100.2704628,16.666666666666668,wmoUnit:degC,97,10,,,,,Special Weather Statement,Moderate,Expected,2025-06-05T12:30:00-05:00
Potter,35.40128927,-101.8940484,17.22222222222222,wmoUnit:degC,97,24,,,,,,,,
Childress,34.52929257,-100.2075664,17.77777777777778,wmoUnit:degC,92,32,12118.36065765373,wmoUnit:m,,,,,,
Willacy,26.47132899,-97.64303323,26.11111111111111,wmoUnit:degC,94,0,,,,,,,,
Bastrop,30.10353518,-97.31187705,23.88888888888889,wmoUnit:degC,100,6,14548.469698608355,wmoUnit:m,,,,,,
Kimble,30.48676251,-99.74892716,23.88888888888889,wmoUnit:degC,94,1,16093.44,wmoUnit:m,,,,,,
Scurry,32.74720063,-100.9165071,21.666666666666668,wmoUnit:degC,81,0,16093.44,wmoUnit:m,,,,,,
Ochiltree,36.27846334,-100.815653,14.444444444444445,wmoUnit:degC,100,23,,,,,,,,
Hansford,36.27753179,-101.3545624,15.0,wmoUnit:degC,96,17,,,,,,,,
Hartley,35.83996755,-102.6028835,15.0,wmoUnit:degC,100,31,,,,,,,,
Cameron,26.13847728,-97.51499968,26.666666666666668,wmoUnit:degC,91,0,,,,,,,,
Matagorda,28.86711039,-95.98533866,26.11111111111111,wmoUnit:degC,94,11,6501.749698608354,wmoUnit:m,,,,,,
Burnet,30.78843382,-98.18252382,22.77777777777778,wmoUnit:degC,100,4,16093.44,wmoUnit:m,,,,,,
Rains,32.87004212,-95.79347545,21.666666666666668,wmoUnit:degC,97,5,11265.408,wmoUnit:m,,,,,,
Hays,30.05782657,-98.03104087,23.333333333333332,wmoUnit:degC,97,5,14548.469698608355,wmoUnit:m,,,,,,
Mason,30.71742293,-99.2263026,22.77777777777778,wmoUnit:degC,93,0,16093.44,wmoUnit:m,,,,,,
Ward,31.509424,-103.1024636,23.333333333333332,wmoUnit:degC,84,0,16093.44,wmoUnit:m,,,,,,
Delta,33.38623601,-95.67221685,21.11111111111111,wmoUnit:degC,97,5,14451.908383300735,wmoUnit:m,,,,,,
Nueces,27.72621549,-97.61767326,26.11111111111111,wmoUnit:degC,92,0,15562.35660278313,wmoUnit:m,,,,,,
Callahan,32.2977738,-99.37359692,20.555555555555557,wmoUnit:degC,90,6,16093.44,wmoUnit:m,,,,,,
Bell,31.03778267,-97.47790776,22.77777777777778,wmoUnit:degC,100,10,16093.44,wmoUnit:m,,,,,,
Ellis,32.34839264,-96.79467417,22.77777777777778,wmoUnit:degC,93,5,16093.44,wmoUnit:m,,,,,,
Lubbock,33.6101944,-101.8205745,18.88888888888889,wmoUnit:degC,85,58,15111.740712524488,wmoUnit:m,,,,,,
Terrell,30.22502597,-102.0764533,25.0,wmoUnit:degC,82,0,16093.44,wmoUnit:m,,,,,,
Crockett,30.72291931,-101.4118364,23.88888888888889,wmoUnit:degC,87,4,16093.44,wmoUnit:m,,,,,,
Atascosa,28.89418432,-98.52741302,25.0,wmoUnit:degC,90,0,16093.44,wmoUnit:m,,,,,,
Ector,31.86908156,-102.5430907,21.666666666666668,wmoUnit:degC,87,0,16093.44,wmoUnit:m,,,,,,
Brazos,30.6610425,-96.3022943,23.333333333333332,wmoUnit:degC,97,0,16093.44,wmoUnit:m,,,,,,
Aransas,28.12709562,-96.99258951,27.22222222222222,wmoUnit:degC,90,2,16061.252383300736,wmoUnit:m,,,,,,
Dallas,32.76653746,-96.77781862,22.22222222222222,wmoUnit:degC,90,4,16093.44,wmoUnit:m,,,,,,
Howard,32.30610232,-101.4355097,23.88888888888889,wmoUnit:degC,76,0,16093.44,wmoUnit:m,,,,,,
Motley,34.07409017,-100.7798961,17.22222222222222,wmoUnit:degC,95,51,11297.594849304178,wmoUnit:m,,,,,,
Maverick,28.74260943,-100.3144638,26.11111111111111,wmoUnit:degC,88,0,16093.44,wmoUnit:m,,,,,,
Erath,32.23640361,-98.21722756,19.444444444444443,wmoUnit:degC,97,3,14532.375890258803,wmoUnit:m,,,,,,
Dickens,33.61663428,-100.7788138,18.333333333333332,wmoUnit:degC,89,51,11442.436054870599,wmoUnit:m,,,,,,
Caldwell,29.83677935,-97.61983479,24.444444444444443,wmoUnit:degC,100,4,12746.00460278313,wmoUnit:m,,,,,,
Dawson,32.74258137,-101.9476136,22.22222222222222,wmoUnit:degC,76,0,16093.44,wmoUnit:m,,,,,,
Duval,27.68133382,-98.50889672,25.0,wmoUnit:degC,94,0,15900.318904174776,wmoUnit:m,,,,,,
Hunt,33.123531,-96.08550014,21.666666666666668,wmoUnit:degC,90,5,16093.44,wmoUnit:m,,,,,,
Mills,31.49524259,-98.59552736,21.666666666666668,wmoUnit:degC,100,5,11265.408,wmoUnit:m,,,,,,
Val Verde,29.89300587,-101.15171,23.88888888888889,wmoUnit:degC,84,5,16093.44,wmoUnit:m,,,,,,
Pecos,30.78100044,-102.7235743,23.88888888888889,wmoUnit:degC,84,0,16093.44,wmoUnit:m,,,,,,
Baylor,33.61648147,-99.21351964,20.0,wmoUnit:degC,84,0,,,,,,,,
Cochran,33.60410808,-102.8285264,17.22222222222222,wmoUnit:degC,94,65,14805.964493041933,wmoUnit:m,,,,,,
Jasper,30.74391255,-94.02495849,22.77777777777778,wmoUnit:degC,97,3,7885.785753478953,wmoUnit:m,,,,,,
Hamilton,31.70479181,-98.11066654,22.22222222222222,wmoUnit:degC,93,6,11265.408,wmoUnit:m,,,,,,
Castro,34.53000304,-102.2617608,15.0,wmoUnit:degC,96,61,13405.83539721687,wmoUnit:m,,,,,,
Sterling,31.82786516,-101.0500699,22.22222222222222,wmoUnit:degC,87,15,16093.44,wmoUnit:m,,,,,,
Starr,26.56212627,-98.73834895,25.555555555555557,wmoUnit:degC,89,0,,,,,,,,
Crane,31.42846287,-102.5156425,23.333333333333332,wmoUnit:degC,87,0,16093.44,wmoUnit:m,,,,,,
Briscoe,34.53041048,-101.2085769,15.555555555555555,wmoUnit:degC,99,52,11651.650191650448,wmoUnit:m,,,,,,
Tom Green,31.4044442,-100.4620678,22.77777777777778,wmoUnit:degC,90,3,16093.44,wmoUnit:m,,,,,,
Menard,30.88981785,-99.82061472,22.77777777777778,wmoUnit:degC,97,0,16093.44,wmoUnit:m,,,,,,
Parker,32.77852261,-97.80472194,19.444444444444443,wmoUnit:degC,93,5,13856.451287475511,wmoUnit:m,,,,,,
Walker,30.73899492,-95.57224172,22.77777777777778,wmoUnit:degC,97,0,16029.066301391646,wmoUnit:m,,,Flood Warning,Severe,Immediate,2025-06-06T03:00:00-05:00
Brooks,27.0315669,-98.21874127,25.0,wmoUnit:degC,93,0,,,,,,,,
La Salle,28.34621032,-99.1034773,26.11111111111111,wmoUnit:degC,85,0,16093.44,wmoUnit:m,,,,,,
Edwards,29.98248216,-100.3048937,22.77777777777778,wmoUnit:degC,90,5,16093.44,wmoUnit:m,,,,,,
Lee,30.31065065,-96.96568735,23.88888888888889,wmoUnit:degC,100,6,12746.00460278313,wmoUnit:m,,,,,,
Robertson,31.02705415,-96.51272568,23.333333333333332,wmoUnit:degC,97,8,15626.730301391646,wmoUnit:m,,,,,,
Young,33.17670764,-98.68781396,18.88888888888889,wmoUnit:degC,93,19,11265.408,wmoUnit:m,,,,,,
Bee,28.41736675,-97.74116811,24.444444444444443,wmoUnit:degC,95,1,15160.02060278313,wmoUnit:m,,,,,,
Clay,33.78379717,-98.208958,18.88888888888889,wmoUnit:degC,100,0,,,,,,,,
San Jacinto,30.57948905,-95.16683273,22.22222222222222,wmoUnit:degC,100,0,6936.272547912532,wmoUnit:m,,,Flood Warning,Severe,Immediate,2025-06-06T03:00:00-05:00
Uvalde,29.35669829,-99.76203107,24.444444444444443,wmoUnit:degC,90,2,16093.44,wmoUnit:m,,,,,,
Haskell,33.17824805,-99.73029401,19.444444444444443,wmoUnit:degC,93,23,16093.44,wmoUnit:m,,,,,,
Somervell,32.22229511,-97.77456553,20.0,wmoUnit:degC,100,4,13840.359013915973,wmoUnit:m,,,,,,
Bexar,29.44884523,-98.51966309,25.0,wmoUnit:degC,90,4,16093.44,wmoUnit:m,,,,,,
Grayson,33.62684371,-96.67764864,19.444444444444443,wmoUnit:degC,97,6,11989.612493041934,wmoUnit:m,,,,,,
Bailey,34.0684915,-102.8299069,16.666666666666668,wmoUnit:degC,95,67,14548.469698608355,wmoUnit:m,,,,,,
Jones,32.73970429,-99.87850599,21.11111111111111,wmoUnit:degC,87,19,16093.44,wmoUnit:m,,,,,,
Jefferson,29.88425832,-94.1708778,23.88888888888889,wmoUnit:degC,90,3,14548.469698608355,wmoUnit:m,,,,,,
Glasscock,31.8694238,-101.520742,22.22222222222222,wmoUnit:degC,87,0,16093.44,wmoUnit:m,,,,,,
Gillespie,30.31800246,-98.94627245,22.22222222222222,wmoUnit:degC,97,0,16093.44,wmoUnit:m,,,,,,
Fisher,32.74305155,-100.4019503,22.22222222222222,wmoUnit:degC,79,28,16093.44,wmoUnit:m,,,,,,
Henderson,32.21188078,-95.85356847,22.22222222222222,wmoUnit:degC,100,4,15578.450411132842,wmoUnit:m,,,Flood Warning,Severe,Immediate,2025-06-06T01:45:00-05:00
Shackelford,32.7360276,-99.35403034,19.444444444444443,wmoUnit:degC,97,14,16093.44,wmoUnit:m,,,,,,
Palo Pinto,32.75316856,-98.31299522,19.444444444444443,wmoUnit:degC,90,8,12053.986191650449,wmoUnit:m,,,,,,
Wilbarger,34.08044953,-99.24089568,20.0,wmoUnit:degC,87,0,,,,,,,,
Floyd,34.07239775,-101.3033037,16.666666666666668,wmoUnit:degC,95,59,13196.620493041934,wmoUnit:m,,,,,,
Orange,30.12807126,-93.89653794,23.88888888888889,wmoUnit:degC,90,3,12746.00460278313,wmoUnit:m,,,,,,
Runnels,31.83105393,-99.97624799,21.666666666666668,wmoUnit:degC,90,5,16093.44,wmoUnit:m,,,,,,
Coleman,31.77329421,-99.45362579,21.666666666666668,wmoUnit:degC,90,2,16093.44,wmoUnit:m,,,,,,
Martin,32.30605847,-101.9512464,22.22222222222222,wmoUnit:degC,84,0,16093.44,wmoUnit:m,,,,,,
Wheeler,35.40129002,-100.2697634,17.22222222222222,wmoUnit:degC,97,12,,,,,,,,
Culberson,31.44709817,-104.5177421,19.444444444444443,wmoUnit:degC,84,0,12746.00460278313,wmoUnit:m,,,,,,
Mitchell,32.30636024,-100.9211128,25.0,wmoUnit:degC,76,0,16093.44,wmoUnit:m,,,,,,
Hudspeth,31.45613738,-105.3869428,22.22222222222222,wmoUnit:degC,64,12,16029.066301391646,wmoUnit:m,,,,,,
Liberty,30.15153187,-94.8120925,23.88888888888889,wmoUnit:degC,90,0,11265.408,wmoUnit:m,,,Flood Warning,Severe,Immediate,2025-06-06T02:45:00-05:00
Williamson,30.64834941,-97.60105467,24.444444444444443,wmoUnit:degC,94,4,14548.469698608355,wmoUnit:m,,,,,,
Loving,31.84912973,-103.5799063,23.88888888888889,wmoUnit:degC,76,0,16093.44,wmoUnit:m,,,,,,
Jim Wells,27.73131099,-98.0898649,25.555555555555557,wmoUnit:degC,92,0,14049.572383300736,wmoUnit:m,,,,,,
Upton,31.36853957,-102.0430005,23.333333333333332,wmoUnit:degC,90,0,16093.44,wmoUnit:m,,,,,,
Newton,30.78619977,-93.74462993,22.22222222222222,wmoUnit:degC,97,2,9543.409643737756,wmoUnit:m,,,,,,
Lamar,33.66746186,-95.57110784,21.11111111111111,wmoUnit:degC,97,6,11265.408,wmoUnit:m,,,,,,
Polk,30.79250963,-94.82994949,22.77777777777778,wmoUnit:degC,97,0,8497.336657653728,wmoUnit:m,,,Flood Warning,Severe,Immediate,2025-06-05T21:45:00-05:00
Collin,33.18789055,-96.57248871,20.555555555555557,wmoUnit:degC,93,6,16093.44,wmoUnit:m,,,,,,
Hardeman,34.28865227,-99.7453851,21.11111111111111,wmoUnit:degC,78,0,,,,,,,,
McMullen,28.35351091,-98.56842256,25.555555555555557,wmoUnit:degC,91,0,16029.066301391646,wmoUnit:m,,,,,,
Cottle,34.0776571,-100.2786983,18.333333333333332,wmoUnit:degC,91,41,12617.25720556642,wmoUnit:m,,,,,,
Frio,28.86726774,-99.10826004,26.11111111111111,wmoUnit:degC,88,0,16093.44,wmoUnit:m,,,,,,
Gray,35.40130666,-100.812475,16.666666666666668,wmoUnit:degC,93,14,,,,,,,,
Dallam,36.27777107,-102.6021647,14.444444444444445,wmoUnit:degC,96,24,,,,,,,,
Kenedy,26.92409448,-97.68137783,25.0,wmoUnit:degC,98,0,,,,,,,,
Fort Bend,29.52763253,-95.77090562,25.0,wmoUnit:degC,94,0,11265.408,wmoUnit:m,,,,,,
Armstrong,34.96522076,-101.3572412,16.11111111111111,wmoUnit:degC,100,17,,,,,,,,
Collingsworth,34.96498493,-100.2700733,17.77777777777778,wmoUnit:degC,97,28,,,,,,,,
Sherman,36.27765824,-101.8933822,16.11111111111111,wmoUnit:degC,97,21,,,,,,,,
Terry,33.17373729,-102.335157,18.88888888888889,wmoUnit:degC,92,56,13679.424,wmoUnit:m,,,,,,
Limestone,31.54541898,-96.58056718,22.22222222222222,wmoUnit:degC,97,6,12279.294904174776,wmoUnit:m,,,,,,
Real,29.83182711,-99.82215881,22.77777777777778,wmoUnit:degC,90,2,16093.44,wmoUnit:m,,,,,,
Lynn,33.17685487,-101.8160235,18.88888888888889,wmoUnit:degC,91,55,14741.59079443358,wmoUnit:m,,,,,,
Lavaca,29.38437003,-96.93020993,24.444444444444443,wmoUnit:degC,97,3,11265.408,wmoUnit:m,,,,,,
Nolan,32.3034718,-100.4060989,21.11111111111111,wmoUnit:degC,84,18,16093.44,wmoUnit:m,,,,,,
Gaines,32.74074537,-102.6351246,21.11111111111111,wmoUnit:degC,87,0,16093.44,wmoUnit:m,,,,,,
Montgomery,30.30022409,-95.50301411,23.333333333333332,wmoUnit:degC,97,0,15433.609205566421,wmoUnit:m,,,,,,
Concho,31.32645211,-99.86413426,22.77777777777778,wmoUnit:degC,97,0,16093.44,wmoUnit:m,,,,,,
Hardin,30.33238431,-94.39021394,22.77777777777778,wmoUnit:degC,93,3,11088.379945129402,wmoUnit:m,,,,,,
Harris,29.85967144,-95.39782106,26.11111111111111,wmoUnit:degC,91,0,15658.916383300735,wmoUnit:m,,,,,,
Leon,31.29655719,-95.99554292,22.22222222222222,wmoUnit:degC,97,7,9656.064,wmoUnit:m,,,,,,
Kaufman,32.59927808,-96.28779341,22.77777777777778,wmoUnit:degC,90,4,16093.44,wmoUnit:m,,,,,,
Anderson,31.81321543,-95.65251774,21.11111111111111,wmoUnit:degC,100,6,8400.775342346271,wmoUnit:m,,,Flood Warning,Severe,Immediate,2025-06-05T21:45:00-05:00
San Saba,31.15520543,-98.81754295,22.22222222222222,wmoUnit:degC,97,1,16093.44,wmoUnit:m,,,Flood Warning,Severe,Immediate,2025-06-05T13:00:00-05:00
Schleicher,30.89661056,-100.538097,22.77777777777778,wmoUnit:degC,97,0,16093.44,wmoUnit:m,,,,,,
Colorado,29.6208542,-96.52630821,25.0,wmoUnit:degC,97,0,15980.786411132844,wmoUnit:m,,,,,,
Milam,30.78625299,-96.97683495,23.333333333333332,wmoUnit:degC,100,12,14693.310904174776,wmoUnit:m,,,,,,
Live Oak,28.3514375,-98.12474493,25.0,wmoUnit:degC,92,0,15675.010191650448,wmoUnit:m,,,,,,
Borden,32.7436916,-101.4317533,22.22222222222222,wmoUnit:degC,81,0,16093.44,wmoUnit:m,,,,,,
McCulloch,31.19896752,-99.34754972,22.22222222222222,wmoUnit:degC,97,0,16093.44,wmoUnit:m,,,,,,
Johnson,32.37899918,-97.36660504,21.666666666666668,wmoUnit:degC,90,5,16012.972493041932,wmoUnit:m,,,,,,
Montague,33.67496328,-97.72466993,17.77777777777778,wmoUnit:degC,97,10,11265.408,wmoUnit:m,,,,,,
Stonewall,33.17842158,-100.255259,19.444444444444443,wmoUnit:degC,90,36,13164.434411132843,wmoUnit:m,,,,,,
Comal,29.80816362,-98.27814516,23.333333333333332,wmoUnit:degC,97,5,16093.44,wmoUnit:m,,,,,,
Eastland,32.32739258,-98.8325713,19.444444444444443,wmoUnit:degC,97,6,11265.408,wmoUnit:m,,,,,,
Comanche,31.9490639,-98.55841538,20.555555555555557,wmoUnit:degC,97,4,15964.69260278313,wmoUnit:m,,,,,,
King,33.61641863,-100.2558584,18.333333333333332,wmoUnit:degC,95,43,11007.913205566421,wmoUnit:m,,,,,,
Washington,30.2145299,-96.40356575,25.0,wmoUnit:degC,94,0,8223.748054870599,wmoUnit:m,,,,,,
Webb,27.76102524,-99.33170164,26.11111111111111,wmoUnit:degC,82,0,16093.44,wmoUnit:m,,,,,,
Fayette,29.87683207,-96.91968047,25.0,wmoUnit:degC,97,11,11265.408,wmoUnit:m,,,,,,
Presidio,29.99977786,-104.2405552,20.555555555555557,wmoUnit:degC,84,0,12746.00460278313,wmoUnit:m,,,,,,
Austin,29.88711223,-96.27791829,25.555555555555557,wmoUnit:degC,94,0,9479.0359451294,wmoUnit:m,,,,,,
Randall,34.96594288,-101.8968527,15.555555555555555,wmoUnit:degC,96,31,,,,,,,,
Hood,32.43107878,-97.83280338,20.555555555555557,wmoUnit:degC,93,4,13067.873095825224,wmoUnit:m,,,,,,
Victoria,28.79640594,-96.97176602,25.0,wmoUnit:degC,92,1,14516.283616699264,wmoUnit:m,,,,,,
Hutchinson,35.84000866,-101.3547257,16.11111111111111,wmoUnit:degC,97,15,,,,,Special Weather Statement,Moderate,Expected,2025-06-05T12:30:00-05:00
Coryell,31.39087578,-97.7991883,23.333333333333332,wmoUnit:degC,97,7,11394.15539721687,wmoUnit:m,,,,,,
Jackson,28.95603133,-96.57883268,25.555555555555557,wmoUnit:degC,97,10,11490.715945129401,wmoUnit:m,,,,,,
Taylor,32.30138229,-99.89003941,20.555555555555557,wmoUnit:degC,87,11,16093.44,wmoUnit:m,,,,,,
Zapata,27.00089072,-99.16860134,25.0,wmoUnit:degC,89,0,,,,,,,,
San Patricio,28.00922186,-97.51859857,26.11111111111111,wmoUnit:degC,91,1,15353.141698608355,wmoUnit:m,,,,,,
Grimes,30.54360689,-95.98557334,23.333333333333332,wmoUnit:degC,93,0,16093.44,wmoUnit:m,,,,,,
Lamb,34.06861242,-102.3517095,17.22222222222222,wmoUnit:degC,89,64,15047.367013915973,wmoUnit:m,,,,,,
