countyName,latitude,longitude,temperature,temperature_unit,relativeHumidity,precipitationProbability,visibility,visibility_unit,hazard_phenomenon,hazard_significance,alert_event,alert_severity,alert_urgency,alert_expires
Foard,33.97408519,-99.77871109,25.555555555555557,wmoUnit:degC,73,5,,,FA,A,Tornado Watch,Extreme,Future,2025-05-25T23:00:00-05:00
Blanco,30.26636128,-98.39974086,29.444444444444443,wmoUnit:degC,63,1,11265.408,wmoUnit:m,,,,,,
Hockley,33.60750375,-102.3430919,28.333333333333332,wmoUnit:degC,40,1,16093.44,wmoUnit:m,,,,,,
Llano,30.70566579,-98.68387398,30.0,wmoUnit:degC,59,0,16093.44,wmoUnit:m,,,,,,
Swisher,34.53064989,-101.734951,28.88888888888889,wmoUnit:degC,40,3,16093.44,wmoUnit:m,TO,A,Tornado Watch,Extreme,Future,2025-05-25T23:00:00-05:00
Titus,33.2160906,-94.96509786,31.11111111111111,wmoUnit:degC,66,15,16093.44,wmoUnit:m,FA,A,Flood Watch,Severe,Future,2025-05-26T07:00:00-05:00
Navarro,32.04695429,-96.47248134,25.555555555555557,wmoUnit:degC,88,3,16093.44,wmoUnit:m,FA,A,Flood Watch,Severe,Future,2025-05-25T21:30:00-05:00
Brazoria,29.19345387,-95.45578479,28.88888888888889,wmoUnit:degC,82,0,15449.703013915972,wmoUnit:m,,,Rip Current Statement,Moderate,Expected,2025-05-26T16:00:00-05:00
Hidalgo,26.396627,-98.18088681,33.333333333333336,wmoUnit:degC,58,0,,,,,Special Weather Statement,Moderate,Expected,2025-05-25T19:00:00-05:00
Archer,33.61539176,-98.68783437,26.666666666666668,wmoUnit:degC,76,3,,,FA,A,Flood Watch,Severe,Future,2025-05-26T04:30:00-05:00
Refugio,28.32681413,-97.16546961,31.666666666666668,wmoUnit:degC,66,1,13067.873095825224,wmoUnit:m,,,,,,
Andrews,32.30506283,-102.6378839,29.444444444444443,wmoUnit:degC,41,0,16093.44,wmoUnit:m,,,,,,
Galveston,29.39424415,-94.96474975,28.88888888888889,wmoUnit:degC,85,0,16077.34619165045,wmoUnit:m,,,Rip Current Statement,Moderate,Expected,2025-05-26T16:00:00-05:00
De Witt,29.08201599,-97.35666976,31.11111111111111,wmoUnit:degC,72,18,12746.00460278313,wmoUnit:m,,,,,,
Gonzales,29.45641495,-97.49279927,31.11111111111111,wmoUnit:degC,70,11,12746.00460278313,wmoUnit:m,,,,,,
Wharton,29.2778362,-96.22197375,28.88888888888889,wmoUnit:degC,80,0,13405.83539721687,wmoUnit:m,,,,,,
Fannin,33.59396919,-96.10656755,25.555555555555557,wmoUnit:degC,85,4,16093.44,wmoUnit:m,FA,A,Flood Watch,Severe,Future,2025-05-25T21:30:00-05:00
Madison,30.96564645,-95.92818441,27.77777777777778,wmoUnit:degC,85,0,15658.916383300735,wmoUnit:m,,,,,,
Moore,35.83768863,-101.8929556,19.444444444444443,wmoUnit:degC,78,6,,,,,,,,
Tyler,30.7712607,-94.37651432,26.666666666666668,wmoUnit:degC,88,2,16093.44,wmoUnit:m,,,Flood Warning,Severe,Immediate,2025-05-26T12:00:00-05:00
Lipscomb,36.27778432,-100.27317,21.11111111111111,wmoUnit:degC,78,6,,,,,,,,
Burleson,30.49246139,-96.62109399,27.77777777777778,wmoUnit:degC,82,0,15980.786411132844,wmoUnit:m,,,,,,
Jim Hogg,27.04340499,-98.6972921,32.77777777777778,wmoUnit:degC,59,0,,,,,,,,
Throckmorton,33.17753907,-99.21236832,27.77777777777778,wmoUnit:degC,67,3,16093.44,wmoUnit:m,TO,A,Tornado Watch,Extreme,Future,2025-05-25T23:00:00-05:00
Kleberg,27.43274395,-97.72889778,31.666666666666668,wmoUnit:degC,68,1,16093.44,wmoUnit:m,,,,,,
Shelby,31.79242191,-94.14495261,28.88888888888889,wmoUnit:degC,63,18,16093.44,wmoUnit:m,FA,A,Flood Watch,Severe,Future,2025-05-26T07:00:00-05:00
Garza,33.17991074,-101.2984496,29.444444444444443,wmoUnit:degC,59,1,15594.542684692382,wmoUnit:m,TO,A,Tornado Watch,Extreme,Future,2025-05-25T23:00:00-05:00
Karnes,28.90493782,-97.85960621,31.666666666666668,wmoUnit:degC,64,5,16093.44,wmoUnit:m,,,,,,
Reeves,31.32307061,-103.693143,32.22222222222222,wmoUnit:degC,23,0,16093.44,wmoUnit:m,,,,,,
Houston,31.31764137,-95.42225367,27.22222222222222,wmoUnit:degC,97,0,12327.574794433578,wmoUnit:m,,,Flood Warning,Severe,Immediate,2025-05-26T12:00:00-05:00
El Paso,31.7686226,-106.2352229,18.333333333333332,wmoUnit:degC,16,0,16093.44,wmoUnit:m,,,,,,
Carson,35.40346802,-101.3542037,22.77777777777778,wmoUnit:degC,68,0,,,,,,,,
Medina,29.35520493,-99.11008331,30.0,wmoUnit:degC,63,1,16093.44,wmoUnit:m,,,,,,
Wichita,33.98421585,-98.70153389,25.0,wmoUnit:degC,76,4,,,FA,A,Flood Watch,Severe,Future,2025-05-26T04:30:00-05:00
Chambers,29.73912276,-94.60891308,29.444444444444443,wmoUnit:degC,80,0,16093.44,wmoUnit:m,,,,,,
Donley,34.96540246,-100.8140501,26.11111111111111,wmoUnit:degC,53,0,,,,,Severe Thunderstorm Warning,Severe,Immediate,2025-05-25T19:00:00-05:00
Hopkins,33.14933822,-95.56414173,25.555555555555557,wmoUnit:degC,88,1,14548.469698608355,wmoUnit:m,FA,A,Flood Watch,Severe,Future,2025-05-25T21:30:00-05:00
Lampasas,31.19627791,-98.24142711,24.444444444444443,wmoUnit:degC,87,1,16093.44,wmoUnit:m,,,,,,
Falls,31.25317017,-96.93579511,25.555555555555557,wmoUnit:degC,91,7,16093.44,wmoUnit:m,,,,,,
Stephens,32.73584155,-98.83612016,25.0,wmoUnit:degC,74,0,11265.408,wmoUnit:m,,,,,,
Travis,30.33423319,-97.78194654,31.666666666666668,wmoUnit:degC,66,2,16093.44,wmoUnit:m,,,,,,
Roberts,35.8385577,-100.8135689,22.22222222222222,wmoUnit:degC,77,3,,,,,,,,
Crosby,33.61459873,-101.2998612,27.77777777777778,wmoUnit:degC,60,3,15900.318904174776,wmoUnit:m,TO,A,Severe Thunderstorm Warning,Severe,Immediate,2025-05-25T18:30:00-05:00
Kerr,30.06153035,-99.35016969,27.77777777777778,wmoUnit:degC,67,1,16093.44,wmoUnit:m,,,,,,
Wood,32.78634374,-95.38206498,30.555555555555557,wmoUnit:degC,65,15,16093.44,wmoUnit:m,FA,A,Flood Watch,Severe,Future,2025-05-26T07:00:00-05:00
Jack,33.23345819,-98.1725509,23.88888888888889,wmoUnit:degC,76,2,16093.44,wmoUnit:m,,,,,,
Marion,32.79797929,-94.35725239,32.22222222222222,wmoUnit:degC,66,18,16093.44,wmoUnit:m,FA,A,Flood Watch,Severe,Future,2025-05-26T07:00:00-05:00
Hale,34.07051782,-101.8269082,28.333333333333332,wmoUnit:degC,46,2,16093.44,wmoUnit:m,TO,A,Tornado Watch,Extreme,Future,2025-05-25T23:00:00-05:00
Jeff Davis,30.71559322,-104.1403539,25.555555555555557,wmoUnit:degC,12,0,16093.44,wmoUnit:m,,,,,,
Tarrant,32.77185236,-97.29116473,25.555555555555557,wmoUnit:degC,79,1,16093.44,wmoUnit:m,FA,A,Flood Watch,Severe,Future,2025-05-25T21:30:00-05:00
Waller,30.01093722,-95.98768942,28.333333333333332,wmoUnit:degC,82,0,13341.461698608355,wmoUnit:m,,,,,,
Reagan,31.36617698,-101.5230108,28.88888888888889,wmoUnit:degC,59,0,16093.44,wmoUnit:m,,,,,,
Smith,32.37514553,-95.26909511,32.22222222222222,wmoUnit:degC,62,15,16093.44,wmoUnit:m,FA,A,Flood Watch,Severe,Future,2025-05-26T07:00:00-05:00
Van Zandt,32.56368961,-95.8364862,25.0,wmoUnit:degC,88,2,16093.44,wmoUnit:m,FA,A,Flood Watch,Severe,Future,2025-05-25T21:30:00-05:00
Cooke,33.638465,-97.21247642,25.0,wmoUnit:degC,85,6,16093.44,wmoUnit:m,FA,A,Flood Watch,Severe,Future,2025-05-25T21:30:00-05:00
Zavala,28.86530621,-99.76102001,30.555555555555557,wmoUnit:degC,63,0,16093.44,wmoUnit:m,,,,,,
Hall,34.53074134,-100.6809876,27.77777777777778,wmoUnit:degC,60,6,16093.44,wmoUnit:m,TO,A,Severe Thunderstorm Warning,Severe,Immediate,2025-05-25T18:45:00-05:00
Kendall,29.9446397,-98.71160511,28.333333333333332,wmoUnit:degC,74,3,16093.44,wmoUnit:m,,,,,,
Goliad,28.65708563,-97.42646082,31.11111111111111,wmoUnit:degC,63,1,15916.412712524489,wmoUnit:m,,,,,,
Yoakum,33.17293501,-102.8278792,27.77777777777778,wmoUnit:degC,34,0,16093.44,wmoUnit:m,,,,,,
Knox,33.60614755,-99.74144313,26.11111111111111,wmoUnit:degC,78,3,,,FA,A,Tornado Watch,Extreme,Future,2025-05-25T23:00:00-05:00
McLennan,31.55234489,-97.20184883,25.555555555555557,wmoUnit:degC,88,5,16093.44,wmoUnit:m,,,,,,
Brewster,29.81205836,-103.2518906,29.444444444444443,wmoUnit:degC,35,0,16093.44,wmoUnit:m,,,,,,
Panola,32.16222886,-94.30552858,31.11111111111111,wmoUnit:degC,68,18,16093.44,wmoUnit:m,FA,A,Flood Watch,Severe,Future,2025-05-26T07:00:00-05:00
Bandera,29.74724753,-99.24637282,27.77777777777778,wmoUnit:degC,69,1,16093.44,wmoUnit:m,,,,,,
Parmer,34.53014507,-102.784594,23.333333333333332,wmoUnit:degC,57,0,16061.252383300736,wmoUnit:m,,,,,,
Rockwall,32.89786769,-96.40780584,25.0,wmoUnit:degC,90,1,16093.44,wmoUnit:m,FA,A,Flood Watch,Severe,Future,2025-05-25T21:30:00-05:00
Trinity,31.0885069,-95.13551682,27.77777777777778,wmoUnit:degC,88,0,14757.68460278313,wmoUnit:m,,,Flood Warning,Severe,Immediate,2025-05-26T12:00:00-05:00
Bosque,31.90050476,-97.63437613,25.0,wmoUnit:degC,94,3,16093.44,wmoUnit:m,,,,,,
Coke,31.88849293,-100.5298747,27.77777777777778,wmoUnit:degC,61,0,16093.44,wmoUnit:m,,,,,,
Franklin,33.17550691,-95.21841437,31.11111111111111,wmoUnit:degC,63,15,16093.44,wmoUnit:m,FA,A,Flood Watch,Severe,Future,2025-05-26T07:00:00-05:00
Hill,31.99079033,-97.1324142,25.0,wmoUnit:degC,100,3,16093.44,wmoUnit:m,FA,A,Flood Watch,Severe,Future,2025-05-25T21:30:00-05:00
Calhoun,28.48966896,-96.64708119,30.555555555555557,wmoUnit:degC,75,1,15980.786411132844,wmoUnit:m,,,,,,
Irion,31.30393203,-100.9824126,27.22222222222222,wmoUnit:degC,67,0,16093.44,wmoUnit:m,,,,,,
Midland,31.86921148,-102.0315032,29.444444444444443,wmoUnit:degC,57,0,16093.44,wmoUnit:m,,,,,,
Brown,31.77432313,-98.99989649,26.666666666666668,wmoUnit:degC,74,1,16093.44,wmoUnit:m,,,,,,
Wilson,29.17315896,-98.08621015,30.555555555555557,wmoUnit:degC,68,2,12746.00460278313,wmoUnit:m,,,,,,
Oldham,35.40497586,-102.6029949,21.666666666666668,wmoUnit:degC,73,0,,,,,,,,
Freestone,31.70486443,-96.14918535,25.0,wmoUnit:degC,88,5,16093.44,wmoUnit:m,,,,,,
Sabine,31.34321941,-93.85170439,32.22222222222222,wmoUnit:degC,62,18,16093.44,wmoUnit:m,FA,A,Flood Watch,Severe,Future,2025-05-26T07:00:00-05:00
Deaf Smith,34.96602014,-102.6048162,23.333333333333332,wmoUnit:degC,58,0,,,,,,,,
Angelina,31.25475875,-94.611742,31.11111111111111,wmoUnit:degC,61,18,16093.44,wmoUnit:m,FA,A,Flood Watch,Severe,Future,2025-05-26T07:00:00-05:00
Kent,33.18284492,-100.7791031,31.11111111111111,wmoUnit:degC,53,2,16093.44,wmoUnit:m,TO,A,Tornado Watch,Extreme,Future,2025-05-25T23:00:00-05:00
Red River,33.62074539,-95.0501886,32.22222222222222,wmoUnit:degC,64,18,16093.44,wmoUnit:m,FA,A,Flood Watch,Severe,Future,2025-05-26T07:00:00-05:00
Kinney,29.35000302,-100.4178441,28.333333333333332,wmoUnit:degC,67,0,16093.44,wmoUnit:m,,,,,,
Denton,33.205574,-97.11681154,25.555555555555557,wmoUnit:degC,85,3,16093.44,wmoUnit:m,FA,A,Flood Watch,Severe,Future,2025-05-25T21:30:00-05:00
Sutton,30.49747152,-100.5382263,27.22222222222222,wmoUnit:degC,63,1,16093.44,wmoUnit:m,,,,,,
Guadalupe,29.58257236,-97.94850308,30.555555555555557,wmoUnit:degC,68,3,11265.408,wmoUnit:m,,,,,,
Winkler,31.85008609,-103.0484794,28.88888888888889,wmoUnit:degC,38,0,16093.44,wmoUnit:m,,,,,,
Dimmit,28.42161168,-99.760574,32.22222222222222,wmoUnit:degC,58,0,14548.469698608355,wmoUnit:m,,,,,,
Wise,33.21585061,-97.65444124,25.0,wmoUnit:degC,76,5,16093.44,wmoUnit:m,,,,,,
Hemphill,35.83750155,-100.2704628,22.77777777777778,wmoUnit:degC,73,4,,,,,,,,
Potter,35.40128927,-101.8940484,22.77777777777778,wmoUnit:degC,70,0,,,,,,,,
Childress,34.52929257,-100.2075664,26.11111111111111,wmoUnit:degC,60,7,16093.44,wmoUnit:m,TO,A,Tornado Watch,Extreme,Future,2025-05-25T23:00:00-05:00
Willacy,26.47132899,-97.64303323,32.77777777777778,wmoUnit:degC,64,0,,,,,Special Weather Statement,Moderate,Expected,2025-05-25T19:00:00-05:00
Bastrop,30.10353518,-97.31187705,32.22222222222222,wmoUnit:degC,64,12,12746.00460278313,wmoUnit:m,,,,,,
Kimble,30.48676251,-99.74892716,27.77777777777778,wmoUnit:degC,63,0,16093.44,wmoUnit:m,,,,,,
Scurry,32.74720063,-100.9165071,28.333333333333332,wmoUnit:degC,61,0,16093.44,wmoUnit:m,,,,,,
Ochiltree,36.27846334,-100.815653,20.0,wmoUnit:degC,83,8,,,,,,,,
Hansford,36.27753179,-101.3545624,19.444444444444443,wmoUnit:degC,81,11,,,,,,,,
Hartley,35.83996755,-102.6028835,18.88888888888889,wmoUnit:degC,77,2,,,,,,,,
Cameron,26.13847728,-97.51499968,33.333333333333336,wmoUnit:degC,58,0,,,,,Special Weather Statement,Moderate,Expected,2025-05-25T19:00:00-05:00
Matagorda,28.86711039,-95.98533866,28.88888888888889,wmoUnit:degC,85,0,15449.703013915972,wmoUnit:m,,,Rip Current Statement,Moderate,Expected,2025-05-26T16:00:00-05:00
Burnet,30.78843382,-98.18252382,28.88888888888889,wmoUnit:degC,67,1,16093.44,wmoUnit:m,,,,,,
Rains,32.87004212,-95.79347545,25.0,wmoUnit:degC,90,2,16093.44,wmoUnit:m,FA,A,Flood Watch,Severe,Future,2025-05-25T21:30:00-05:00
Hays,30.05782657,-98.03104087,30.0,wmoUnit:degC,70,3,12746.00460278313,wmoUnit:m,,,,,,
Mason,30.71742293,-99.2263026,27.77777777777778,wmoUnit:degC,65,0,16093.44,wmoUnit:m,,,,,,
Ward,31.509424,-103.1024636,31.11111111111111,wmoUnit:degC,33,0,16093.44,wmoUnit:m,,,,,,
Delta,33.38623601,-95.67221685,25.555555555555557,wmoUnit:degC,88,1,14548.469698608355,wmoUnit:m,FA,A,Flood Watch,Severe,Future,2025-05-25T21:30:00-05:00
Nueces,27.72621549,-97.61767326,31.666666666666668,wmoUnit:degC,68,1,16093.44,wmoUnit:m,,,,,,
Callahan,32.2977738,-99.37359692,26.11111111111111,wmoUnit:degC,72,1,16093.44,wmoUnit:m,,,,,,
Bell,31.03778267,-97.47790776,25.555555555555557,wmoUnit:degC,91,5,16093.44,wmoUnit:m,,,,,,
Cherokee,31.83695632,-95.16515234,30.0,wmoUnit:degC,72,18,16093.44,wmoUnit:m,FA,A,Flood Watch,Severe,Future,2025-05-26T07:00:00-05:00
Ellis,32.34839264,-96.79467417,24.444444444444443,wmoUnit:degC,97,1,11265.408,wmoUnit:m,FA,A,Flood Watch,Severe,Future,2025-05-25T21:30:00-05:00
Lubbock,33.6101944,-101.8205745,31.666666666666668,wmoUnit:degC,39,2,16093.44,wmoUnit:m,TO,A,Tornado Watch,Extreme,Future,2025-05-25T23:00:00-05:00
Terrell,30.22502597,-102.0764533,29.444444444444443,wmoUnit:degC,57,0,16093.44,wmoUnit:m,,,,,,
Crockett,30.72291931,-101.4118364,26.11111111111111,wmoUnit:degC,67,0,16093.44,wmoUnit:m,,,,,,
Atascosa,28.89418432,-98.52741302,30.0,wmoUnit:degC,68,1,16093.44,wmoUnit:m,,,,,,
Ector,31.86908156,-102.5430907,28.333333333333332,wmoUnit:degC,53,0,16093.44,wmoUnit:m,,,,,,
Brazos,30.6610425,-96.3022943,27.77777777777778,wmoUnit:degC,85,0,15835.94520556642,wmoUnit:m,,,,,,
Aransas,28.12709562,-96.99258951,28.333333333333332,wmoUnit:degC,88,1,11683.837808349552,wmoUnit:m,,,,,,
Dallas,32.76653746,-96.77781862,25.0,wmoUnit:degC,88,1,16093.44,wmoUnit:m,FA,A,Flood Watch,Severe,Future,2025-05-25T21:30:00-05:00
Howard,32.30610232,-101.4355097,29.444444444444443,wmoUnit:degC,55,0,16093.44,wmoUnit:m,,,Special Weather Statement,Moderate,Expected,2025-05-25T18:30:00-05:00
Motley,34.07409017,-100.7798961,29.444444444444443,wmoUnit:degC,59,5,16093.44,wmoUnit:m,TO,A,Severe Thunderstorm Warning,Severe,Immediate,2025-05-25T18:30:00-05:00
San Augustine,31.39427005,-94.16809762,31.11111111111111,wmoUnit:degC,61,18,16093.44,wmoUnit:m,FA,A,Flood Watch,Severe,Future,2025-05-26T07:00:00-05:00
Maverick,28.74260943,-100.3144638,31.666666666666668,wmoUnit:degC,59,0,16093.44,wmoUnit:m,,,,,,
Erath,32.23640361,-98.21722756,23.88888888888889,wmoUnit:degC,82,0,16093.44,wmoUnit:m,,,,,,
Dickens,33.61663428,-100.7788138,28.88888888888889,wmoUnit:degC,65,4,16093.44,wmoUnit:m,TO,A,Severe Thunderstorm Warning,Severe,Immediate,2025-05-25T19:00:00-05:00
Caldwell,29.83677935,-97.61983479,31.666666666666668,wmoUnit:degC,68,5,16093.44,wmoUnit:m,,,,,,
Dawson,32.74258137,-101.9476136,27.22222222222222,wmoUnit:degC,65,0,16093.44,wmoUnit:m,,,,,,
Camp,32.97321771,-94.97860185,31.11111111111111,wmoUnit:degC,63,15,16093.44,wmoUnit:m,FA,A,Flood Watch,Severe,Future,2025-05-26T07:00:00-05:00
Duval,27.68133382,-98.50889672,32.22222222222222,wmoUnit:degC,60,1,16077.34619165045,wmoUnit:m,,,,,,
Hunt,33.123531,-96.08550014,25.0,wmoUnit:degC,94,1,16093.44,wmoUnit:m,FA,A,Flood Watch,Severe,Future,2025-05-25T21:30:00-05:00
Mills,31.49524259,-98.59552736,23.88888888888889,wmoUnit:degC,87,0,16093.44,wmoUnit:m,,,,,,
Val Verde,29.89300587,-101.15171,27.77777777777778,wmoUnit:degC,67,0,16093.44,wmoUnit:m,,,,,,
Pecos,30.78100044,-102.7235743,29.444444444444443,wmoUnit:degC,41,0,16093.44,wmoUnit:m,,,,,,
Baylor,33.61648147,-99.21351964,25.555555555555557,wmoUnit:degC,75,3,,,FA,A,Tornado Watch,Extreme,Future,2025-05-25T23:00:00-05:00
Gregg,32.48036452,-94.81723694,32.22222222222222,wmoUnit:degC,62,17,16093.44,wmoUnit:m,FA,A,Flood Watch,Severe,Future,2025-05-26T07:00:00-05:00
Cochran,33.60410808,-102.8285264,30.555555555555557,wmoUnit:degC,24,0,16093.44,wmoUnit:m,,,,,,
Jasper,30.74391255,-94.02495849,27.22222222222222,wmoUnit:degC,85,2,12746.00460278313,wmoUnit:m,,,,,,
Hamilton,31.70479181,-98.11066654,24.444444444444443,wmoUnit:degC,87,1,16093.44,wmoUnit:m,,,,,,
Castro,34.53000304,-102.2617608,26.666666666666668,wmoUnit:degC,38,1,16093.44,wmoUnit:m,,,,,,
Sterling,31.82786516,-101.0500699,27.77777777777778,wmoUnit:degC,67,0,16093.44,wmoUnit:m,,,,,,
Starr,26.56212627,-98.73834895,33.333333333333336,wmoUnit:degC,61,0,,,,,Special Weather Statement,Moderate,Expected,2025-05-25T19:00:00-05:00
Crane,31.42846287,-102.5156425,30.0,wmoUnit:degC,50,0,16093.44,wmoUnit:m,,,,,,
Morris,33.11368507,-94.73205137,31.11111111111111,wmoUnit:degC,66,16,16093.44,wmoUnit:m,FA,A,Flood Watch,Severe,Future,2025-05-26T07:00:00-05:00
Briscoe,34.53041048,-101.2085769,26.11111111111111,wmoUnit:degC,56,4,16093.44,wmoUnit:m,TO,A,Severe Thunderstorm Warning,Severe,Immediate,2025-05-25T18:45:00-05:00
Tom Green,31.4044442,-100.4620678,27.77777777777778,wmoUnit:degC,65,0,16093.44,wmoUnit:m,,,,,,
Menard,30.88981785,-99.82061472,27.22222222222222,wmoUnit:degC,65,0,16093.44,wmoUnit:m,,,,,,
Parker,32.77852261,-97.80472194,24.444444444444443,wmoUnit:degC,82,2,16093.44,wmoUnit:m,,,,,,
Walker,30.73899492,-95.57224172,28.88888888888889,wmoUnit:degC,77,0,15948.59879443358,wmoUnit:m,,,,,,
Brooks,27.0315669,-98.21874127,33.333333333333336,wmoUnit:degC,58,0,,,,,Special Weather Statement,Moderate,Expected,2025-05-25T19:00:00-05:00
La Salle,28.34621032,-99.1034773,32.77777777777778,wmoUnit:degC,58,1,16093.44,wmoUnit:m,,,,,,
Edwards,29.98248216,-100.3048937,26.666666666666668,wmoUnit:degC,69,0,16093.44,wmoUnit:m,,,,,,
Lee,30.31065065,-96.96568735,30.555555555555557,wmoUnit:degC,70,18,14548.469698608355,wmoUnit:m,,,,,,
Robertson,31.02705415,-96.51272568,25.555555555555557,wmoUnit:degC,91,2,16093.44,wmoUnit:m,,,,,,
Young,33.17670764,-98.68781396,24.444444444444443,wmoUnit:degC,69,1,16093.44,wmoUnit:m,,,,,,
Bee,28.41736675,-97.74116811,31.666666666666668,wmoUnit:degC,61,1,15932.504986084026,wmoUnit:m,,,,,,
Clay,33.78379717,-98.208958,27.77777777777778,wmoUnit:degC,71,5,,,FA,A,Flood Watch,Severe,Future,2025-05-26T04:30:00-05:00
San Jacinto,30.57948905,-95.16683273,27.77777777777778,wmoUnit:degC,82,0,15546.262794433578,wmoUnit:m,,,,,,
Uvalde,29.35669829,-99.76203107,28.88888888888889,wmoUnit:degC,65,1,16093.44,wmoUnit:m,,,,,,
Haskell,33.17824805,-99.73029401,28.333333333333332,wmoUnit:degC,65,3,16093.44,wmoUnit:m,TO,A,Tornado Watch,Extreme,Future,2025-05-25T23:00:00-05:00
Somervell,32.22229511,-97.77456553,25.0,wmoUnit:degC,85,1,16093.44,wmoUnit:m,,,,,,
Bexar,29.44884523,-98.51966309,30.555555555555557,wmoUnit:degC,68,3,14548.469698608355,wmoUnit:m,,,,,,
Grayson,33.62684371,-96.67764864,24.444444444444443,wmoUnit:degC,87,6,16093.44,wmoUnit:m,FA,A,Flood Watch,Severe,Future,2025-05-25T21:30:00-05:00
Bailey,34.0684915,-102.8299069,27.22222222222222,wmoUnit:degC,37,0,16093.44,wmoUnit:m,,,,,,
Jones,32.73970429,-99.87850599,28.333333333333332,wmoUnit:degC,61,2,16093.44,wmoUnit:m,,,,,,
Jefferson,29.88425832,-94.1708778,28.333333333333332,wmoUnit:degC,80,3,16093.44,wmoUnit:m,,,,,,
Rusk,32.10803224,-94.76169577,33.333333333333336,wmoUnit:degC,60,18,16093.44,wmoUnit:m,FA,A,Flood Watch,Severe,Future,2025-05-26T07:00:00-05:00
Glasscock,31.8694238,-101.520742,28.88888888888889,wmoUnit:degC,61,0,16093.44,wmoUnit:m,,,Special Weather Statement,Moderate,Expected,2025-05-25T18:30:00-05:00
Gillespie,30.31800246,-98.94627245,27.77777777777778,wmoUnit:degC,65,0,16093.44,wmoUnit:m,,,,,,
Fisher,32.74305155,-100.4019503,28.88888888888889,wmoUnit:degC,61,2,16093.44,wmoUnit:m,,,,,,
Henderson,32.21188078,-95.85356847,25.555555555555557,wmoUnit:degC,85,2,16093.44,wmoUnit:m,FA,A,Flood Watch,Severe,Future,2025-05-25T21:30:00-05:00
Shackelford,32.7360276,-99.35403034,27.22222222222222,wmoUnit:degC,67,1,16093.44,wmoUnit:m,,,,,,
Palo Pinto,32.75316856,-98.31299522,24.444444444444443,wmoUnit:degC,79,2,16093.44,wmoUnit:m,,,,,,
Wilbarger,34.08044953,-99.24089568,25.0,wmoUnit:degC,78,6,,,FA,A,Tornado Watch,Extreme,Future,2025-05-25T23:00:00-05:00
Floyd,34.07239775,-101.3033037,30.555555555555557,wmoUnit:degC,46,4,16093.44,wmoUnit:m,TO,A,Severe Thunderstorm Warning,Severe,Immediate,2025-05-25T18:30:00-05:00
Orange,30.12807126,-93.89653794,27.77777777777778,wmoUnit:degC,85,4,16093.44,wmoUnit:m,,,Flood Warning,Severe,Immediate,2025-05-26T12:00:00-05:00
Runnels,31.83105393,-99.97624799,27.22222222222222,wmoUnit:degC,65,0,16093.44,wmoUnit:m,,,,,,
Coleman,31.77329421,-99.45362579,26.11111111111111,wmoUnit:degC,69,0,16093.44,wmoUnit:m,,,,,,
Martin,32.30605847,-101.9512464,27.77777777777778,wmoUnit:degC,63,0,16093.44,wmoUnit:m,,,,,,
Wheeler,35.40129002,-100.2697634,25.555555555555557,wmoUnit:degC,57,1,,,,,,,,
Culberson,31.44709817,-104.5177421,28.333333333333332,wmoUnit:degC,7,0,16093.44,wmoUnit:m,,,,,,
Mitchell,32.30636024,-100.9211128,30.0,wmoUnit:degC,55,0,16093.44,wmoUnit:m,,,,,,
Hudspeth,31.45613738,-105.3869428,17.22222222222222,wmoUnit:degC,18,0,16093.44,wmoUnit:m,,,,,,
Upshur,32.7362827,-94.94132011,31.11111111111111,wmoUnit:degC,61,15,16093.44,wmoUnit:m,FA,A,Flood Watch,Severe,Future,2025-05-26T07:00:00-05:00
Liberty,30.15153187,-94.8120925,28.333333333333332,wmoUnit:degC,80,0,14419.722301391646,wmoUnit:m,,,,,,
Williamson,30.64834941,-97.60105467,31.11111111111111,wmoUnit:degC,66,3,12746.00460278313,wmoUnit:m,,,,,,
Nacogdoches,31.61604108,-94.6158776,30.0,wmoUnit:degC,70,18,16093.44,wmoUnit:m,FA,A,Flood Watch,Severe,Future,2025-05-26T07:00:00-05:00
Loving,31.84912973,-103.5799063,28.88888888888889,wmoUnit:degC,32,0,16093.44,wmoUnit:m,,,,,,
Jim Wells,27.73131099,-98.0898649,32.77777777777778,wmoUnit:degC,62,1,16093.44,wmoUnit:m,,,,,,
Upton,31.36853957,-102.0430005,28.333333333333332,wmoUnit:degC,61,0,16093.44,wmoUnit:m,,,,,,
Newton,30.78619977,-93.74462993,26.666666666666668,wmoUnit:degC,88,3,16093.44,wmoUnit:m,,,Flood Warning,Severe,Immediate,2025-05-26T12:00:00-05:00
Lamar,33.66746186,-95.57110784,24.444444444444443,wmoUnit:degC,90,3,12746.00460278313,wmoUnit:m,FA,A,Flood Watch,Severe,Future,2025-05-25T21:30:00-05:00
Polk,30.79250963,-94.82994949,27.77777777777778,wmoUnit:degC,79,0,15288.768,wmoUnit:m,,,Flood Warning,Severe,Immediate,2025-05-26T12:00:00-05:00
Collin,33.18789055,-96.57248871,25.0,wmoUnit:degC,85,2,16093.44,wmoUnit:m,FA,A,Flood Watch,Severe,Future,2025-05-25T21:30:00-05:00
Hardeman,34.28865227,-99.7453851,25.0,wmoUnit:degC,70,7,,,FA,A,Tornado Watch,Extreme,Future,2025-05-25T23:00:00-05:00
McMullen,28.35351091,-98.56842256,33.333333333333336,wmoUnit:degC,58,1,16061.252383300736,wmoUnit:m,,,,,,
Cottle,34.0776571,-100.2786983,26.11111111111111,wmoUnit:degC,69,6,16093.44,wmoUnit:m,TO,A,Severe Thunderstorm Warning,Severe,Immediate,2025-05-25T18:45:00-05:00
Frio,28.86726774,-99.10826004,30.555555555555557,wmoUnit:degC,65,0,16093.44,wmoUnit:m,,,,,,
Gray,35.40130666,-100.812475,24.444444444444443,wmoUnit:degC,60,0,,,,,,,,
Dallam,36.27777107,-102.6021647,15.555555555555555,wmoUnit:degC,91,8,,,,,,,,
Kenedy,26.92409448,-97.68137783,32.77777777777778,wmoUnit:degC,64,0,,,,,Special Weather Statement,Moderate,Expected,2025-05-25T19:00:00-05:00
Fort Bend,29.52763253,-95.77090562,29.444444444444443,wmoUnit:degC,77,0,13373.649315307619,wmoUnit:m,,,,,,
Armstrong,34.96522076,-101.3572412,25.555555555555557,wmoUnit:degC,52,0,,,,,Severe Thunderstorm Warning,Severe,Immediate,2025-05-25T19:00:00-05:00
Collingsworth,34.96498493,-100.2700733,26.666666666666668,wmoUnit:degC,52,1,,,,,,,,
Cass,33.07750446,-94.34348771,31.666666666666668,wmoUnit:degC,64,18,16093.44,wmoUnit:m,FA,A,Flood Watch,Severe,Future,2025-05-26T07:00:00-05:00
Sherman,36.27765824,-101.8933822,17.22222222222222,wmoUnit:degC,87,11,,,,,,,,
Terry,33.17373729,-102.335157,31.11111111111111,wmoUnit:degC,34,0,16093.44,wmoUnit:m,,,,,,
Limestone,31.54541898,-96.58056718,25.0,wmoUnit:degC,88,4,16093.44,wmoUnit:m,,,,,,
Real,29.83182711,-99.82215881,26.11111111111111,wmoUnit:degC,69,1,16093.44,wmoUnit:m,,,,,,
Lynn,33.17685487,-101.8160235,31.666666666666668,wmoUnit:degC,48,1,16093.44,wmoUnit:m,TO,A,Tornado Watch,Extreme,Future,2025-05-25T23:00:00-05:00
Lavaca,29.38437003,-96.93020993,31.11111111111111,wmoUnit:degC,75,20,16093.44,wmoUnit:m,,,,,,
Nolan,32.3034718,-100.4060989,26.666666666666668,wmoUnit:degC,65,0,16093.44,wmoUnit:m,,,,,,
Gaines,32.74074537,-102.6351246,28.333333333333332,wmoUnit:degC,44,0,16093.44,wmoUnit:m,,,,,,
Montgomery,30.30022409,-95.50301411,28.88888888888889,wmoUnit:degC,82,0,16093.44,wmoUnit:m,,,,,,
Concho,31.32645211,-99.86413426,26.666666666666668,wmoUnit:degC,67,0,16093.44,wmoUnit:m,,,,,,
Hardin,30.33238431,-94.39021394,27.22222222222222,wmoUnit:degC,85,4,16093.44,wmoUnit:m,,,,,,
Harris,29.85967144,-95.39782106,28.88888888888889,wmoUnit:degC,77,0,16077.34619165045,wmoUnit:m,,,,,,
Leon,31.29655719,-95.99554292,25.0,wmoUnit:degC,94,3,16093.44,wmoUnit:m,,,,,,
Bowie,33.44572786,-94.42324298,31.666666666666668,wmoUnit:degC,66,18,16093.44,wmoUnit:m,FA,A,Special Weather Statement,Moderate,Expected,2025-05-25T18:45:00-05:00
Kaufman,32.59927808,-96.28779341,25.555555555555557,wmoUnit:degC,85,1,16093.44,wmoUnit:m,FA,A,Flood Watch,Severe,Future,2025-05-25T21:30:00-05:00
Anderson,31.81321543,-95.65251774,24.444444444444443,wmoUnit:degC,97,4,16093.44,wmoUnit:m,,,,,,
San Saba,31.15520543,-98.81754295,27.22222222222222,wmoUnit:degC,72,0,16093.44,wmoUnit:m,,,,,,
Schleicher,30.89661056,-100.538097,26.666666666666668,wmoUnit:degC,65,0,16093.44,wmoUnit:m,,,,,,
Colorado,29.6208542,-96.52630821,28.333333333333332,wmoUnit:degC,82,0,14645.031013915974,wmoUnit:m,,,,,,
Milam,30.78625299,-96.97683495,26.11111111111111,wmoUnit:degC,88,2,16093.44,wmoUnit:m,,,,,,
Live Oak,28.3514375,-98.12474493,33.333333333333336,wmoUnit:degC,60,1,16012.972493041932,wmoUnit:m,,,,,,
Borden,32.7436916,-101.4317533,28.88888888888889,wmoUnit:degC,55,0,16093.44,wmoUnit:m,,,,,,
McCulloch,31.19896752,-99.34754972,26.11111111111111,wmoUnit:degC,72,0,16093.44,wmoUnit:m,,,,,,
Johnson,32.37899918,-97.36660504,25.0,wmoUnit:degC,94,1,11265.408,wmoUnit:m,FA,A,Flood Watch,Severe,Future,2025-05-25T21:30:00-05:00
Montague,33.67496328,-97.72466993,24.444444444444443,wmoUnit:degC,82,5,16093.44,wmoUnit:m,FA,A,Flood Watch,Severe,Future,2025-05-25T21:30:00-05:00
Stonewall,33.17842158,-100.255259,30.555555555555557,wmoUnit:degC,57,3,16093.44,wmoUnit:m,TO,A,Severe Thunderstorm Warning,Severe,Immediate,2025-05-25T18:15:00-05:00
Comal,29.80816362,-98.27814516,28.88888888888889,wmoUnit:degC,72,4,11265.408,wmoUnit:m,,,,,,
Eastland,32.32739258,-98.8325713,23.88888888888889,wmoUnit:degC,79,0,16093.44,wmoUnit:m,,,,,,
Comanche,31.9490639,-98.55841538,24.444444444444443,wmoUnit:degC,82,0,16093.44,wmoUnit:m,,,,,,
King,33.61641863,-100.2558584,28.88888888888889,wmoUnit:degC,67,4,16093.44,wmoUnit:m,TO,A,Severe Thunderstorm Warning,Severe,Immediate,2025-05-25T19:00:00-05:00
Washington,30.2145299,-96.40356575,27.77777777777778,wmoUnit:degC,82,0,13293.181808349551,wmoUnit:m,,,,,,
Webb,27.76102524,-99.33170164,32.22222222222222,wmoUnit:degC,56,1,16093.44,wmoUnit:m,,,,,,
Fayette,29.87683207,-96.91968047,31.11111111111111,wmoUnit:degC,72,20,14548.469698608355,wmoUnit:m,,,,,,
Harrison,32.54814898,-94.37155736,31.11111111111111,wmoUnit:degC,72,18,16093.44,wmoUnit:m,FA,A,Flood Watch,Severe,Future,2025-05-26T07:00:00-05:00
Presidio,29.99977786,-104.2405552,28.333333333333332,wmoUnit:degC,16,0,16093.44,wmoUnit:m,,,,,,
Austin,29.88711223,-96.27791829,28.333333333333332,wmoUnit:degC,80,0,13373.649315307619,wmoUnit:m,,,,,,
Randall,34.96594288,-101.8968527,24.444444444444443,wmoUnit:degC,61,0,,,,,,,,
Hood,32.43107878,-97.83280338,25.0,wmoUnit:degC,79,0,16093.44,wmoUnit:m,,,,,,
Victoria,28.79640594,-96.97176602,31.666666666666668,wmoUnit:degC,68,2,16077.34619165045,wmoUnit:m,,,,,,
Hutchinson,35.84000866,-101.3547257,21.666666666666668,wmoUnit:degC,75,5,,,,,,,,
Coryell,31.39087578,-97.7991883,25.555555555555557,wmoUnit:degC,97,3,16093.44,wmoUnit:m,,,,,,
Jackson,28.95603133,-96.57883268,29.444444444444443,wmoUnit:degC,82,0,14210.50739721687,wmoUnit:m,,,,,,
Taylor,32.30138229,-99.89003941,26.666666666666668,wmoUnit:degC,62,0,16093.44,wmoUnit:m,,,,,,
Zapata,27.00089072,-99.16860134,33.333333333333336,wmoUnit:degC,53,0,,,,,,,,
San Patricio,28.00922186,-97.51859857,30.555555555555557,wmoUnit:degC,75,1,15916.412712524489,wmoUnit:m,,,,,,
Grimes,30.54360689,-95.98557334,28.88888888888889,wmoUnit:degC,88,0,16077.34619165045,wmoUnit:m,,,,,,
Lamb,34.06861242,-102.3517095,27.77777777777778,wmoUnit:degC,40,1,16093.44,wmoUnit:m,,,,,,
