countyName,latitude,longitude,temperature,temperature_unit,relativeHumidity,precipitationProbability,visibility,visibility_unit,hazard_phenomenon,hazard_significance,alert_event,alert_severity,alert_urgency,alert_expires
Foard,33.97408519,-99.77871109,27.77777777777778,wmoUnit:degC,67,14,,,FA,A,Special Weather Statement,Moderate,Expected,2025-06-15T09:15:00-05:00
Blanco,30.26636128,-98.39974086,25.0,wmoUnit:degC,91,1,16093.44,wmoUnit:m,,,,,,
Hockley,33.60750375,-102.3430919,23.88888888888889,wmoUnit:degC,66,0,16093.44,wmoUnit:m,,,,,,
Llano,30.70566579,-98.68387398,26.11111111111111,wmoUnit:degC,72,1,16093.44,wmoUnit:m,,,,,,
Swisher,34.53064989,-101.734951,22.22222222222222,wmoUnit:degC,73,3,16093.44,wmoUnit:m,,,,,,
Titus,33.2160906,-94.96509786,23.333333333333332,wmoUnit:degC,99,4,16093.44,wmoUnit:m,,,Flood Warning,Severe,Immediate,2025-06-15T22:00:00-05:00
Navarro,32.04695429,-96.47248134,26.11111111111111,wmoUnit:degC,88,2,16093.44,wmoUnit:m,,,Flood Warning,Severe,Immediate,2025-06-16T02:15:00-05:00
Brazoria,29.19345387,-95.45578479,26.11111111111111,wmoUnit:degC,100,5,6437.376,wmoUnit:m,,,Flood Warning,Severe,Immediate,2025-06-16T02:30:00-05:00
Hidalgo,26.396627,-98.18088681,27.77777777777778,wmoUnit:degC,87,4,,,,,,,,
Archer,33.61539176,-98.68783437,26.666666666666668,wmoUnit:degC,79,15,,,FA,A,Special Weather Statement,Moderate,Expected,2025-06-15T09:15:00-05:00
Refugio,28.32681413,-97.16546961,26.666666666666668,wmoUnit:degC,94,3,14564.563506958068,wmoUnit:m,,,Flood Warning,Severe,Immediate,2025-06-16T00:00:00-05:00
Andrews,32.30506283,-102.6378839,28.333333333333332,wmoUnit:degC,49,0,15063.459287475513,wmoUnit:m,,,,,,
Galveston,29.39424415,-94.96474975,26.666666666666668,wmoUnit:degC,88,5,14645.031013915974,wmoUnit:m,,,,,,
De Witt,29.08201599,-97.35666976,25.555555555555557,wmoUnit:degC,96,2,11265.408,wmoUnit:m,,,,,,
Gonzales,29.45641495,-97.49279927,26.11111111111111,wmoUnit:degC,96,2,11265.408,wmoUnit:m,,,,,,
Wharton,29.2778362,-96.22197375,25.0,wmoUnit:degC,100,4,6533.936547912532,wmoUnit:m,,,Flood Warning,Severe,Immediate,2025-06-16T02:30:00-05:00
Fannin,33.59396919,-96.10656755,24.444444444444443,wmoUnit:degC,94,5,16093.44,wmoUnit:m,,,,,,
Madison,30.96564645,-95.92818441,22.77777777777778,wmoUnit:degC,97,1,13695.517808349552,wmoUnit:m,,,Flood Warning,Severe,Immediate,2025-06-16T02:30:00-05:00
Moore,35.83768863,-101.8929556,22.77777777777778,wmoUnit:degC,66,8,,,,,,,,
Tyler,30.7712607,-94.37651432,23.88888888888889,wmoUnit:degC,97,1,13148.34060278313,wmoUnit:m,,,,,,
Lipscomb,36.27778432,-100.27317,23.333333333333332,wmoUnit:degC,84,29,,,,,,,,
Burleson,30.49246139,-96.62109399,25.0,wmoUnit:degC,97,3,13438.023013915972,wmoUnit:m,,,,,,
Jim Hogg,27.04340499,-98.6972921,26.666666666666668,wmoUnit:degC,91,1,,,,,,,,
Throckmorton,33.17753907,-99.21236832,33.333333333333336,wmoUnit:degC,52,2,16093.44,wmoUnit:m,,,,,,
Kleberg,27.43274395,-97.72889778,28.333333333333332,wmoUnit:degC,88,2,15868.131287475511,wmoUnit:m,,,,,,
Shelby,31.79242191,-94.14495261,22.77777777777778,wmoUnit:degC,98,3,16093.44,wmoUnit:m,,,,,,
Garza,33.17991074,-101.2984496,25.0,wmoUnit:degC,67,0,16093.44,wmoUnit:m,,,,,,
Karnes,28.90493782,-97.85960621,26.11111111111111,wmoUnit:degC,88,2,11265.408,wmoUnit:m,,,,,,
Reeves,31.32307061,-103.693143,30.0,wmoUnit:degC,42,1,15948.59879443358,wmoUnit:m,,,,,,
Houston,31.31764137,-95.42225367,23.88888888888889,wmoUnit:degC,100,2,14516.283616699264,wmoUnit:m,,,Flood Warning,Severe,Expected,2025-06-16T02:30:00-05:00
El Paso,31.7686226,-106.2352229,31.11111111111111,wmoUnit:degC,17,0,16093.44,wmoUnit:m,HT,Y,Heat Advisory,Moderate,Expected,2025-06-15T16:15:00-06:00
Carson,35.40346802,-101.3542037,24.444444444444443,wmoUnit:degC,69,8,,,,,,,,
Medina,29.35520493,-99.11008331,27.22222222222222,wmoUnit:degC,88,2,16093.44,wmoUnit:m,,,,,,
Wichita,33.98421585,-98.70153389,26.11111111111111,wmoUnit:degC,79,17,,,FA,A,Special Weather Statement,Moderate,Expected,2025-06-15T09:15:00-05:00
Chambers,29.73912276,-94.60891308,26.11111111111111,wmoUnit:degC,100,8,14468.002191650448,wmoUnit:m,,,Flood Warning,Severe,Immediate,2025-06-16T02:30:00-05:00
Donley,34.96540246,-100.8140501,24.444444444444443,wmoUnit:degC,74,8,,,,,,,,
Hopkins,33.14933822,-95.56414173,24.444444444444443,wmoUnit:degC,94,5,16093.44,wmoUnit:m,,,,,,
Lampasas,31.19627791,-98.24142711,25.0,wmoUnit:degC,85,2,16093.44,wmoUnit:m,,,,,,
Falls,31.25317017,-96.93579511,25.555555555555557,wmoUnit:degC,94,3,16093.44,wmoUnit:m,,,,,,
Stephens,32.73584155,-98.83612016,27.22222222222222,wmoUnit:degC,72,1,16093.44,wmoUnit:m,,,,,,
Travis,30.33423319,-97.78194654,26.666666666666668,wmoUnit:degC,87,2,14564.563506958068,wmoUnit:m,,,,,,
Roberts,35.8385577,-100.8135689,25.0,wmoUnit:degC,71,11,,,,,,,,
Crosby,33.61459873,-101.2998612,22.22222222222222,wmoUnit:degC,79,2,16093.44,wmoUnit:m,,,,,,
Kerr,30.06153035,-99.35016969,24.444444444444443,wmoUnit:degC,82,2,16093.44,wmoUnit:m,,,,,,
Wood,32.78634374,-95.38206498,24.444444444444443,wmoUnit:degC,93,3,16093.44,wmoUnit:m,,,Flood Warning,Severe,Immediate,2025-06-15T21:30:00-05:00
Jack,33.23345819,-98.1725509,26.666666666666668,wmoUnit:degC,82,1,16093.44,wmoUnit:m,,,,,,
Marion,32.79797929,-94.35725239,23.333333333333332,wmoUnit:degC,99,4,16093.44,wmoUnit:m,,,Flood Warning,Severe,Immediate,2025-06-15T22:00:00-05:00
Hale,34.07051782,-101.8269082,23.333333333333332,wmoUnit:degC,71,1,16093.44,wmoUnit:m,,,,,,
Jeff Davis,30.71559322,-104.1403539,21.11111111111111,wmoUnit:degC,55,0,16093.44,wmoUnit:m,,,,,,
Tarrant,32.77185236,-97.29116473,26.11111111111111,wmoUnit:degC,85,2,16093.44,wmoUnit:m,,,,,,
Waller,30.01093722,-95.98768942,26.11111111111111,wmoUnit:degC,94,3,7113.30060278313,wmoUnit:m,,,,,,
Reagan,31.36617698,-101.5230108,26.666666666666668,wmoUnit:degC,62,1,15723.291616699264,wmoUnit:m,,,,,,
Smith,32.37514553,-95.26909511,23.88888888888889,wmoUnit:degC,95,2,16093.44,wmoUnit:m,,,Flood Warning,Severe,Immediate,2025-06-15T21:30:00-05:00
Van Zandt,32.56368961,-95.8364862,25.0,wmoUnit:degC,90,3,16093.44,wmoUnit:m,,,,,,
Cooke,33.638465,-97.21247642,26.666666666666668,wmoUnit:degC,88,2,16093.44,wmoUnit:m,,,Flood Advisory,Minor,Expected,2025-06-15T11:30:00-05:00
Zavala,28.86530621,-99.76102001,28.88888888888889,wmoUnit:degC,89,3,16093.44,wmoUnit:m,,,,,,
Hall,34.53074134,-100.6809876,24.444444444444443,wmoUnit:degC,76,9,16093.44,wmoUnit:m,,,,,,
Kendall,29.9446397,-98.71160511,25.0,wmoUnit:degC,89,1,16093.44,wmoUnit:m,,,,,,
Goliad,28.65708563,-97.42646082,26.11111111111111,wmoUnit:degC,91,2,13953.01260278313,wmoUnit:m,,,,,,
Yoakum,33.17293501,-102.8278792,23.88888888888889,wmoUnit:degC,66,0,16093.44,wmoUnit:m,,,,,,
Knox,33.60614755,-99.74144313,27.77777777777778,wmoUnit:degC,69,13,,,FA,A,Special Weather Statement,Moderate,Expected,2025-06-15T09:15:00-05:00
McLennan,31.55234489,-97.20184883,26.11111111111111,wmoUnit:degC,91,2,16093.44,wmoUnit:m,,,,,,
Brewster,29.81205836,-103.2518906,27.22222222222222,wmoUnit:degC,51,0,16093.44,wmoUnit:m,,,,,,
Panola,32.16222886,-94.30552858,23.333333333333332,wmoUnit:degC,100,4,16093.44,wmoUnit:m,,,,,,
Bandera,29.74724753,-99.24637282,25.0,wmoUnit:degC,84,2,14564.563506958068,wmoUnit:m,,,,,,
Parmer,34.53014507,-102.784594,21.11111111111111,wmoUnit:degC,76,1,16093.44,wmoUnit:m,,,,,,
Rockwall,32.89786769,-96.40780584,25.555555555555557,wmoUnit:degC,88,4,16093.44,wmoUnit:m,,,,,,
Trinity,31.0885069,-95.13551682,25.0,wmoUnit:degC,100,1,13969.106411132843,wmoUnit:m,,,Flood Warning,Severe,Expected,2025-06-16T02:30:00-05:00
Bosque,31.90050476,-97.63437613,25.0,wmoUnit:degC,90,2,16093.44,wmoUnit:m,,,,,,
Coke,31.88849293,-100.5298747,35.0,wmoUnit:degC,36,2,16093.44,wmoUnit:m,,,,,,
Franklin,33.17550691,-95.21841437,23.333333333333332,wmoUnit:degC,99,5,16093.44,wmoUnit:m,,,Flood Warning,Severe,Immediate,2025-06-15T22:00:00-05:00
Hill,31.99079033,-97.1324142,25.555555555555557,wmoUnit:degC,90,1,16093.44,wmoUnit:m,,,,,,
Calhoun,28.48966896,-96.64708119,28.333333333333332,wmoUnit:degC,88,4,15819.85139721687,wmoUnit:m,,,Flood Warning,Severe,Immediate,2025-06-16T00:00:00-05:00
Irion,31.30393203,-100.9824126,34.44444444444444,wmoUnit:degC,37,1,16093.44,wmoUnit:m,,,,,,
Midland,31.86921148,-102.0315032,28.333333333333332,wmoUnit:degC,53,0,14661.123287475511,wmoUnit:m,,,,,,
Brown,31.77432313,-98.99989649,32.77777777777778,wmoUnit:degC,54,2,16093.44,wmoUnit:m,,,,,,
Wilson,29.17315896,-98.08621015,26.11111111111111,wmoUnit:degC,90,1,14564.563506958068,wmoUnit:m,,,,,,
Oldham,35.40497586,-102.6029949,23.88888888888889,wmoUnit:degC,62,4,,,,,,,,
Freestone,31.70486443,-96.14918535,25.555555555555557,wmoUnit:degC,94,4,16093.44,wmoUnit:m,,,Flood Warning,Severe,Immediate,2025-06-16T02:15:00-05:00
Sabine,31.34321941,-93.85170439,22.22222222222222,wmoUnit:degC,100,4,11152.753643737757,wmoUnit:m,,,,,,
Deaf Smith,34.96602014,-102.6048162,23.333333333333332,wmoUnit:degC,64,3,,,,,,,,
Angelina,31.25475875,-94.611742,24.444444444444443,wmoUnit:degC,96,5,16093.44,wmoUnit:m,,,Flood Warning,Severe,Immediate,2025-06-15T21:15:00-05:00
Kent,33.18284492,-100.7791031,25.0,wmoUnit:degC,74,2,16093.44,wmoUnit:m,,,,,,
Red River,33.62074539,-95.0501886,23.333333333333332,wmoUnit:degC,96,7,14484.096,wmoUnit:m,,,Flood Warning,Severe,Immediate,2025-06-15T22:00:00-05:00
Kinney,29.35000302,-100.4178441,26.666666666666668,wmoUnit:degC,80,2,16093.44,wmoUnit:m,,,,,,
Denton,33.205574,-97.11681154,28.88888888888889,wmoUnit:degC,79,2,16093.44,wmoUnit:m,,,,,,
Sutton,30.49747152,-100.5382263,32.77777777777778,wmoUnit:degC,41,2,16093.44,wmoUnit:m,,,,,,
Guadalupe,29.58257236,-97.94850308,26.11111111111111,wmoUnit:degC,94,1,11265.408,wmoUnit:m,,,,,,
Winkler,31.85008609,-103.0484794,28.88888888888889,wmoUnit:degC,48,0,15787.665315307619,wmoUnit:m,,,,,,
Dimmit,28.42161168,-99.760574,30.555555555555557,wmoUnit:degC,76,3,16093.44,wmoUnit:m,,,,,,
Wise,33.21585061,-97.65444124,26.666666666666668,wmoUnit:degC,85,1,16093.44,wmoUnit:m,,,,,,
Hemphill,35.83750155,-100.2704628,25.555555555555557,wmoUnit:degC,71,14,,,,,,,,
Potter,35.40128927,-101.8940484,25.0,wmoUnit:degC,62,7,,,,,,,,
Childress,34.52929257,-100.2075664,24.444444444444443,wmoUnit:degC,76,7,16093.44,wmoUnit:m,,,,,,
Willacy,26.47132899,-97.64303323,27.77777777777778,wmoUnit:degC,93,4,,,,,,,,
Bastrop,30.10353518,-97.31187705,25.0,wmoUnit:degC,97,3,11265.408,wmoUnit:m,,,,,,
Kimble,30.48676251,-99.74892716,32.77777777777778,wmoUnit:degC,50,7,16093.44,wmoUnit:m,,,,,,
Scurry,32.74720063,-100.9165071,26.666666666666668,wmoUnit:degC,62,1,15594.542684692382,wmoUnit:m,,,,,,
Ochiltree,36.27846334,-100.815653,23.333333333333332,wmoUnit:degC,79,26,,,,,,,,
Hansford,36.27753179,-101.3545624,23.88888888888889,wmoUnit:degC,71,18,,,,,,,,
Hartley,35.83996755,-102.6028835,23.88888888888889,wmoUnit:degC,60,5,,,,,,,,
Cameron,26.13847728,-97.51499968,28.333333333333332,wmoUnit:degC,89,8,,,,,,,,
Matagorda,28.86711039,-95.98533866,27.22222222222222,wmoUnit:degC,100,4,6807.525150695823,wmoUnit:m,,,,,,
Burnet,30.78843382,-98.18252382,24.444444444444443,wmoUnit:degC,83,1,16093.44,wmoUnit:m,,,,,,
Rains,32.87004212,-95.79347545,24.444444444444443,wmoUnit:degC,94,4,16093.44,wmoUnit:m,,,,,,
Hays,30.05782657,-98.03104087,25.0,wmoUnit:degC,89,1,11265.408,wmoUnit:m,,,,,,
Mason,30.71742293,-99.2263026,31.666666666666668,wmoUnit:degC,56,12,16093.44,wmoUnit:m,,,,,,
Ward,31.509424,-103.1024636,29.444444444444443,wmoUnit:degC,46,1,15916.412712524489,wmoUnit:m,,,,,,
Delta,33.38623601,-95.67221685,24.444444444444443,wmoUnit:degC,97,6,16093.44,wmoUnit:m,,,,,,
Nueces,27.72621549,-97.61767326,28.333333333333332,wmoUnit:degC,88,2,16012.972493041932,wmoUnit:m,,,,,,
Callahan,32.2977738,-99.37359692,32.77777777777778,wmoUnit:degC,49,2,16093.44,wmoUnit:m,,,,,,
Bell,31.03778267,-97.47790776,25.555555555555557,wmoUnit:degC,85,3,16093.44,wmoUnit:m,,,,,,
Cherokee,31.83695632,-95.16515234,24.444444444444443,wmoUnit:degC,94,4,16093.44,wmoUnit:m,,,Flood Warning,Severe,Immediate,2025-06-15T21:15:00-05:00
Ellis,32.34839264,-96.79467417,25.555555555555557,wmoUnit:degC,90,1,16093.44,wmoUnit:m,,,,,,
Lubbock,33.6101944,-101.8205745,24.444444444444443,wmoUnit:degC,66,0,16093.44,wmoUnit:m,,,,,,
Terrell,30.22502597,-102.0764533,28.333333333333332,wmoUnit:degC,59,0,16045.160109741197,wmoUnit:m,,,,,,
Crockett,30.72291931,-101.4118364,33.888888888888886,wmoUnit:degC,36,1,16093.44,wmoUnit:m,,,,,,
Atascosa,28.89418432,-98.52741302,26.11111111111111,wmoUnit:degC,84,1,16093.44,wmoUnit:m,,,,,,
Ector,31.86908156,-102.5430907,28.333333333333332,wmoUnit:degC,51,0,15079.553095825224,wmoUnit:m,,,,,,
Brazos,30.6610425,-96.3022943,25.555555555555557,wmoUnit:degC,94,2,13953.01260278313,wmoUnit:m,,,Flood Warning,Severe,Immediate,2025-06-16T02:30:00-05:00
Aransas,28.12709562,-96.99258951,28.88888888888889,wmoUnit:degC,88,3,14886.432,wmoUnit:m,,,,,,
Dallas,32.76653746,-96.77781862,26.666666666666668,wmoUnit:degC,88,3,16093.44,wmoUnit:m,,,,,,
Howard,32.30610232,-101.4355097,27.77777777777778,wmoUnit:degC,55,0,15771.571506958067,wmoUnit:m,,,,,,
Motley,34.07409017,-100.7798961,23.88888888888889,wmoUnit:degC,74,4,16093.44,wmoUnit:m,,,,,,
San Augustine,31.39427005,-94.16809762,22.22222222222222,wmoUnit:degC,100,3,12697.7239451294,wmoUnit:m,,,,,,
Maverick,28.74260943,-100.3144638,30.0,wmoUnit:degC,85,2,16093.44,wmoUnit:m,,,,,,
Erath,32.23640361,-98.21722756,24.444444444444443,wmoUnit:degC,85,2,16093.44,wmoUnit:m,,,,,,
Dickens,33.61663428,-100.7788138,23.88888888888889,wmoUnit:degC,76,2,16093.44,wmoUnit:m,,,,,,
Caldwell,29.83677935,-97.61983479,26.666666666666668,wmoUnit:degC,87,2,11265.408,wmoUnit:m,,,,,,
Dawson,32.74258137,-101.9476136,27.22222222222222,wmoUnit:degC,56,0,15208.300493041934,wmoUnit:m,,,,,,
Camp,32.97321771,-94.97860185,23.333333333333332,wmoUnit:degC,96,3,16093.44,wmoUnit:m,,,,,,
Duval,27.68133382,-98.50889672,27.22222222222222,wmoUnit:degC,88,2,15868.131287475511,wmoUnit:m,,,,,,
Hunt,33.123531,-96.08550014,25.0,wmoUnit:degC,94,5,16093.44,wmoUnit:m,,,,,,
Mills,31.49524259,-98.59552736,26.11111111111111,wmoUnit:degC,85,2,16093.44,wmoUnit:m,,,,,,
Val Verde,29.89300587,-101.15171,27.22222222222222,wmoUnit:degC,69,1,16093.44,wmoUnit:m,,,,,,
Pecos,30.78100044,-102.7235743,26.666666666666668,wmoUnit:degC,56,1,16012.972493041932,wmoUnit:m,,,,,,
Baylor,33.61648147,-99.21351964,26.666666666666668,wmoUnit:degC,74,13,,,FA,A,Special Weather Statement,Moderate,Expected,2025-06-15T09:15:00-05:00
Gregg,32.48036452,-94.81723694,23.88888888888889,wmoUnit:degC,98,3,16093.44,wmoUnit:m,,,Flood Warning,Severe,Immediate,2025-06-15T21:30:00-05:00
Cochran,33.60410808,-102.8285264,22.77777777777778,wmoUnit:degC,71,0,16093.44,wmoUnit:m,,,,,,
Jasper,30.74391255,-94.02495849,23.88888888888889,wmoUnit:degC,100,1,12311.481753478953,wmoUnit:m,,,Flood Warning,Severe,Immediate,2025-06-15T22:00:00-05:00
Hamilton,31.70479181,-98.11066654,25.555555555555557,wmoUnit:degC,90,2,16093.44,wmoUnit:m,,,,,,
Castro,34.53000304,-102.2617608,21.11111111111111,wmoUnit:degC,81,1,16093.44,wmoUnit:m,,,,,,
Sterling,31.82786516,-101.0500699,35.55555555555556,wmoUnit:degC,35,3,16093.44,wmoUnit:m,,,,,,
Starr,26.56212627,-98.73834895,27.22222222222222,wmoUnit:degC,89,1,,,,,,,,
Crane,31.42846287,-102.5156425,28.88888888888889,wmoUnit:degC,51,0,15658.916383300735,wmoUnit:m,,,,,,
Morris,33.11368507,-94.73205137,23.333333333333332,wmoUnit:degC,99,3,16093.44,wmoUnit:m,,,Flood Warning,Severe,Immediate,2025-06-15T22:00:00-05:00
Briscoe,34.53041048,-101.2085769,23.333333333333332,wmoUnit:degC,71,8,16093.44,wmoUnit:m,,,,,,
Tom Green,31.4044442,-100.4620678,33.888888888888886,wmoUnit:degC,43,1,16093.44,wmoUnit:m,,,,,,
Menard,30.88981785,-99.82061472,32.77777777777778,wmoUnit:degC,49,3,16093.44,wmoUnit:m,,,,,,
Parker,32.77852261,-97.80472194,25.555555555555557,wmoUnit:degC,82,1,16093.44,wmoUnit:m,,,,,,
Walker,30.73899492,-95.57224172,25.555555555555557,wmoUnit:degC,94,1,14065.666191650449,wmoUnit:m,,,Flood Warning,Severe,Expected,2025-06-16T02:30:00-05:00
Brooks,27.0315669,-98.21874127,27.22222222222222,wmoUnit:degC,91,3,,,,,,,,
La Salle,28.34621032,-99.1034773,29.444444444444443,wmoUnit:degC,72,2,15079.553095825224,wmoUnit:m,,,,,,
Edwards,29.98248216,-100.3048937,25.555555555555557,wmoUnit:degC,81,1,16093.44,wmoUnit:m,,,,,,
Lee,30.31065065,-96.96568735,25.0,wmoUnit:degC,92,5,11265.408,wmoUnit:m,,,,,,
Robertson,31.02705415,-96.51272568,23.88888888888889,wmoUnit:degC,97,5,16093.44,wmoUnit:m,,,Flood Warning,Severe,Immediate,2025-06-16T02:15:00-05:00
Young,33.17670764,-98.68781396,27.77777777777778,wmoUnit:degC,74,1,16093.44,wmoUnit:m,,,,,,
Bee,28.41736675,-97.74116811,26.666666666666668,wmoUnit:degC,88,2,16029.066301391646,wmoUnit:m,,,,,,
Clay,33.78379717,-98.208958,26.666666666666668,wmoUnit:degC,79,18,,,FA,A,Special Weather Statement,Moderate,Expected,2025-06-15T09:15:00-05:00
San Jacinto,30.57948905,-95.16683273,24.444444444444443,wmoUnit:degC,100,2,14065.666191650449,wmoUnit:m,,,Flood Warning,Severe,Immediate,2025-06-16T02:30:00-05:00
Uvalde,29.35669829,-99.76203107,26.11111111111111,wmoUnit:degC,89,2,16093.44,wmoUnit:m,,,,,,
Haskell,33.17824805,-99.73029401,33.888888888888886,wmoUnit:degC,44,4,16093.44,wmoUnit:m,,,,,,
Somervell,32.22229511,-97.77456553,25.555555555555557,wmoUnit:degC,82,2,16093.44,wmoUnit:m,,,,,,
Bexar,29.44884523,-98.51966309,26.666666666666668,wmoUnit:degC,87,1,16093.44,wmoUnit:m,,,,,,
Grayson,33.62684371,-96.67764864,26.666666666666668,wmoUnit:degC,88,3,16093.44,wmoUnit:m,,,,,,
Bailey,34.0684915,-102.8299069,22.77777777777778,wmoUnit:degC,68,1,16093.44,wmoUnit:m,,,,,,
Jones,32.73970429,-99.87850599,34.44444444444444,wmoUnit:degC,41,5,16093.44,wmoUnit:m,,,,,,
Jefferson,29.88425832,-94.1708778,25.0,wmoUnit:degC,97,3,15835.94520556642,wmoUnit:m,,,Flood Warning,Severe,Immediate,2025-06-15T22:00:00-05:00
Rusk,32.10803224,-94.76169577,24.444444444444443,wmoUnit:degC,92,3,16093.44,wmoUnit:m,,,Flood Warning,Severe,Immediate,2025-06-15T20:30:00-05:00
Glasscock,31.8694238,-101.520742,27.22222222222222,wmoUnit:degC,58,0,15272.674191650449,wmoUnit:m,,,,,,
Gillespie,30.31800246,-98.94627245,23.88888888888889,wmoUnit:degC,92,2,16093.44,wmoUnit:m,,,,,,
Fisher,32.74305155,-100.4019503,35.55555555555556,wmoUnit:degC,35,5,16093.44,wmoUnit:m,,,,,,
Henderson,32.21188078,-95.85356847,25.555555555555557,wmoUnit:degC,90,3,16093.44,wmoUnit:m,,,Flood Warning,Severe,Immediate,2025-06-16T02:15:00-05:00
Shackelford,32.7360276,-99.35403034,33.333333333333336,wmoUnit:degC,49,2,16093.44,wmoUnit:m,,,,,,
Palo Pinto,32.75316856,-98.31299522,26.11111111111111,wmoUnit:degC,79,1,16093.44,wmoUnit:m,,,,,,
Wilbarger,34.08044953,-99.24089568,27.22222222222222,wmoUnit:degC,72,15,,,FA,A,Special Weather Statement,Moderate,Expected,2025-06-15T09:15:00-05:00
Floyd,34.07239775,-101.3033037,22.77777777777778,wmoUnit:degC,76,4,16093.44,wmoUnit:m,,,,,,
Orange,30.12807126,-93.89653794,25.0,wmoUnit:degC,97,1,15771.571506958067,wmoUnit:m,,,Flood Warning,Severe,Immediate,2025-06-15T22:00:00-05:00
Runnels,31.83105393,-99.97624799,34.44444444444444,wmoUnit:degC,41,3,16093.44,wmoUnit:m,,,,,,
Coleman,31.77329421,-99.45362579,33.333333333333336,wmoUnit:degC,44,3,16093.44,wmoUnit:m,,,,,,
Martin,32.30605847,-101.9512464,28.333333333333332,wmoUnit:degC,51,0,14982.993315307618,wmoUnit:m,,,,,,
Wheeler,35.40129002,-100.2697634,25.555555555555557,wmoUnit:degC,69,8,,,,,,,,
Culberson,31.44709817,-104.5177421,25.0,wmoUnit:degC,40,0,16045.160109741197,wmoUnit:m,,,,,,
Mitchell,32.30636024,-100.9211128,28.333333333333332,wmoUnit:degC,57,0,15723.291616699264,wmoUnit:m,,,,,,
Hudspeth,31.45613738,-105.3869428,27.22222222222222,wmoUnit:degC,30,0,16093.44,wmoUnit:m,HT,Y,Heat Advisory,Moderate,Expected,2025-06-15T16:15:00-06:00
Upshur,32.7362827,-94.94132011,23.333333333333332,wmoUnit:degC,98,2,16093.44,wmoUnit:m,,,Flood Warning,Severe,Immediate,2025-06-15T21:30:00-05:00
Liberty,30.15153187,-94.8120925,25.0,wmoUnit:degC,100,6,12939.125698608354,wmoUnit:m,,,Flood Warning,Severe,Immediate,2025-06-16T02:30:00-05:00
Williamson,30.64834941,-97.60105467,25.0,wmoUnit:degC,92,3,11265.408,wmoUnit:m,,,,,,
Nacogdoches,31.61604108,-94.6158776,22.22222222222222,wmoUnit:degC,100,4,16093.44,wmoUnit:m,,,Flood Warning,Severe,Immediate,2025-06-15T21:15:00-05:00
Loving,31.84912973,-103.5799063,29.444444444444443,wmoUnit:degC,48,0,15707.197808349552,wmoUnit:m,,,,,,
Jim Wells,27.73131099,-98.0898649,27.77777777777778,wmoUnit:degC,88,2,15240.488109741196,wmoUnit:m,,,,,,
Upton,31.36853957,-102.0430005,27.77777777777778,wmoUnit:degC,58,0,15578.450411132842,wmoUnit:m,,,,,,
Newton,30.78619977,-93.74462993,23.88888888888889,wmoUnit:degC,97,1,12697.7239451294,wmoUnit:m,,,Flood Warning,Severe,Immediate,2025-06-15T22:00:00-05:00
Lamar,33.66746186,-95.57110784,23.88888888888889,wmoUnit:degC,94,7,16093.44,wmoUnit:m,,,,,,
Polk,30.79250963,-94.82994949,25.555555555555557,wmoUnit:degC,94,1,12987.405588867157,wmoUnit:m,,,Flood Warning,Severe,Immediate,2025-06-16T02:30:00-05:00
Collin,33.18789055,-96.57248871,27.77777777777778,wmoUnit:degC,88,3,16093.44,wmoUnit:m,,,,,,
Hardeman,34.28865227,-99.7453851,27.77777777777778,wmoUnit:degC,67,14,,,FA,A,Flood Watch,Severe,Future,2025-06-15T13:00:00-05:00
McMullen,28.35351091,-98.56842256,28.333333333333332,wmoUnit:degC,82,1,15948.59879443358,wmoUnit:m,,,,,,
Cottle,34.0776571,-100.2786983,23.88888888888889,wmoUnit:degC,79,4,16093.44,wmoUnit:m,,,,,,
Frio,28.86726774,-99.10826004,27.77777777777778,wmoUnit:degC,82,2,16093.44,wmoUnit:m,,,,,,
Gray,35.40130666,-100.812475,24.444444444444443,wmoUnit:degC,74,8,,,,,,,,
Dallam,36.27777107,-102.6021647,23.333333333333332,wmoUnit:degC,59,11,,,,,,,,
Kenedy,26.92409448,-97.68137783,27.22222222222222,wmoUnit:degC,95,5,,,,,,,,
Fort Bend,29.52763253,-95.77090562,26.11111111111111,wmoUnit:degC,94,6,7435.169095825224,wmoUnit:m,,,Flood Warning,Severe,Immediate,2025-06-16T02:30:00-05:00
Armstrong,34.96522076,-101.3572412,24.444444444444443,wmoUnit:degC,69,8,,,,,,,,
Collingsworth,34.96498493,-100.2700733,26.666666666666668,wmoUnit:degC,67,7,,,,,,,,
Cass,33.07750446,-94.34348771,23.88888888888889,wmoUnit:degC,93,5,16093.44,wmoUnit:m,,,Flood Warning,Severe,Immediate,2025-06-15T22:00:00-05:00
Sherman,36.27765824,-101.8933822,22.77777777777778,wmoUnit:degC,68,13,,,,,,,,
Terry,33.17373729,-102.335157,23.333333333333332,wmoUnit:degC,69,0,16093.44,wmoUnit:m,,,,,,
Limestone,31.54541898,-96.58056718,24.444444444444443,wmoUnit:degC,94,3,16093.44,wmoUnit:m,,,,,,
Real,29.83182711,-99.82215881,25.0,wmoUnit:degC,84,2,16093.44,wmoUnit:m,,,,,,
Lynn,33.17685487,-101.8160235,23.88888888888889,wmoUnit:degC,69,0,16093.44,wmoUnit:m,,,,,,
Lavaca,29.38437003,-96.93020993,25.555555555555557,wmoUnit:degC,96,3,11265.408,wmoUnit:m,,,,,,
Nolan,32.3034718,-100.4060989,33.888888888888886,wmoUnit:degC,37,5,16093.44,wmoUnit:m,,,,,,
Gaines,32.74074537,-102.6351246,26.666666666666668,wmoUnit:degC,54,0,15916.412712524489,wmoUnit:m,,,,,,
Montgomery,30.30022409,-95.50301411,25.555555555555557,wmoUnit:degC,88,3,13679.424,wmoUnit:m,,,,,,
Concho,31.32645211,-99.86413426,32.77777777777778,wmoUnit:degC,49,2,16093.44,wmoUnit:m,,,,,,
Hardin,30.33238431,-94.39021394,24.444444444444443,wmoUnit:degC,97,1,14628.93720556642,wmoUnit:m,,,Flood Warning,Severe,Immediate,2025-06-15T22:00:00-05:00
Harris,29.85967144,-95.39782106,27.22222222222222,wmoUnit:degC,91,7,13872.545095825224,wmoUnit:m,,,,,,
Leon,31.29655719,-95.99554292,24.444444444444443,wmoUnit:degC,97,6,16093.44,wmoUnit:m,,,Flood Warning,Severe,Immediate,2025-06-16T02:15:00-05:00
Bowie,33.44572786,-94.42324298,24.444444444444443,wmoUnit:degC,94,7,16093.44,wmoUnit:m,,,Flood Warning,Severe,Immediate,2025-06-15T22:00:00-05:00
Kaufman,32.59927808,-96.28779341,26.11111111111111,wmoUnit:degC,90,3,16093.44,wmoUnit:m,,,,,,
Anderson,31.81321543,-95.65251774,25.0,wmoUnit:degC,100,4,16093.44,wmoUnit:m,,,Flood Warning,Severe,Immediate,2025-06-16T02:15:00-05:00
San Saba,31.15520543,-98.81754295,31.666666666666668,wmoUnit:degC,57,3,16093.44,wmoUnit:m,,,,,,
Schleicher,30.89661056,-100.538097,32.77777777777778,wmoUnit:degC,41,1,16093.44,wmoUnit:m,,,,,,
Colorado,29.6208542,-96.52630821,23.88888888888889,wmoUnit:degC,100,4,8432.96219165045,wmoUnit:m,,,,,,
Milam,30.78625299,-96.97683495,24.444444444444443,wmoUnit:degC,94,4,16093.44,wmoUnit:m,,,,,,
Live Oak,28.3514375,-98.12474493,27.22222222222222,wmoUnit:degC,88,2,15868.131287475511,wmoUnit:m,,,,,,
Borden,32.7436916,-101.4317533,27.77777777777778,wmoUnit:degC,56,1,15642.824109741197,wmoUnit:m,,,,,,
McCulloch,31.19896752,-99.34754972,31.666666666666668,wmoUnit:degC,54,3,16093.44,wmoUnit:m,,,,,,
Johnson,32.37899918,-97.36660504,25.0,wmoUnit:degC,88,1,16093.44,wmoUnit:m,,,,,,
Montague,33.67496328,-97.72466993,26.666666666666668,wmoUnit:degC,82,2,16093.44,wmoUnit:m,,,Flood Advisory,Minor,Expected,2025-06-15T11:30:00-05:00
Stonewall,33.17842158,-100.255259,25.0,wmoUnit:degC,79,2,16093.44,wmoUnit:m,,,,,,
Comal,29.80816362,-98.27814516,25.0,wmoUnit:degC,90,1,11265.408,wmoUnit:m,,,,,,
Eastland,32.32739258,-98.8325713,25.555555555555557,wmoUnit:degC,79,1,16093.44,wmoUnit:m,,,,,,
Comanche,31.9490639,-98.55841538,25.555555555555557,wmoUnit:degC,85,2,16093.44,wmoUnit:m,,,,,,
King,33.61641863,-100.2558584,23.88888888888889,wmoUnit:degC,84,3,16093.44,wmoUnit:m,,,,,,
Washington,30.2145299,-96.40356575,25.0,wmoUnit:degC,97,2,13100.060712524488,wmoUnit:m,,,,,,
Webb,27.76102524,-99.33170164,29.444444444444443,wmoUnit:degC,70,2,15884.225095825224,wmoUnit:m,,,,,,
Fayette,29.87683207,-96.91968047,25.0,wmoUnit:degC,94,2,11265.408,wmoUnit:m,,,,,,
Harrison,32.54814898,-94.37155736,23.333333333333332,wmoUnit:degC,99,4,16093.44,wmoUnit:m,,,,,,
Presidio,29.99977786,-104.2405552,23.88888888888889,wmoUnit:degC,52,1,16093.44,wmoUnit:m,,,,,,
Austin,29.88711223,-96.27791829,25.555555555555557,wmoUnit:degC,97,4,7869.691945129402,wmoUnit:m,,,,,,
Randall,34.96594288,-101.8968527,23.88888888888889,wmoUnit:degC,66,6,,,,,,,,
Hood,32.43107878,-97.83280338,25.0,wmoUnit:degC,82,2,16093.44,wmoUnit:m,,,,,,
Victoria,28.79640594,-96.97176602,26.666666666666668,wmoUnit:degC,94,3,12279.294904174776,wmoUnit:m,,,Flood Warning,Severe,Immediate,2025-06-16T00:00:00-05:00
Hutchinson,35.84000866,-101.3547257,25.0,wmoUnit:degC,69,10,,,,,,,,
Coryell,31.39087578,-97.7991883,25.0,wmoUnit:degC,88,2,16093.44,wmoUnit:m,,,,,,
Jackson,28.95603133,-96.57883268,25.0,wmoUnit:degC,97,4,6550.030356262244,wmoUnit:m,,,,,,
Taylor,32.30138229,-99.89003941,32.77777777777778,wmoUnit:degC,42,5,16093.44,wmoUnit:m,,,,,,
Zapata,27.00089072,-99.16860134,27.22222222222222,wmoUnit:degC,84,0,,,,,,,,
San Patricio,28.00922186,-97.51859857,27.77777777777778,wmoUnit:degC,91,2,13357.555506958068,wmoUnit:m,,,,,,
Grimes,30.54360689,-95.98557334,25.0,wmoUnit:degC,97,2,13389.741588867157,wmoUnit:m,,,Flood Warning,Severe,Immediate,2025-06-16T02:30:00-05:00
Lamb,34.06861242,-102.3517095,22.22222222222222,wmoUnit:degC,76,1,16093.44,wmoUnit:m,,,,,,
