countyName,latitude,longitude,temperature,temperature_unit,relativeHumidity,precipitationProbability,visibility,visibility_unit,hazard_phenomenon,hazard_significance,alert_event,alert_severity,alert_urgency,alert_expires
Foard,33.97408519,-99.77871109,23.333333333333332,wmoUnit:degC,79,33,,,,,,,,
Blanco,30.26636128,-98.39974086,18.88888888888889,wmoUnit:degC,100,55,16093.44,wmoUnit:m,,,,,,
Hockley,33.60750375,-102.3430919,18.88888888888889,wmoUnit:degC,81,28,15739.383890258803,wmoUnit:m,,,,,,
Llano,30.70566579,-98.68387398,18.88888888888889,wmoUnit:degC,99,66,14484.096,wmoUnit:m,,,,,,
Swisher,34.53064989,-101.734951,12.222222222222221,wmoUnit:degC,93,58,12198.82739721687,wmoUnit:m,,,,,,
Titus,33.2160906,-94.96509786,22.77777777777778,wmoUnit:degC,92,34,16093.44,wmoUnit:m,FA,A,Flood Watch,Severe,Future,2025-05-27T07:00:00-05:00
Navarro,32.04695429,-96.47248134,18.88888888888889,wmoUnit:degC,90,72,9656.064,wmoUnit:m,,,Flood Warning,Severe,Immediate,2025-05-27T20:30:00-05:00
Brazoria,29.19345387,-95.45578479,25.555555555555557,wmoUnit:degC,94,10,14999.085588867158,wmoUnit:m,,,Rip Current Statement,Moderate,Expected,2025-05-27T19:00:00-05:00
Hidalgo,26.396627,-98.18088681,29.444444444444443,wmoUnit:degC,74,6,,,,,,,,
Archer,33.61539176,-98.68783437,25.0,wmoUnit:degC,69,51,,,,,,,,
Refugio,28.32681413,-97.16546961,27.22222222222222,wmoUnit:degC,88,1,12697.7239451294,wmoUnit:m,,,,,,
Andrews,32.30506283,-102.6378839,23.333333333333332,wmoUnit:degC,64,0,16093.44,wmoUnit:m,,,,,,
Galveston,29.39424415,-94.96474975,26.666666666666668,wmoUnit:degC,85,11,15369.235506958066,wmoUnit:m,,,Rip Current Statement,Moderate,Expected,2025-05-27T19:00:00-05:00
De Witt,29.08201599,-97.35666976,27.77777777777778,wmoUnit:degC,81,27,16093.44,wmoUnit:m,,,Flood Advisory,Minor,Expected,2025-05-27T06:30:00-05:00
Gonzales,29.45641495,-97.49279927,28.88888888888889,wmoUnit:degC,77,34,16093.44,wmoUnit:m,,,Flood Advisory,Minor,Expected,2025-05-27T06:30:00-05:00
Wharton,29.2778362,-96.22197375,25.0,wmoUnit:degC,90,15,15047.367013915973,wmoUnit:m,,,,,,
Fannin,33.59396919,-96.10656755,20.555555555555557,wmoUnit:degC,97,63,9656.064,wmoUnit:m,,,,,,
Madison,30.96564645,-95.92818441,25.0,wmoUnit:degC,85,60,9656.064,wmoUnit:m,,,,,,
Moore,35.83768863,-101.8929556,15.555555555555555,wmoUnit:degC,84,38,,,SV,A,,,,
Tyler,30.7712607,-94.37651432,25.555555555555557,wmoUnit:degC,88,1,15948.59879443358,wmoUnit:m,,,,,,
Lipscomb,36.27778432,-100.27317,14.444444444444445,wmoUnit:degC,96,54,,,,,,,,
Burleson,30.49246139,-96.62109399,26.666666666666668,wmoUnit:degC,72,52,15803.757588867158,wmoUnit:m,,,,,,
Jim Hogg,27.04340499,-98.6972921,29.444444444444443,wmoUnit:degC,69,4,,,,,,,,
Throckmorton,33.17753907,-99.21236832,20.555555555555557,wmoUnit:degC,87,41,11265.408,wmoUnit:m,,,,,,
Kleberg,27.43274395,-97.72889778,28.88888888888889,wmoUnit:degC,80,0,16093.44,wmoUnit:m,,,,,,
Shelby,31.79242191,-94.14495261,24.444444444444443,wmoUnit:degC,88,23,16093.44,wmoUnit:m,FA,A,Flood Watch,Severe,Future,2025-05-27T07:00:00-05:00
Garza,33.17991074,-101.2984496,18.88888888888889,wmoUnit:degC,97,30,15626.730301391646,wmoUnit:m,,,,,,
Karnes,28.90493782,-97.85960621,28.333333333333332,wmoUnit:degC,73,28,16093.44,wmoUnit:m,,,Flood Advisory,Minor,Expected,2025-05-27T05:30:00-05:00
Reeves,31.32307061,-103.693143,27.77777777777778,wmoUnit:degC,40,0,16093.44,wmoUnit:m,,,,,,
Houston,31.31764137,-95.42225367,22.77777777777778,wmoUnit:degC,97,54,11265.408,wmoUnit:m,,,,,,
El Paso,31.7686226,-106.2352229,30.0,wmoUnit:degC,5,0,15852.039013915974,wmoUnit:m,,,,,,
Carson,35.40346802,-101.3542037,16.666666666666668,wmoUnit:degC,90,17,,,SV,A,,,,
Medina,29.35520493,-99.11008331,30.555555555555557,wmoUnit:degC,66,50,16093.44,wmoUnit:m,,,Flood Advisory,Minor,Expected,2025-05-27T06:00:00-05:00
Wichita,33.98421585,-98.70153389,25.555555555555557,wmoUnit:degC,64,37,,,,,,,,
Chambers,29.73912276,-94.60891308,25.0,wmoUnit:degC,87,11,15932.504986084026,wmoUnit:m,,,,,,
Donley,34.96540246,-100.8140501,17.77777777777778,wmoUnit:degC,87,22,,,SV,A,,,,
Hopkins,33.14933822,-95.56414173,21.666666666666668,wmoUnit:degC,93,70,9656.064,wmoUnit:m,,,,,,
Lampasas,31.19627791,-98.24142711,18.333333333333332,wmoUnit:degC,100,71,9656.064,wmoUnit:m,,,,,,
Falls,31.25317017,-96.93579511,21.666666666666668,wmoUnit:degC,90,69,9656.064,wmoUnit:m,,,,,,
Stephens,32.73584155,-98.83612016,20.0,wmoUnit:degC,100,47,11265.408,wmoUnit:m,,,,,,
Travis,30.33423319,-97.78194654,24.444444444444443,wmoUnit:degC,83,51,16093.44,wmoUnit:m,,,,,,
Roberts,35.8385577,-100.8135689,16.666666666666668,wmoUnit:degC,93,42,,,SV,A,,,,
Crosby,33.61459873,-101.2998612,17.77777777777778,wmoUnit:degC,93,45,15127.832986084028,wmoUnit:m,,,,,,
Kerr,30.06153035,-99.35016969,20.555555555555557,wmoUnit:degC,87,53,16093.44,wmoUnit:m,,,,,,
Wood,32.78634374,-95.38206498,22.22222222222222,wmoUnit:degC,97,63,9656.064,wmoUnit:m,FA,A,Flood Watch,Severe,Future,2025-05-27T07:00:00-05:00
Jack,33.23345819,-98.1725509,18.333333333333332,wmoUnit:degC,100,43,16093.44,wmoUnit:m,,,Flood Warning,Severe,Immediate,2025-05-27T20:30:00-05:00
Marion,32.79797929,-94.35725239,22.22222222222222,wmoUnit:degC,99,41,16093.44,wmoUnit:m,FA,A,Flood Watch,Severe,Future,2025-05-27T07:00:00-05:00
Hale,34.07051782,-101.8269082,16.11111111111111,wmoUnit:degC,81,53,16093.44,wmoUnit:m,,,,,,
Jeff Davis,30.71559322,-104.1403539,25.0,wmoUnit:degC,10,0,16093.44,wmoUnit:m,,,,,,
Tarrant,32.77185236,-97.29116473,20.555555555555557,wmoUnit:degC,93,62,9656.064,wmoUnit:m,,,,,,
Waller,30.01093722,-95.98768942,25.555555555555557,wmoUnit:degC,79,20,13116.152986084027,wmoUnit:m,,,,,,
Reagan,31.36617698,-101.5230108,31.666666666666668,wmoUnit:degC,42,10,16093.44,wmoUnit:m,,,,,,
Smith,32.37514553,-95.26909511,23.333333333333332,wmoUnit:degC,91,50,14484.096,wmoUnit:m,FA,A,Flood Watch,Severe,Future,2025-05-27T07:00:00-05:00
Van Zandt,32.56368961,-95.8364862,20.555555555555557,wmoUnit:degC,93,71,9656.064,wmoUnit:m,,,,,,
Cooke,33.638465,-97.21247642,20.555555555555557,wmoUnit:degC,97,73,3991.1731506958226,wmoUnit:m,,,,,,
Zavala,28.86530621,-99.76102001,33.888888888888886,wmoUnit:degC,57,39,16093.44,wmoUnit:m,,,Flood Advisory,Minor,Expected,2025-05-27T06:00:00-05:00
Hall,34.53074134,-100.6809876,18.88888888888889,wmoUnit:degC,87,47,16077.34619165045,wmoUnit:m,,,,,,
Kendall,29.9446397,-98.71160511,20.0,wmoUnit:degC,90,55,16093.44,wmoUnit:m,,,,,,
Goliad,28.65708563,-97.42646082,26.666666666666668,wmoUnit:degC,85,2,16093.44,wmoUnit:m,SV,A,,,,
Yoakum,33.17293501,-102.8278792,13.88888888888889,wmoUnit:degC,83,11,6743.151452087468,wmoUnit:m,,,,,,
Knox,33.60614755,-99.74144313,24.444444444444443,wmoUnit:degC,76,30,,,,,,,,
McLennan,31.55234489,-97.20184883,20.0,wmoUnit:degC,87,77,9656.064,wmoUnit:m,,,,,,
Brewster,29.81205836,-103.2518906,35.0,wmoUnit:degC,6,0,16093.44,wmoUnit:m,,,,,,
Panola,32.16222886,-94.30552858,23.333333333333332,wmoUnit:degC,95,36,16093.44,wmoUnit:m,FA,A,Flood Watch,Severe,Future,2025-05-27T07:00:00-05:00
Bandera,29.74724753,-99.24637282,23.88888888888889,wmoUnit:degC,79,51,16093.44,wmoUnit:m,,,,,,
Parmer,34.53014507,-102.784594,13.333333333333334,wmoUnit:degC,77,13,16093.44,wmoUnit:m,,,,,,
Rockwall,32.89786769,-96.40780584,20.555555555555557,wmoUnit:degC,100,68,9656.064,wmoUnit:m,,,Flood Warning,Severe,Immediate,2025-05-27T11:00:00-05:00
Trinity,31.0885069,-95.13551682,23.88888888888889,wmoUnit:degC,84,44,13743.797698608354,wmoUnit:m,,,,,,
Bosque,31.90050476,-97.63437613,20.0,wmoUnit:degC,100,70,9656.064,wmoUnit:m,,,,,,
Coke,31.88849293,-100.5298747,23.333333333333332,wmoUnit:degC,74,22,16093.44,wmoUnit:m,,,,,,
Franklin,33.17550691,-95.21841437,22.22222222222222,wmoUnit:degC,94,41,16093.44,wmoUnit:m,FA,A,Flood Watch,Severe,Future,2025-05-27T07:00:00-05:00
Hill,31.99079033,-97.1324142,19.444444444444443,wmoUnit:degC,100,72,9656.064,wmoUnit:m,,,,,,
Calhoun,28.48966896,-96.64708119,28.333333333333332,wmoUnit:degC,88,2,16093.44,wmoUnit:m,SV,A,,,,
Irion,31.30393203,-100.9824126,21.11111111111111,wmoUnit:degC,73,23,16093.44,wmoUnit:m,,,,,,
Midland,31.86921148,-102.0315032,28.333333333333332,wmoUnit:degC,55,2,16093.44,wmoUnit:m,,,,,,
Brown,31.77432313,-98.99989649,21.11111111111111,wmoUnit:degC,90,58,16093.44,wmoUnit:m,,,,,,
Wilson,29.17315896,-98.08621015,29.444444444444443,wmoUnit:degC,71,34,16093.44,wmoUnit:m,,,Flood Advisory,Minor,Expected,2025-05-27T05:00:00-05:00
Oldham,35.40497586,-102.6029949,14.444444444444445,wmoUnit:degC,80,58,,,SV,A,,,,
Freestone,31.70486443,-96.14918535,20.555555555555557,wmoUnit:degC,87,69,9656.064,wmoUnit:m,,,,,,
Sabine,31.34321941,-93.85170439,26.11111111111111,wmoUnit:degC,83,13,16093.44,wmoUnit:m,FA,A,Flood Watch,Severe,Future,2025-05-27T07:00:00-05:00
Deaf Smith,34.96602014,-102.6048162,13.333333333333334,wmoUnit:degC,83,56,,,SV,A,,,,
Angelina,31.25475875,-94.611742,27.22222222222222,wmoUnit:degC,80,16,16093.44,wmoUnit:m,FA,A,Flood Watch,Severe,Future,2025-05-27T07:00:00-05:00
Kent,33.18284492,-100.7791031,20.0,wmoUnit:degC,90,24,16093.44,wmoUnit:m,,,,,,
Red River,33.62074539,-95.0501886,22.77777777777778,wmoUnit:degC,88,31,16093.44,wmoUnit:m,,,Flood Warning,Severe,Immediate,2025-05-27T21:00:00-05:00
Kinney,29.35000302,-100.4178441,31.666666666666668,wmoUnit:degC,50,30,16093.44,wmoUnit:m,,,Flood Advisory,Minor,Expected,2025-05-27T06:00:00-05:00
Denton,33.205574,-97.11681154,20.555555555555557,wmoUnit:degC,100,66,4747.564876739477,wmoUnit:m,,,Flood Warning,Severe,Immediate,2025-05-27T20:30:00-05:00
Sutton,30.49747152,-100.5382263,21.11111111111111,wmoUnit:degC,76,63,16093.44,wmoUnit:m,,,,,,
Guadalupe,29.58257236,-97.94850308,27.77777777777778,wmoUnit:degC,73,37,16093.44,wmoUnit:m,,,Flood Advisory,Minor,Expected,2025-05-27T05:00:00-05:00
Winkler,31.85008609,-103.0484794,25.0,wmoUnit:degC,58,0,16093.44,wmoUnit:m,,,,,,
Dimmit,28.42161168,-99.760574,34.44444444444444,wmoUnit:degC,52,19,16093.44,wmoUnit:m,,,Flood Advisory,Minor,Expected,2025-05-27T06:00:00-05:00
Wise,33.21585061,-97.65444124,19.444444444444443,wmoUnit:degC,97,57,9656.064,wmoUnit:m,,,Flood Warning,Severe,Immediate,2025-05-27T20:30:00-05:00
Hemphill,35.83750155,-100.2704628,16.666666666666668,wmoUnit:degC,90,43,,,SV,A,,,,
Potter,35.40128927,-101.8940484,17.77777777777778,wmoUnit:degC,73,35,,,SV,A,,,,
Childress,34.52929257,-100.2075664,20.0,wmoUnit:degC,87,38,16077.34619165045,wmoUnit:m,,,,,,
Willacy,26.47132899,-97.64303323,27.77777777777778,wmoUnit:degC,85,2,,,,,,,,
Bastrop,30.10353518,-97.31187705,28.333333333333332,wmoUnit:degC,78,31,16093.44,wmoUnit:m,,,,,,
Kimble,30.48676251,-99.74892716,20.0,wmoUnit:degC,93,62,16093.44,wmoUnit:m,,,,,,
Scurry,32.74720063,-100.9165071,20.0,wmoUnit:degC,88,13,12697.7239451294,wmoUnit:m,,,,,,
Ochiltree,36.27846334,-100.815653,15.0,wmoUnit:degC,90,45,,,,,,,,
Hansford,36.27753179,-101.3545624,13.88888888888889,wmoUnit:degC,96,35,,,,,,,,
Hartley,35.83996755,-102.6028835,16.11111111111111,wmoUnit:degC,62,51,,,SV,A,,,,
Cameron,26.13847728,-97.51499968,28.333333333333332,wmoUnit:degC,83,0,,,,,,,,
Matagorda,28.86711039,-95.98533866,26.666666666666668,wmoUnit:degC,97,11,14484.096,wmoUnit:m,,,Rip Current Statement,Moderate,Expected,2025-05-27T19:00:00-05:00
Burnet,30.78843382,-98.18252382,17.22222222222222,wmoUnit:degC,100,67,16093.44,wmoUnit:m,,,,,,
Rains,32.87004212,-95.79347545,21.11111111111111,wmoUnit:degC,93,72,9656.064,wmoUnit:m,,,,,,
Hays,30.05782657,-98.03104087,20.0,wmoUnit:degC,93,53,16093.44,wmoUnit:m,,,Flood Advisory,Minor,Expected,2025-05-27T05:00:00-05:00
Mason,30.71742293,-99.2263026,19.444444444444443,wmoUnit:degC,90,63,16093.44,wmoUnit:m,,,,,,
Ward,31.509424,-103.1024636,27.77777777777778,wmoUnit:degC,47,0,16093.44,wmoUnit:m,,,,,,
Delta,33.38623601,-95.67221685,21.666666666666668,wmoUnit:degC,87,67,9656.064,wmoUnit:m,,,,,,
Nueces,27.72621549,-97.61767326,28.333333333333332,wmoUnit:degC,82,0,16093.44,wmoUnit:m,,,,,,
Callahan,32.2977738,-99.37359692,20.555555555555557,wmoUnit:degC,87,43,11265.408,wmoUnit:m,,,,,,
Bell,31.03778267,-97.47790776,21.666666666666668,wmoUnit:degC,100,73,9656.064,wmoUnit:m,,,,,,
Cherokee,31.83695632,-95.16515234,24.444444444444443,wmoUnit:degC,84,42,14484.096,wmoUnit:m,FA,A,Flood Watch,Severe,Future,2025-05-27T07:00:00-05:00
Ellis,32.34839264,-96.79467417,18.88888888888889,wmoUnit:degC,97,68,9656.064,wmoUnit:m,,,,,,
Lubbock,33.6101944,-101.8205745,18.333333333333332,wmoUnit:degC,90,47,16093.44,wmoUnit:m,,,,,,
Terrell,30.22502597,-102.0764533,34.44444444444444,wmoUnit:degC,23,0,16093.44,wmoUnit:m,,,,,,
Crockett,30.72291931,-101.4118364,24.444444444444443,wmoUnit:degC,52,22,16093.44,wmoUnit:m,,,,,,
Atascosa,28.89418432,-98.52741302,28.88888888888889,wmoUnit:degC,72,30,16093.44,wmoUnit:m,,,Flood Advisory,Minor,Expected,2025-05-27T05:30:00-05:00
Ector,31.86908156,-102.5430907,25.555555555555557,wmoUnit:degC,61,0,16093.44,wmoUnit:m,,,,,,
Brazos,30.6610425,-96.3022943,25.555555555555557,wmoUnit:degC,74,53,15868.131287475511,wmoUnit:m,,,,,,
Aransas,28.12709562,-96.99258951,27.77777777777778,wmoUnit:degC,94,2,11152.753643737757,wmoUnit:m,SC,Y,,,,
Dallas,32.76653746,-96.77781862,20.555555555555557,wmoUnit:degC,97,65,9656.064,wmoUnit:m,,,Flood Warning,Severe,Immediate,2025-05-27T20:30:00-05:00
Howard,32.30610232,-101.4355097,22.77777777777778,wmoUnit:degC,75,11,16093.44,wmoUnit:m,,,,,,
Motley,34.07409017,-100.7798961,17.77777777777778,wmoUnit:degC,93,44,15304.861808349551,wmoUnit:m,,,,,,
San Augustine,31.39427005,-94.16809762,26.11111111111111,wmoUnit:degC,82,14,16093.44,wmoUnit:m,FA,A,Flood Watch,Severe,Future,2025-05-27T07:00:00-05:00
Maverick,28.74260943,-100.3144638,36.111111111111114,wmoUnit:degC,38,24,16093.44,wmoUnit:m,,,Flood Advisory,Minor,Expected,2025-05-27T06:00:00-05:00
Erath,32.23640361,-98.21722756,20.555555555555557,wmoUnit:degC,90,53,11265.408,wmoUnit:m,,,,,,
Dickens,33.61663428,-100.7788138,18.333333333333332,wmoUnit:degC,97,37,15320.955616699264,wmoUnit:m,,,,,,
Caldwell,29.83677935,-97.61983479,27.77777777777778,wmoUnit:degC,75,33,16093.44,wmoUnit:m,,,,,,
Dawson,32.74258137,-101.9476136,21.11111111111111,wmoUnit:degC,75,6,16093.44,wmoUnit:m,,,,,,
Camp,32.97321771,-94.97860185,23.333333333333332,wmoUnit:degC,89,45,16093.44,wmoUnit:m,FA,A,Flood Watch,Severe,Future,2025-05-27T07:00:00-05:00
Duval,27.68133382,-98.50889672,29.444444444444443,wmoUnit:degC,72,0,16093.44,wmoUnit:m,,,,,,
Hunt,33.123531,-96.08550014,21.11111111111111,wmoUnit:degC,93,72,7950.159452087469,wmoUnit:m,,,Flood Warning,Severe,Immediate,2025-05-27T16:00:00-05:00
Mills,31.49524259,-98.59552736,20.0,wmoUnit:degC,90,67,9656.064,wmoUnit:m,,,,,,
Val Verde,29.89300587,-101.15171,29.444444444444443,wmoUnit:degC,43,24,16093.44,wmoUnit:m,,,,,,
Pecos,30.78100044,-102.7235743,29.444444444444443,wmoUnit:degC,33,0,16093.44,wmoUnit:m,,,,,,
Baylor,33.61648147,-99.21351964,24.444444444444443,wmoUnit:degC,74,57,,,,,,,,
Gregg,32.48036452,-94.81723694,24.444444444444443,wmoUnit:degC,89,52,16093.44,wmoUnit:m,FA,A,Flood Watch,Severe,Future,2025-05-27T07:00:00-05:00
Cochran,33.60410808,-102.8285264,19.444444444444443,wmoUnit:degC,49,13,15610.636493041933,wmoUnit:m,,,,,,
Jasper,30.74391255,-94.02495849,26.666666666666668,wmoUnit:degC,82,1,15996.878684692381,wmoUnit:m,,,,,,
Hamilton,31.70479181,-98.11066654,21.666666666666668,wmoUnit:degC,97,71,7950.159452087469,wmoUnit:m,,,,,,
Castro,34.53000304,-102.2617608,13.88888888888889,wmoUnit:degC,83,34,16093.44,wmoUnit:m,,,,,,
Sterling,31.82786516,-101.0500699,23.333333333333332,wmoUnit:degC,76,22,16093.44,wmoUnit:m,,,,,,
Starr,26.56212627,-98.73834895,29.444444444444443,wmoUnit:degC,69,12,,,,,,,,
Crane,31.42846287,-102.5156425,29.444444444444443,wmoUnit:degC,46,0,16093.44,wmoUnit:m,,,,,,
Morris,33.11368507,-94.73205137,23.333333333333332,wmoUnit:degC,89,38,16093.44,wmoUnit:m,FA,A,Flood Watch,Severe,Future,2025-05-27T07:00:00-05:00
Briscoe,34.53041048,-101.2085769,17.22222222222222,wmoUnit:degC,97,56,16093.44,wmoUnit:m,,,,,,
Tom Green,31.4044442,-100.4620678,20.555555555555557,wmoUnit:degC,84,33,16093.44,wmoUnit:m,,,,,,
Menard,30.88981785,-99.82061472,18.88888888888889,wmoUnit:degC,93,63,16093.44,wmoUnit:m,,,,,,
Parker,32.77852261,-97.80472194,19.444444444444443,wmoUnit:degC,90,56,9656.064,wmoUnit:m,,,,,,
Walker,30.73899492,-95.57224172,25.555555555555557,wmoUnit:degC,74,53,15787.665315307619,wmoUnit:m,,,,,,
Brooks,27.0315669,-98.21874127,29.444444444444443,wmoUnit:degC,70,4,,,,,,,,
La Salle,28.34621032,-99.1034773,32.22222222222222,wmoUnit:degC,60,0,16093.44,wmoUnit:m,SV,A,,,,
Edwards,29.98248216,-100.3048937,22.22222222222222,wmoUnit:degC,76,53,16093.44,wmoUnit:m,,,,,,
Lee,30.31065065,-96.96568735,26.666666666666668,wmoUnit:degC,75,36,16093.44,wmoUnit:m,,,Flood Advisory,Minor,Expected,2025-05-27T06:30:00-05:00
Robertson,31.02705415,-96.51272568,24.444444444444443,wmoUnit:degC,79,43,16093.44,wmoUnit:m,,,Flood Warning,Severe,Immediate,2025-05-27T20:45:00-05:00
Young,33.17670764,-98.68781396,20.0,wmoUnit:degC,97,32,11265.408,wmoUnit:m,,,,,,
Bee,28.41736675,-97.74116811,27.77777777777778,wmoUnit:degC,79,2,16093.44,wmoUnit:m,SV,A,,,,
Clay,33.78379717,-98.208958,25.555555555555557,wmoUnit:degC,64,20,,,,,,,,
San Jacinto,30.57948905,-95.16683273,22.77777777777778,wmoUnit:degC,84,29,15868.131287475511,wmoUnit:m,,,,,,
Uvalde,29.35669829,-99.76203107,32.77777777777778,wmoUnit:degC,49,53,16093.44,wmoUnit:m,,,Flood Advisory,Minor,Expected,2025-05-27T06:00:00-05:00
Haskell,33.17824805,-99.73029401,21.11111111111111,wmoUnit:degC,84,30,11265.408,wmoUnit:m,,,,,,
Somervell,32.22229511,-97.77456553,20.555555555555557,wmoUnit:degC,87,58,9656.064,wmoUnit:m,,,,,,
Bexar,29.44884523,-98.51966309,30.0,wmoUnit:degC,68,45,16093.44,wmoUnit:m,,,Flood Advisory,Minor,Expected,2025-05-27T05:00:00-05:00
Grayson,33.62684371,-96.67764864,20.555555555555557,wmoUnit:degC,97,71,9656.064,wmoUnit:m,,,,,,
Bailey,34.0684915,-102.8299069,16.11111111111111,wmoUnit:degC,58,13,16093.44,wmoUnit:m,,,,,,
Jones,32.73970429,-99.87850599,20.555555555555557,wmoUnit:degC,81,29,11265.408,wmoUnit:m,,,,,,
Jefferson,29.88425832,-94.1708778,26.666666666666668,wmoUnit:degC,88,11,16012.972493041932,wmoUnit:m,,,,,,
Rusk,32.10803224,-94.76169577,23.88888888888889,wmoUnit:degC,90,41,16093.44,wmoUnit:m,FA,A,Flood Watch,Severe,Future,2025-05-27T07:00:00-05:00
Glasscock,31.8694238,-101.520742,28.333333333333332,wmoUnit:degC,59,10,16093.44,wmoUnit:m,,,,,,
Gillespie,30.31800246,-98.94627245,20.0,wmoUnit:degC,94,62,16093.44,wmoUnit:m,,,,,,
Fisher,32.74305155,-100.4019503,21.11111111111111,wmoUnit:degC,78,20,12746.00460278313,wmoUnit:m,,,,,,
Henderson,32.21188078,-95.85356847,20.555555555555557,wmoUnit:degC,93,70,9656.064,wmoUnit:m,,,Flood Warning,Severe,Immediate,2025-05-27T20:30:00-05:00
Shackelford,32.7360276,-99.35403034,19.444444444444443,wmoUnit:degC,90,41,11265.408,wmoUnit:m,,,,,,
Palo Pinto,32.75316856,-98.31299522,19.444444444444443,wmoUnit:degC,93,56,9656.064,wmoUnit:m,,,,,,
Wilbarger,34.08044953,-99.24089568,25.0,wmoUnit:degC,64,48,,,,,,,,
Floyd,34.07239775,-101.3033037,16.666666666666668,wmoUnit:degC,97,53,14934.711890258803,wmoUnit:m,,,,,,
Orange,30.12807126,-93.89653794,26.666666666666668,wmoUnit:degC,85,18,16077.34619165045,wmoUnit:m,,,Flood Warning,Severe,Immediate,2025-05-27T22:15:00-05:00
Runnels,31.83105393,-99.97624799,22.77777777777778,wmoUnit:degC,84,30,16093.44,wmoUnit:m,,,,,,
Coleman,31.77329421,-99.45362579,22.77777777777778,wmoUnit:degC,81,43,16093.44,wmoUnit:m,,,,,,
Martin,32.30605847,-101.9512464,23.333333333333332,wmoUnit:degC,70,4,16093.44,wmoUnit:m,,,,,,
Wheeler,35.40129002,-100.2697634,18.333333333333332,wmoUnit:degC,90,41,,,SV,A,,,,
Culberson,31.44709817,-104.5177421,27.22222222222222,wmoUnit:degC,13,0,16093.44,wmoUnit:m,,,,,,
Mitchell,32.30636024,-100.9211128,23.333333333333332,wmoUnit:degC,80,11,16093.44,wmoUnit:m,,,,,,
Hudspeth,31.45613738,-105.3869428,27.77777777777778,wmoUnit:degC,6,0,16012.972493041932,wmoUnit:m,,,,,,
Upshur,32.7362827,-94.94132011,22.77777777777778,wmoUnit:degC,89,53,16093.44,wmoUnit:m,FA,A,Flood Watch,Severe,Future,2025-05-27T07:00:00-05:00
Liberty,30.15153187,-94.8120925,23.333333333333332,wmoUnit:degC,87,12,15980.786411132844,wmoUnit:m,,,,,,
Williamson,30.64834941,-97.60105467,22.22222222222222,wmoUnit:degC,86,51,16093.44,wmoUnit:m,,,,,,
Nacogdoches,31.61604108,-94.6158776,25.555555555555557,wmoUnit:degC,85,28,16093.44,wmoUnit:m,FA,A,Flood Watch,Severe,Future,2025-05-27T07:00:00-05:00
Loving,31.84912973,-103.5799063,26.11111111111111,wmoUnit:degC,48,0,16093.44,wmoUnit:m,,,,,,
Jim Wells,27.73131099,-98.0898649,28.88888888888889,wmoUnit:degC,77,0,16093.44,wmoUnit:m,,,,,,
Upton,31.36853957,-102.0430005,29.444444444444443,wmoUnit:degC,38,1,16093.44,wmoUnit:m,,,,,,
Newton,30.78619977,-93.74462993,25.555555555555557,wmoUnit:degC,88,2,16061.252383300736,wmoUnit:m,,,Flood Warning,Severe,Immediate,2025-05-27T22:15:00-05:00
Lamar,33.66746186,-95.57110784,21.11111111111111,wmoUnit:degC,93,57,9656.064,wmoUnit:m,,,,,,
Polk,30.79250963,-94.82994949,23.333333333333332,wmoUnit:degC,87,26,16012.972493041932,wmoUnit:m,,,,,,
Collin,33.18789055,-96.57248871,21.11111111111111,wmoUnit:degC,93,68,9656.064,wmoUnit:m,,,,,,
Hardeman,34.28865227,-99.7453851,23.333333333333332,wmoUnit:degC,71,40,,,,,,,,
McMullen,28.35351091,-98.56842256,30.0,wmoUnit:degC,70,1,16093.44,wmoUnit:m,SV,A,,,,
Cottle,34.0776571,-100.2786983,19.444444444444443,wmoUnit:degC,93,35,14886.432,wmoUnit:m,,,,,,
Frio,28.86726774,-99.10826004,31.11111111111111,wmoUnit:degC,63,37,16093.44,wmoUnit:m,,,Flood Advisory,Minor,Expected,2025-05-27T06:00:00-05:00
Gray,35.40130666,-100.812475,17.22222222222222,wmoUnit:degC,97,31,,,SV,A,,,,
Dallam,36.27777107,-102.6021647,14.444444444444445,wmoUnit:degC,77,52,,,,,,,,
Kenedy,26.92409448,-97.68137783,27.77777777777778,wmoUnit:degC,87,3,,,,,,,,
Fort Bend,29.52763253,-95.77090562,25.555555555555557,wmoUnit:degC,91,16,15063.459287475513,wmoUnit:m,,,,,,
Armstrong,34.96522076,-101.3572412,16.11111111111111,wmoUnit:degC,93,19,,,SV,A,,,,
Collingsworth,34.96498493,-100.2700733,20.0,wmoUnit:degC,78,28,,,SV,A,,,,
Cass,33.07750446,-94.34348771,22.22222222222222,wmoUnit:degC,94,34,16093.44,wmoUnit:m,FA,A,Flood Watch,Severe,Future,2025-05-27T07:00:00-05:00
Sherman,36.27765824,-101.8933822,14.444444444444445,wmoUnit:degC,93,33,,,,,,,,
Terry,33.17373729,-102.335157,18.88888888888889,wmoUnit:degC,84,20,15337.047890258802,wmoUnit:m,,,,,,
Limestone,31.54541898,-96.58056718,20.0,wmoUnit:degC,84,78,9656.064,wmoUnit:m,,,,,,
Real,29.83182711,-99.82215881,23.333333333333332,wmoUnit:degC,71,59,16093.44,wmoUnit:m,,,,,,
Lynn,33.17685487,-101.8160235,18.333333333333332,wmoUnit:degC,93,29,15707.197808349552,wmoUnit:m,,,,,,
Lavaca,29.38437003,-96.93020993,26.666666666666668,wmoUnit:degC,80,28,16093.44,wmoUnit:m,,,Flood Advisory,Minor,Expected,2025-05-27T06:30:00-05:00
Nolan,32.3034718,-100.4060989,19.444444444444443,wmoUnit:degC,87,22,12746.00460278313,wmoUnit:m,,,,,,
Gaines,32.74074537,-102.6351246,22.77777777777778,wmoUnit:degC,62,0,16093.44,wmoUnit:m,,,,,,
Montgomery,30.30022409,-95.50301411,25.0,wmoUnit:degC,74,19,16093.44,wmoUnit:m,,,,,,
Concho,31.32645211,-99.86413426,21.666666666666668,wmoUnit:degC,90,63,16093.44,wmoUnit:m,,,,,,
Hardin,30.33238431,-94.39021394,26.666666666666668,wmoUnit:degC,85,2,16012.972493041932,wmoUnit:m,,,,,,
Harris,29.85967144,-95.39782106,26.666666666666668,wmoUnit:degC,72,22,15803.757588867158,wmoUnit:m,,,,,,
Leon,31.29655719,-95.99554292,22.77777777777778,wmoUnit:degC,87,43,16093.44,wmoUnit:m,,,Flood Warning,Severe,Immediate,2025-05-27T20:45:00-05:00
Bowie,33.44572786,-94.42324298,22.22222222222222,wmoUnit:degC,89,28,16093.44,wmoUnit:m,,,Flood Warning,Severe,Immediate,2025-05-27T21:00:00-05:00
Kaufman,32.59927808,-96.28779341,20.555555555555557,wmoUnit:degC,90,68,9656.064,wmoUnit:m,,,,,,
Anderson,31.81321543,-95.65251774,21.666666666666668,wmoUnit:degC,93,38,11265.408,wmoUnit:m,,,Flood Warning,Severe,Immediate,2025-05-27T20:45:00-05:00
San Saba,31.15520543,-98.81754295,18.333333333333332,wmoUnit:degC,93,63,9656.064,wmoUnit:m,,,,,,
Schleicher,30.89661056,-100.538097,21.11111111111111,wmoUnit:degC,66,47,16093.44,wmoUnit:m,,,,,,
Colorado,29.6208542,-96.52630821,25.0,wmoUnit:degC,85,21,13566.770411132842,wmoUnit:m,,,,,,
Milam,30.78625299,-96.97683495,25.555555555555557,wmoUnit:degC,79,33,16093.44,wmoUnit:m,,,,,,
Live Oak,28.3514375,-98.12474493,28.88888888888889,wmoUnit:degC,74,1,16093.44,wmoUnit:m,SV,A,,,,
Borden,32.7436916,-101.4317533,20.0,wmoUnit:degC,82,11,16093.44,wmoUnit:m,,,,,,
McCulloch,31.19896752,-99.34754972,20.0,wmoUnit:degC,87,63,16093.44,wmoUnit:m,,,,,,
Johnson,32.37899918,-97.36660504,19.444444444444443,wmoUnit:degC,93,61,9656.064,wmoUnit:m,,,,,,
Montague,33.67496328,-97.72466993,19.444444444444443,wmoUnit:degC,97,52,16093.44,wmoUnit:m,,,,,,
Stonewall,33.17842158,-100.255259,21.11111111111111,wmoUnit:degC,84,19,16045.160109741197,wmoUnit:m,,,,,,
Comal,29.80816362,-98.27814516,21.11111111111111,wmoUnit:degC,87,54,16093.44,wmoUnit:m,,,Flood Advisory,Minor,Expected,2025-05-27T05:00:00-05:00
Eastland,32.32739258,-98.8325713,20.0,wmoUnit:degC,93,43,11265.408,wmoUnit:m,,,,,,
Comanche,31.9490639,-98.55841538,21.666666666666668,wmoUnit:degC,87,58,9656.064,wmoUnit:m,,,,,,
King,33.61641863,-100.2558584,20.555555555555557,wmoUnit:degC,93,28,16029.066301391646,wmoUnit:m,,,,,,
Washington,30.2145299,-96.40356575,26.11111111111111,wmoUnit:degC,72,40,13679.424,wmoUnit:m,,,,,,
Webb,27.76102524,-99.33170164,32.77777777777778,wmoUnit:degC,52,9,16093.44,wmoUnit:m,,,,,,
Fayette,29.87683207,-96.91968047,26.11111111111111,wmoUnit:degC,81,29,16093.44,wmoUnit:m,,,Flood Advisory,Minor,Expected,2025-05-27T06:30:00-05:00
Harrison,32.54814898,-94.37155736,23.333333333333332,wmoUnit:degC,92,43,16093.44,wmoUnit:m,FA,A,Flood Watch,Severe,Future,2025-05-27T07:00:00-05:00
Presidio,29.99977786,-104.2405552,28.88888888888889,wmoUnit:degC,5,0,16093.44,wmoUnit:m,,,,,,
Austin,29.88711223,-96.27791829,25.0,wmoUnit:degC,82,21,12874.752,wmoUnit:m,,,,,,
Randall,34.96594288,-101.8968527,20.0,wmoUnit:degC,73,48,,,SV,A,,,,
Hood,32.43107878,-97.83280338,20.555555555555557,wmoUnit:degC,84,54,16093.44,wmoUnit:m,,,,,,
Victoria,28.79640594,-96.97176602,27.77777777777778,wmoUnit:degC,85,2,16093.44,wmoUnit:m,SV,A,,,,
Hutchinson,35.84000866,-101.3547257,17.22222222222222,wmoUnit:degC,75,20,,,SV,A,,,,
Coryell,31.39087578,-97.7991883,21.666666666666668,wmoUnit:degC,97,73,6292.535178131122,wmoUnit:m,,,,,,
Jackson,28.95603133,-96.57883268,26.666666666666668,wmoUnit:degC,94,19,14773.778411132842,wmoUnit:m,,,,,,
Taylor,32.30138229,-99.89003941,18.88888888888889,wmoUnit:degC,90,30,11265.408,wmoUnit:m,,,,,,
Zapata,27.00089072,-99.16860134,30.555555555555557,wmoUnit:degC,60,10,,,,,,,,
San Patricio,28.00922186,-97.51859857,27.77777777777778,wmoUnit:degC,88,4,16093.44,wmoUnit:m,,,,,,
Grimes,30.54360689,-95.98557334,25.555555555555557,wmoUnit:degC,79,51,15401.421588867157,wmoUnit:m,,,,,,
Lamb,34.06861242,-102.3517095,14.444444444444445,wmoUnit:degC,77,30,16093.44,wmoUnit:m,,,,,,
