countyName,latitude,longitude,temperature,temperature_unit,relativeHumidity,precipitationProbability,visibility,visibility_unit,hazard_phenomenon,hazard_significance,alert_event,alert_severity,alert_urgency,alert_expires
Foard,33.97408519,-99.77871109,18.333333333333332,wmoUnit:degC,97,55,,,SV,A,Severe Thunderstorm Watch,Severe,Future,2025-06-05T21:00:00-05:00
Blanco,30.26636128,-98.39974086,23.88888888888889,wmoUnit:degC,96,2,14548.469698608355,wmoUnit:m,,,,,,
Hockley,33.60750375,-102.3430919,17.77777777777778,wmoUnit:degC,100,48,12858.65819165045,wmoUnit:m,TO,A,Tornado Watch,Extreme,Future,2025-06-05T22:00:00-05:00
Llano,30.70566579,-98.68387398,23.88888888888889,wmoUnit:degC,92,2,16093.44,wmoUnit:m,,,,,,
Swisher,34.53064989,-101.734951,17.22222222222222,wmoUnit:degC,100,45,14419.722301391646,wmoUnit:m,TO,A,Tornado Watch,Extreme,Future,2025-06-05T22:00:00-05:00
Titus,33.2160906,-94.96509786,23.333333333333332,wmoUnit:degC,93,29,16093.44,wmoUnit:m,,,Flood Warning,Severe,Immediate,2025-06-06T12:30:00-05:00
Navarro,32.04695429,-96.47248134,22.77777777777778,wmoUnit:degC,97,7,11265.408,wmoUnit:m,,,Flood Warning,Severe,Immediate,2025-06-06T07:30:00-05:00
Brazoria,29.19345387,-95.45578479,25.0,wmoUnit:degC,94,10,11265.408,wmoUnit:m,,,,,,
Hidalgo,26.396627,-98.18088681,30.555555555555557,wmoUnit:degC,71,7,,,,,,,,
Archer,33.61539176,-98.68783437,18.333333333333332,wmoUnit:degC,97,75,,,,,,,,
Refugio,28.32681413,-97.16546961,25.555555555555557,wmoUnit:degC,92,2,16093.44,wmoUnit:m,,,,,,
Andrews,32.30506283,-102.6378839,22.77777777777778,wmoUnit:degC,87,0,15835.94520556642,wmoUnit:m,TO,A,Tornado Watch,Extreme,Future,2025-06-05T22:00:00-05:00
Galveston,29.39424415,-94.96474975,24.444444444444443,wmoUnit:degC,97,9,15916.412712524489,wmoUnit:m,,,,,,
De Witt,29.08201599,-97.35666976,25.555555555555557,wmoUnit:degC,96,5,11265.408,wmoUnit:m,,,,,,
Gonzales,29.45641495,-97.49279927,25.555555555555557,wmoUnit:degC,96,4,11265.408,wmoUnit:m,,,,,,
Wharton,29.2778362,-96.22197375,24.444444444444443,wmoUnit:degC,97,5,12778.191452087469,wmoUnit:m,,,,,,
Fannin,33.59396919,-96.10656755,20.555555555555557,wmoUnit:degC,97,9,11265.408,wmoUnit:m,,,,,,
Madison,30.96564645,-95.92818441,22.22222222222222,wmoUnit:degC,97,2,13566.770411132842,wmoUnit:m,,,,,,
Moore,35.83768863,-101.8929556,16.666666666666668,wmoUnit:degC,97,27,,,,,,,,
Tyler,30.7712607,-94.37651432,26.11111111111111,wmoUnit:degC,88,2,14870.338191650448,wmoUnit:m,,,,,,
Lipscomb,36.27778432,-100.27317,17.22222222222222,wmoUnit:degC,93,31,,,SV,A,Flood Watch,Severe,Future,2025-06-05T22:00:00-05:00
Burleson,30.49246139,-96.62109399,24.444444444444443,wmoUnit:degC,97,3,11281.501808349552,wmoUnit:m,,,,,,
Jim Hogg,27.04340499,-98.6972921,28.88888888888889,wmoUnit:degC,76,0,,,,,,,,
Throckmorton,33.17753907,-99.21236832,18.88888888888889,wmoUnit:degC,97,24,,,,,,,,
Kleberg,27.43274395,-97.72889778,26.11111111111111,wmoUnit:degC,91,0,16093.44,wmoUnit:m,,,,,,
Shelby,31.79242191,-94.14495261,25.0,wmoUnit:degC,79,18,16093.44,wmoUnit:m,,,,,,
Garza,33.17991074,-101.2984496,18.88888888888889,wmoUnit:degC,93,36,13663.330191650448,wmoUnit:m,TO,A,Tornado Watch,Extreme,Future,2025-06-05T22:00:00-05:00
Karnes,28.90493782,-97.85960621,25.555555555555557,wmoUnit:degC,91,1,14548.469698608355,wmoUnit:m,,,,,,
Reeves,31.32307061,-103.693143,23.88888888888889,wmoUnit:degC,71,0,14870.338191650448,wmoUnit:m,SV,A,Severe Thunderstorm Watch,Severe,Future,2025-06-05T22:00:00-05:00
Houston,31.31764137,-95.42225367,22.77777777777778,wmoUnit:degC,100,0,8851.392,wmoUnit:m,,,Flood Warning,Severe,Immediate,2025-06-05T21:45:00-05:00
El Paso,31.7686226,-106.2352229,22.77777777777778,wmoUnit:degC,59,0,16093.44,wmoUnit:m,,,,,,
Carson,35.40346802,-101.3542037,16.666666666666668,wmoUnit:degC,97,47,,,,,,,,
Medina,29.35520493,-99.11008331,25.0,wmoUnit:degC,89,2,16093.44,wmoUnit:m,,,,,,
Wichita,33.98421585,-98.70153389,17.77777777777778,wmoUnit:degC,100,64,,,,,,,,
Chambers,29.73912276,-94.60891308,24.444444444444443,wmoUnit:degC,94,7,15852.039013915974,wmoUnit:m,,,Flood Warning,Severe,Immediate,2025-06-06T02:45:00-05:00
Donley,34.96540246,-100.8140501,17.77777777777778,wmoUnit:degC,93,43,,,,,,,,
Hopkins,33.14933822,-95.56414173,21.11111111111111,wmoUnit:degC,100,5,11265.408,wmoUnit:m,,,,,,
Lampasas,31.19627791,-98.24142711,22.77777777777778,wmoUnit:degC,97,5,11265.408,wmoUnit:m,,,,,,
Falls,31.25317017,-96.93579511,22.77777777777778,wmoUnit:degC,100,8,9656.064,wmoUnit:m,,,,,,
Stephens,32.73584155,-98.83612016,19.444444444444443,wmoUnit:degC,93,15,11265.408,wmoUnit:m,,,,,,
Travis,30.33423319,-97.78194654,25.555555555555557,wmoUnit:degC,93,3,11265.408,wmoUnit:m,,,,,,
Roberts,35.8385577,-100.8135689,18.333333333333332,wmoUnit:degC,90,34,,,SV,A,Flood Watch,Severe,Future,2025-06-05T22:00:00-05:00
Crosby,33.61459873,-101.2998612,18.333333333333332,wmoUnit:degC,97,56,11828.678246521047,wmoUnit:m,TO,A,Tornado Watch,Extreme,Future,2025-06-05T22:00:00-05:00
Kerr,30.06153035,-99.35016969,22.77777777777778,wmoUnit:degC,88,0,16093.44,wmoUnit:m,,,,,,
Wood,32.78634374,-95.38206498,22.77777777777778,wmoUnit:degC,100,24,11265.408,wmoUnit:m,,,Flood Warning,Severe,Immediate,2025-06-05T21:45:00-05:00
Jack,33.23345819,-98.1725509,18.333333333333332,wmoUnit:degC,97,20,11265.408,wmoUnit:m,,,,,,
Marion,32.79797929,-94.35725239,27.77777777777778,wmoUnit:degC,82,19,16093.44,wmoUnit:m,,,,,,
Hale,34.07051782,-101.8269082,17.77777777777778,wmoUnit:degC,97,57,14645.031013915974,wmoUnit:m,TO,A,Tornado Watch,Extreme,Future,2025-06-05T22:00:00-05:00
Jeff Davis,30.71559322,-104.1403539,19.444444444444443,wmoUnit:degC,78,0,13003.49939721687,wmoUnit:m,SV,A,Severe Thunderstorm Watch,Severe,Future,2025-06-05T22:00:00-05:00
Tarrant,32.77185236,-97.29116473,22.77777777777778,wmoUnit:degC,84,10,16093.44,wmoUnit:m,,,,,,
Waller,30.01093722,-95.98768942,25.555555555555557,wmoUnit:degC,91,6,11265.408,wmoUnit:m,,,,,,
Reagan,31.36617698,-101.5230108,24.444444444444443,wmoUnit:degC,82,0,15948.59879443358,wmoUnit:m,SV,A,Severe Thunderstorm Watch,Severe,Future,2025-06-05T22:00:00-05:00
Smith,32.37514553,-95.26909511,23.333333333333332,wmoUnit:degC,97,19,16093.44,wmoUnit:m,,,Flood Warning,Severe,Immediate,2025-06-05T21:45:00-05:00
Van Zandt,32.56368961,-95.8364862,22.22222222222222,wmoUnit:degC,97,1,7885.785753478953,wmoUnit:m,,,,,,
Cooke,33.638465,-97.21247642,19.444444444444443,wmoUnit:degC,93,14,11265.408,wmoUnit:m,,,,,,
Zavala,28.86530621,-99.76102001,25.555555555555557,wmoUnit:degC,97,0,16093.44,wmoUnit:m,,,,,,
Hall,34.53074134,-100.6809876,20.555555555555557,wmoUnit:degC,90,53,14564.563506958068,wmoUnit:m,TO,A,Tornado Watch,Extreme,Future,2025-06-05T22:00:00-05:00
Kendall,29.9446397,-98.71160511,22.77777777777778,wmoUnit:degC,95,1,14548.469698608355,wmoUnit:m,,,,,,
Goliad,28.65708563,-97.42646082,24.444444444444443,wmoUnit:degC,94,1,9559.503452087469,wmoUnit:m,,,,,,
Yoakum,33.17293501,-102.8278792,21.11111111111111,wmoUnit:degC,93,33,15465.795287475512,wmoUnit:m,TO,A,Tornado Watch,Extreme,Future,2025-06-05T22:00:00-05:00
Knox,33.60614755,-99.74144313,18.88888888888889,wmoUnit:degC,97,69,,,SV,A,Severe Thunderstorm Watch,Severe,Future,2025-06-05T21:00:00-05:00
McLennan,31.55234489,-97.20184883,23.88888888888889,wmoUnit:degC,97,8,9656.064,wmoUnit:m,,,,,,
Brewster,29.81205836,-103.2518906,24.444444444444443,wmoUnit:degC,82,0,14290.974904174776,wmoUnit:m,SV,A,Severe Thunderstorm Watch,Severe,Future,2025-06-05T22:00:00-05:00
Panola,32.16222886,-94.30552858,24.444444444444443,wmoUnit:degC,97,18,16093.44,wmoUnit:m,,,,,,
Bandera,29.74724753,-99.24637282,23.333333333333332,wmoUnit:degC,87,1,16093.44,wmoUnit:m,,,,,,
Parmer,34.53014507,-102.784594,16.666666666666668,wmoUnit:degC,100,28,12375.855452087468,wmoUnit:m,TO,A,Tornado Watch,Extreme,Future,2025-06-05T22:00:00-05:00
Rockwall,32.89786769,-96.40780584,21.666666666666668,wmoUnit:degC,90,6,12746.00460278313,wmoUnit:m,,,,,,
Trinity,31.0885069,-95.13551682,22.77777777777778,wmoUnit:degC,100,0,9462.942904174775,wmoUnit:m,,,Flood Warning,Severe,Immediate,2025-06-05T21:45:00-05:00
Bosque,31.90050476,-97.63437613,22.77777777777778,wmoUnit:degC,97,7,11265.408,wmoUnit:m,,,,,,
Coke,31.88849293,-100.5298747,23.88888888888889,wmoUnit:degC,84,12,,,,,,,,
Franklin,33.17550691,-95.21841437,23.333333333333332,wmoUnit:degC,93,29,16093.44,wmoUnit:m,,,Flood Warning,Severe,Immediate,2025-06-06T12:30:00-05:00
Hill,31.99079033,-97.1324142,23.333333333333332,wmoUnit:degC,93,7,9656.064,wmoUnit:m,,,,,,
Calhoun,28.48966896,-96.64708119,26.666666666666668,wmoUnit:degC,91,2,16093.44,wmoUnit:m,,,,,,
Irion,31.30393203,-100.9824126,26.11111111111111,wmoUnit:degC,72,3,,,,,,,,
Midland,31.86921148,-102.0315032,23.333333333333332,wmoUnit:degC,84,0,13051.779287475512,wmoUnit:m,SV,A,Severe Thunderstorm Watch,Severe,Future,2025-06-05T22:00:00-05:00
Brown,31.77432313,-98.99989649,23.333333333333332,wmoUnit:degC,93,4,,,,,,,,
Wilson,29.17315896,-98.08621015,25.555555555555557,wmoUnit:degC,93,1,14548.469698608355,wmoUnit:m,,,,,,
Oldham,35.40497586,-102.6029949,17.22222222222222,wmoUnit:degC,93,37,,,,,,,,
Freestone,31.70486443,-96.14918535,22.22222222222222,wmoUnit:degC,97,7,9656.064,wmoUnit:m,,,,,,
Sabine,31.34321941,-93.85170439,28.88888888888889,wmoUnit:degC,72,18,16093.44,wmoUnit:m,,,,,,
Deaf Smith,34.96602014,-102.6048162,15.555555555555555,wmoUnit:degC,100,36,,,,,,,,
Angelina,31.25475875,-94.611742,25.555555555555557,wmoUnit:degC,91,13,16093.44,wmoUnit:m,,,Flood Warning,Severe,Immediate,2025-06-05T21:45:00-05:00
Kent,33.18284492,-100.7791031,20.0,wmoUnit:degC,90,20,14339.254794433578,wmoUnit:m,TO,A,Tornado Watch,Extreme,Future,2025-06-05T22:00:00-05:00
Red River,33.62074539,-95.0501886,23.333333333333332,wmoUnit:degC,100,33,16093.44,wmoUnit:m,,,Flood Warning,Severe,Immediate,2025-06-06T12:30:00-05:00
Kinney,29.35000302,-100.4178441,25.0,wmoUnit:degC,88,0,16093.44,wmoUnit:m,,,,,,
Denton,33.205574,-97.11681154,20.555555555555557,wmoUnit:degC,93,10,12746.00460278313,wmoUnit:m,,,,,,
Sutton,30.49747152,-100.5382263,25.0,wmoUnit:degC,74,0,,,,,,,,
Guadalupe,29.58257236,-97.94850308,25.555555555555557,wmoUnit:degC,93,2,12746.00460278313,wmoUnit:m,,,,,,
Winkler,31.85008609,-103.0484794,23.88888888888889,wmoUnit:degC,82,0,16093.44,wmoUnit:m,SV,A,Severe Thunderstorm Watch,Severe,Future,2025-06-05T22:00:00-05:00
Dimmit,28.42161168,-99.760574,25.555555555555557,wmoUnit:degC,88,0,16093.44,wmoUnit:m,,,,,,
Wise,33.21585061,-97.65444124,19.444444444444443,wmoUnit:degC,93,17,11265.408,wmoUnit:m,,,,,,
Hemphill,35.83750155,-100.2704628,18.333333333333332,wmoUnit:degC,90,32,,,SV,A,Flood Watch,Severe,Future,2025-06-05T22:00:00-05:00
Potter,35.40128927,-101.8940484,17.77777777777778,wmoUnit:degC,90,44,,,,,,,,
Childress,34.52929257,-100.2075664,20.0,wmoUnit:degC,93,43,15546.262794433578,wmoUnit:m,TO,A,Tornado Watch,Extreme,Future,2025-06-05T22:00:00-05:00
Willacy,26.47132899,-97.64303323,30.555555555555557,wmoUnit:degC,76,18,,,,,,,,
Bastrop,30.10353518,-97.31187705,25.0,wmoUnit:degC,99,5,11265.408,wmoUnit:m,,,,,,
Kimble,30.48676251,-99.74892716,26.11111111111111,wmoUnit:degC,77,0,,,,,,,,
Scurry,32.74720063,-100.9165071,19.444444444444443,wmoUnit:degC,100,0,7853.598904174776,wmoUnit:m,TO,A,Tornado Watch,Extreme,Future,2025-06-05T22:00:00-05:00
Ochiltree,36.27846334,-100.815653,17.22222222222222,wmoUnit:degC,90,32,,,SV,A,Flood Watch,Severe,Future,2025-06-05T22:00:00-05:00
Hansford,36.27753179,-101.3545624,17.77777777777778,wmoUnit:degC,93,24,,,,,,,,
Hartley,35.83996755,-102.6028835,16.11111111111111,wmoUnit:degC,93,23,,,,,,,,
Cameron,26.13847728,-97.51499968,31.11111111111111,wmoUnit:degC,70,20,,,,,,,,
Matagorda,28.86711039,-95.98533866,26.11111111111111,wmoUnit:degC,91,10,11265.408,wmoUnit:m,,,,,,
Burnet,30.78843382,-98.18252382,23.333333333333332,wmoUnit:degC,93,3,14548.469698608355,wmoUnit:m,,,,,,
Rains,32.87004212,-95.79347545,21.666666666666668,wmoUnit:degC,93,5,7885.785753478953,wmoUnit:m,,,,,,
Hays,30.05782657,-98.03104087,24.444444444444443,wmoUnit:degC,94,3,11265.408,wmoUnit:m,,,,,,
Mason,30.71742293,-99.2263026,24.444444444444443,wmoUnit:degC,85,0,,,,,,,,
Ward,31.509424,-103.1024636,24.444444444444443,wmoUnit:degC,85,0,15884.225095825224,wmoUnit:m,SV,A,Severe Thunderstorm Watch,Severe,Future,2025-06-05T22:00:00-05:00
Delta,33.38623601,-95.67221685,21.666666666666668,wmoUnit:degC,97,6,11265.408,wmoUnit:m,,,,,,
Nueces,27.72621549,-97.61767326,26.11111111111111,wmoUnit:degC,92,0,16093.44,wmoUnit:m,,,,,,
Callahan,32.2977738,-99.37359692,21.11111111111111,wmoUnit:degC,93,7,,,,,,,,
Bell,31.03778267,-97.47790776,23.88888888888889,wmoUnit:degC,97,14,11265.408,wmoUnit:m,,,,,,
Cherokee,31.83695632,-95.16515234,23.333333333333332,wmoUnit:degC,100,16,12697.7239451294,wmoUnit:m,,,Flood Warning,Severe,Immediate,2025-06-05T21:45:00-05:00
Ellis,32.34839264,-96.79467417,22.77777777777778,wmoUnit:degC,90,10,11265.408,wmoUnit:m,,,,,,
Lubbock,33.6101944,-101.8205745,18.88888888888889,wmoUnit:degC,93,56,14178.321315307618,wmoUnit:m,TO,A,Tornado Watch,Extreme,Future,2025-06-05T22:00:00-05:00
Terrell,30.22502597,-102.0764533,25.0,wmoUnit:degC,82,0,15803.757588867158,wmoUnit:m,SV,A,Severe Thunderstorm Watch,Severe,Future,2025-06-05T22:00:00-05:00
Crockett,30.72291931,-101.4118364,24.444444444444443,wmoUnit:degC,74,2,,,,,,,,
Atascosa,28.89418432,-98.52741302,25.555555555555557,wmoUnit:degC,91,1,16093.44,wmoUnit:m,,,,,,
Ector,31.86908156,-102.5430907,23.88888888888889,wmoUnit:degC,82,0,16093.44,wmoUnit:m,SV,A,Severe Thunderstorm Watch,Severe,Future,2025-06-05T22:00:00-05:00
Brazos,30.6610425,-96.3022943,23.333333333333332,wmoUnit:degC,97,2,13840.359013915973,wmoUnit:m,,,,,,
Aransas,28.12709562,-96.99258951,27.22222222222222,wmoUnit:degC,87,2,16093.44,wmoUnit:m,,,,,,
Dallas,32.76653746,-96.77781862,22.77777777777778,wmoUnit:degC,87,8,16093.44,wmoUnit:m,,,,,,
Howard,32.30610232,-101.4355097,23.88888888888889,wmoUnit:degC,82,0,14934.711890258803,wmoUnit:m,TO,A,Tornado Watch,Extreme,Future,2025-06-05T22:00:00-05:00
Motley,34.07409017,-100.7798961,19.444444444444443,wmoUnit:degC,93,53,14934.711890258803,wmoUnit:m,TO,A,Tornado Watch,Extreme,Future,2025-06-05T22:00:00-05:00
San Augustine,31.39427005,-94.16809762,27.22222222222222,wmoUnit:degC,79,18,16093.44,wmoUnit:m,,,,,,
Maverick,28.74260943,-100.3144638,25.555555555555557,wmoUnit:degC,90,0,16093.44,wmoUnit:m,,,,,,
Erath,32.23640361,-98.21722756,21.11111111111111,wmoUnit:degC,93,7,11265.408,wmoUnit:m,,,,,,
Dickens,33.61663428,-100.7788138,18.88888888888889,wmoUnit:degC,97,49,13872.545095825224,wmoUnit:m,TO,A,Tornado Watch,Extreme,Future,2025-06-05T22:00:00-05:00
Caldwell,29.83677935,-97.61983479,25.555555555555557,wmoUnit:degC,96,3,11265.408,wmoUnit:m,,,,,,
Dawson,32.74258137,-101.9476136,20.555555555555557,wmoUnit:degC,90,0,16045.160109741197,wmoUnit:m,TO,A,Tornado Watch,Extreme,Future,2025-06-05T22:00:00-05:00
Camp,32.97321771,-94.97860185,23.88888888888889,wmoUnit:degC,90,26,16093.44,wmoUnit:m,,,,,,
Duval,27.68133382,-98.50889672,24.444444444444443,wmoUnit:degC,96,0,16093.44,wmoUnit:m,,,,,,
Hunt,33.123531,-96.08550014,21.11111111111111,wmoUnit:degC,97,5,11265.408,wmoUnit:m,,,,,,
Mills,31.49524259,-98.59552736,21.666666666666668,wmoUnit:degC,100,4,11265.408,wmoUnit:m,,,,,,
Val Verde,29.89300587,-101.15171,24.444444444444443,wmoUnit:degC,86,1,16093.44,wmoUnit:m,,,,,,
Pecos,30.78100044,-102.7235743,24.444444444444443,wmoUnit:degC,82,0,12906.939616699265,wmoUnit:m,SV,A,Severe Thunderstorm Warning,Severe,Immediate,2025-06-05T16:45:00-05:00
Baylor,33.61648147,-99.21351964,18.333333333333332,wmoUnit:degC,97,79,,,SV,A,Severe Thunderstorm Watch,Severe,Future,2025-06-05T21:00:00-05:00
Gregg,32.48036452,-94.81723694,25.555555555555557,wmoUnit:degC,88,19,16093.44,wmoUnit:m,,,,,,
Cochran,33.60410808,-102.8285264,18.88888888888889,wmoUnit:degC,97,47,14178.321315307618,wmoUnit:m,TO,A,Tornado Watch,Extreme,Future,2025-06-05T22:00:00-05:00
Jasper,30.74391255,-94.02495849,26.666666666666668,wmoUnit:degC,88,0,13985.198684692381,wmoUnit:m,,,,,,
Hamilton,31.70479181,-98.11066654,22.77777777777778,wmoUnit:degC,97,3,7885.785753478953,wmoUnit:m,,,,,,
Castro,34.53000304,-102.2617608,16.666666666666668,wmoUnit:degC,100,32,12086.173808349551,wmoUnit:m,TO,A,Tornado Watch,Extreme,Future,2025-06-05T22:00:00-05:00
Sterling,31.82786516,-101.0500699,24.444444444444443,wmoUnit:degC,85,16,,,,,,,,
Starr,26.56212627,-98.73834895,30.0,wmoUnit:degC,68,0,,,,,,,,
Crane,31.42846287,-102.5156425,25.555555555555557,wmoUnit:degC,82,0,15497.982904174776,wmoUnit:m,SV,A,Severe Thunderstorm Watch,Severe,Future,2025-06-05T22:00:00-05:00
Morris,33.11368507,-94.73205137,25.0,wmoUnit:degC,87,27,16093.44,wmoUnit:m,,,Flood Warning,Severe,Immediate,2025-06-06T12:30:00-05:00
Briscoe,34.53041048,-101.2085769,17.77777777777778,wmoUnit:degC,93,50,14516.283616699264,wmoUnit:m,TO,A,Tornado Watch,Extreme,Future,2025-06-05T22:00:00-05:00
Tom Green,31.4044442,-100.4620678,25.555555555555557,wmoUnit:degC,82,3,,,,,,,,
Menard,30.88981785,-99.82061472,25.0,wmoUnit:degC,82,0,,,,,,,,
Parker,32.77852261,-97.80472194,20.0,wmoUnit:degC,90,12,12746.00460278313,wmoUnit:m,,,,,,
Walker,30.73899492,-95.57224172,22.77777777777778,wmoUnit:degC,100,5,13679.424,wmoUnit:m,,,Flood Warning,Severe,Immediate,2025-06-06T03:00:00-05:00
Brooks,27.0315669,-98.21874127,29.444444444444443,wmoUnit:degC,75,7,,,,,,,,
La Salle,28.34621032,-99.1034773,26.11111111111111,wmoUnit:degC,83,0,16093.44,wmoUnit:m,,,,,,
Edwards,29.98248216,-100.3048937,22.77777777777778,wmoUnit:degC,85,1,16093.44,wmoUnit:m,,,,,,
Lee,30.31065065,-96.96568735,24.444444444444443,wmoUnit:degC,95,6,11265.408,wmoUnit:m,,,,,,
Robertson,31.02705415,-96.51272568,22.77777777777778,wmoUnit:degC,100,5,9656.064,wmoUnit:m,,,,,,
Young,33.17670764,-98.68781396,18.88888888888889,wmoUnit:degC,93,21,11265.408,wmoUnit:m,,,,,,
Bee,28.41736675,-97.74116811,24.444444444444443,wmoUnit:degC,94,1,14548.469698608355,wmoUnit:m,,,,,,
Clay,33.78379717,-98.208958,18.333333333333332,wmoUnit:degC,97,65,,,,,,,,
San Jacinto,30.57948905,-95.16683273,22.77777777777778,wmoUnit:degC,97,3,11844.772054870598,wmoUnit:m,,,Flood Warning,Severe,Immediate,2025-06-06T03:00:00-05:00
Uvalde,29.35669829,-99.76203107,24.444444444444443,wmoUnit:degC,90,0,16093.44,wmoUnit:m,,,,,,
Haskell,33.17824805,-99.73029401,19.444444444444443,wmoUnit:degC,93,31,,,,,,,,
Somervell,32.22229511,-97.77456553,22.22222222222222,wmoUnit:degC,90,4,11265.408,wmoUnit:m,,,,,,
Bexar,29.44884523,-98.51966309,25.555555555555557,wmoUnit:degC,91,1,14548.469698608355,wmoUnit:m,,,,,,
Grayson,33.62684371,-96.67764864,20.0,wmoUnit:degC,93,11,11265.408,wmoUnit:m,,,,,,
Bailey,34.0684915,-102.8299069,17.22222222222222,wmoUnit:degC,97,45,11764.304547912532,wmoUnit:m,TO,A,Tornado Watch,Extreme,Future,2025-06-05T22:00:00-05:00
Jones,32.73970429,-99.87850599,19.444444444444443,wmoUnit:degC,93,29,,,,,,,,
Jefferson,29.88425832,-94.1708778,28.333333333333332,wmoUnit:degC,80,4,16061.252383300736,wmoUnit:m,,,,,,
Rusk,32.10803224,-94.76169577,25.0,wmoUnit:degC,94,17,16093.44,wmoUnit:m,,,,,,
Glasscock,31.8694238,-101.520742,23.88888888888889,wmoUnit:degC,84,0,15063.459287475513,wmoUnit:m,SV,A,Severe Thunderstorm Watch,Severe,Future,2025-06-05T22:00:00-05:00
Gillespie,30.31800246,-98.94627245,22.77777777777778,wmoUnit:degC,94,0,16093.44,wmoUnit:m,,,,,,
Fisher,32.74305155,-100.4019503,19.444444444444443,wmoUnit:degC,93,42,,,,,,,,
Henderson,32.21188078,-95.85356847,22.22222222222222,wmoUnit:degC,97,1,9559.503452087469,wmoUnit:m,,,Flood Warning,Severe,Immediate,2025-06-06T07:30:00-05:00
Shackelford,32.7360276,-99.35403034,18.88888888888889,wmoUnit:degC,100,20,,,,,,,,
Palo Pinto,32.75316856,-98.31299522,20.0,wmoUnit:degC,90,15,11265.408,wmoUnit:m,,,,,,
Wilbarger,34.08044953,-99.24089568,17.77777777777778,wmoUnit:degC,100,59,,,SV,A,Severe Thunderstorm Watch,Severe,Future,2025-06-05T21:00:00-05:00
Floyd,34.07239775,-101.3033037,17.22222222222222,wmoUnit:degC,100,53,14435.816109741198,wmoUnit:m,TO,A,Tornado Watch,Extreme,Future,2025-06-05T22:00:00-05:00
Orange,30.12807126,-93.89653794,27.77777777777778,wmoUnit:degC,79,5,16045.160109741197,wmoUnit:m,,,,,,
Runnels,31.83105393,-99.97624799,25.0,wmoUnit:degC,85,7,,,,,,,,
Coleman,31.77329421,-99.45362579,23.88888888888889,wmoUnit:degC,87,5,,,,,,,,
Martin,32.30605847,-101.9512464,22.77777777777778,wmoUnit:degC,87,0,16093.44,wmoUnit:m,TO,A,Tornado Watch,Extreme,Future,2025-06-05T22:00:00-05:00
Wheeler,35.40129002,-100.2697634,17.22222222222222,wmoUnit:degC,97,33,,,SV,A,Severe Thunderstorm Watch,Severe,Future,2025-06-05T21:00:00-05:00
Culberson,31.44709817,-104.5177421,18.88888888888889,wmoUnit:degC,93,0,13035.687013915973,wmoUnit:m,SV,A,Severe Thunderstorm Watch,Severe,Future,2025-06-05T22:00:00-05:00
Mitchell,32.30636024,-100.9211128,25.555555555555557,wmoUnit:degC,82,0,13743.797698608354,wmoUnit:m,TO,A,Tornado Watch,Extreme,Future,2025-06-05T22:00:00-05:00
Hudspeth,31.45613738,-105.3869428,22.22222222222222,wmoUnit:degC,71,0,16093.44,wmoUnit:m,,,,,,
Upshur,32.7362827,-94.94132011,25.0,wmoUnit:degC,90,22,16093.44,wmoUnit:m,,,,,,
Liberty,30.15153187,-94.8120925,22.77777777777778,wmoUnit:degC,93,4,13953.01260278313,wmoUnit:m,,,Flood Warning,Severe,Expected,2025-06-06T08:00:00-05:00
Williamson,30.64834941,-97.60105467,25.0,wmoUnit:degC,91,4,11265.408,wmoUnit:m,,,,,,
Nacogdoches,31.61604108,-94.6158776,24.444444444444443,wmoUnit:degC,97,13,16093.44,wmoUnit:m,,,Flood Warning,Severe,Immediate,2025-06-05T21:45:00-05:00
Loving,31.84912973,-103.5799063,23.333333333333332,wmoUnit:degC,84,0,15868.131287475511,wmoUnit:m,SV,A,Severe Thunderstorm Warning,Severe,Immediate,2025-06-05T16:30:00-05:00
Jim Wells,27.73131099,-98.0898649,25.0,wmoUnit:degC,97,0,11088.379945129402,wmoUnit:m,,,,,,
Upton,31.36853957,-102.0430005,25.0,wmoUnit:degC,85,0,14757.68460278313,wmoUnit:m,SV,A,Severe Thunderstorm Watch,Severe,Future,2025-06-05T22:00:00-05:00
Newton,30.78619977,-93.74462993,26.11111111111111,wmoUnit:degC,88,0,16029.066301391646,wmoUnit:m,,,,,,
Lamar,33.66746186,-95.57110784,20.555555555555557,wmoUnit:degC,100,6,11265.408,wmoUnit:m,,,,,,
Polk,30.79250963,-94.82994949,22.77777777777778,wmoUnit:degC,97,0,11265.408,wmoUnit:m,,,Flood Warning,Severe,Immediate,2025-06-05T21:45:00-05:00
Collin,33.18789055,-96.57248871,21.11111111111111,wmoUnit:degC,90,9,12746.00460278313,wmoUnit:m,,,,,,
Hardeman,34.28865227,-99.7453851,17.22222222222222,wmoUnit:degC,100,44,,,SV,A,Severe Thunderstorm Watch,Severe,Future,2025-06-05T21:00:00-05:00
McMullen,28.35351091,-98.56842256,25.0,wmoUnit:degC,94,0,16093.44,wmoUnit:m,,,,,,
Cottle,34.0776571,-100.2786983,19.444444444444443,wmoUnit:degC,97,43,15208.300493041934,wmoUnit:m,TO,A,Tornado Watch,Extreme,Future,2025-06-05T22:00:00-05:00
Frio,28.86726774,-99.10826004,26.666666666666668,wmoUnit:degC,92,1,16093.44,wmoUnit:m,,,,,,
Gray,35.40130666,-100.812475,17.77777777777778,wmoUnit:degC,93,46,,,,,,,,
Dallam,36.27777107,-102.6021647,16.666666666666668,wmoUnit:degC,90,5,,,,,,,,
Kenedy,26.92409448,-97.68137783,30.0,wmoUnit:degC,76,16,,,,,,,,
Fort Bend,29.52763253,-95.77090562,25.0,wmoUnit:degC,94,10,12198.82739721687,wmoUnit:m,,,,,,
Armstrong,34.96522076,-101.3572412,16.666666666666668,wmoUnit:degC,97,45,,,,,,,,
Collingsworth,34.96498493,-100.2700733,18.333333333333332,wmoUnit:degC,97,43,,,SV,A,Severe Thunderstorm Watch,Severe,Future,2025-06-05T21:00:00-05:00
Cass,33.07750446,-94.34348771,27.22222222222222,wmoUnit:degC,82,27,16093.44,wmoUnit:m,,,,,,
Sherman,36.27765824,-101.8933822,16.666666666666668,wmoUnit:degC,97,14,,,,,,,,
Terry,33.17373729,-102.335157,19.444444444444443,wmoUnit:degC,93,47,14451.908383300735,wmoUnit:m,TO,A,Tornado Watch,Extreme,Future,2025-06-05T22:00:00-05:00
Limestone,31.54541898,-96.58056718,21.666666666666668,wmoUnit:degC,100,5,9656.064,wmoUnit:m,,,,,,
Real,29.83182711,-99.82215881,22.77777777777778,wmoUnit:degC,87,1,16093.44,wmoUnit:m,,,,,,
Lynn,33.17685487,-101.8160235,18.88888888888889,wmoUnit:degC,97,41,13534.582794433578,wmoUnit:m,TO,A,Tornado Watch,Extreme,Future,2025-06-05T22:00:00-05:00
Lavaca,29.38437003,-96.93020993,25.555555555555557,wmoUnit:degC,96,4,11265.408,wmoUnit:m,,,,,,
Nolan,32.3034718,-100.4060989,22.22222222222222,wmoUnit:degC,87,24,,,,,,,,
Gaines,32.74074537,-102.6351246,21.666666666666668,wmoUnit:degC,90,0,16045.160109741197,wmoUnit:m,TO,A,Tornado Watch,Extreme,Future,2025-06-05T22:00:00-05:00
Montgomery,30.30022409,-95.50301411,23.333333333333332,wmoUnit:degC,97,3,14500.18980834955,wmoUnit:m,,,,,,
Concho,31.32645211,-99.86413426,25.555555555555557,wmoUnit:degC,79,2,,,,,,,,
Hardin,30.33238431,-94.39021394,26.666666666666668,wmoUnit:degC,85,6,15868.131287475511,wmoUnit:m,,,,,,
Harris,29.85967144,-95.39782106,25.555555555555557,wmoUnit:degC,94,8,15272.674191650449,wmoUnit:m,,,,,,
Leon,31.29655719,-95.99554292,21.11111111111111,wmoUnit:degC,100,8,9656.064,wmoUnit:m,,,,,,
Bowie,33.44572786,-94.42324298,26.11111111111111,wmoUnit:degC,88,29,16093.44,wmoUnit:m,,,Flood Warning,Severe,Immediate,2025-06-06T12:30:00-05:00
Kaufman,32.59927808,-96.28779341,22.77777777777778,wmoUnit:degC,90,2,12746.00460278313,wmoUnit:m,,,,,,
Anderson,31.81321543,-95.65251774,21.666666666666668,wmoUnit:degC,97,2,9559.503452087469,wmoUnit:m,,,Flood Warning,Severe,Immediate,2025-06-05T21:45:00-05:00
San Saba,31.15520543,-98.81754295,24.444444444444443,wmoUnit:degC,90,2,,,,,,,,
Schleicher,30.89661056,-100.538097,24.444444444444443,wmoUnit:degC,74,0,,,,,,,,
Colorado,29.6208542,-96.52630821,24.444444444444443,wmoUnit:degC,100,4,12906.939616699265,wmoUnit:m,,,,,,
Milam,30.78625299,-96.97683495,23.88888888888889,wmoUnit:degC,100,4,7885.785753478953,wmoUnit:m,,,,,,
Live Oak,28.3514375,-98.12474493,25.0,wmoUnit:degC,98,0,14548.469698608355,wmoUnit:m,,,,,,
Borden,32.7436916,-101.4317533,20.555555555555557,wmoUnit:degC,90,0,11217.127342346272,wmoUnit:m,TO,A,Tornado Watch,Extreme,Future,2025-06-05T22:00:00-05:00
McCulloch,31.19896752,-99.34754972,24.444444444444443,wmoUnit:degC,85,1,,,,,,,,
Johnson,32.37899918,-97.36660504,22.77777777777778,wmoUnit:degC,93,10,12746.00460278313,wmoUnit:m,,,,,,
Montague,33.67496328,-97.72466993,18.333333333333332,wmoUnit:degC,97,21,11265.408,wmoUnit:m,,,,,,
Stonewall,33.17842158,-100.255259,19.444444444444443,wmoUnit:degC,93,20,15755.477698608354,wmoUnit:m,TO,A,Tornado Watch,Extreme,Future,2025-06-05T22:00:00-05:00
Comal,29.80816362,-98.27814516,23.88888888888889,wmoUnit:degC,93,1,12746.00460278313,wmoUnit:m,,,,,,
Eastland,32.32739258,-98.8325713,20.555555555555557,wmoUnit:degC,90,10,11265.408,wmoUnit:m,,,,,,
Comanche,31.9490639,-98.55841538,21.11111111111111,wmoUnit:degC,97,8,11265.408,wmoUnit:m,,,,,,
King,33.61641863,-100.2558584,20.0,wmoUnit:degC,93,41,14484.096,wmoUnit:m,TO,A,Tornado Watch,Extreme,Future,2025-06-05T22:00:00-05:00
Washington,30.2145299,-96.40356575,25.0,wmoUnit:degC,94,5,11265.408,wmoUnit:m,,,,,,
Webb,27.76102524,-99.33170164,25.555555555555557,wmoUnit:degC,84,0,16093.44,wmoUnit:m,,,,,,
Fayette,29.87683207,-96.91968047,25.555555555555557,wmoUnit:degC,92,5,11265.408,wmoUnit:m,,,,,,
Harrison,32.54814898,-94.37155736,23.333333333333332,wmoUnit:degC,100,18,16093.44,wmoUnit:m,,,,,,
Presidio,29.99977786,-104.2405552,21.666666666666668,wmoUnit:degC,81,0,12198.82739721687,wmoUnit:m,,,,,,
Austin,29.88711223,-96.27791829,25.0,wmoUnit:degC,97,5,9527.31660278313,wmoUnit:m,,,,,,
Randall,34.96594288,-101.8968527,16.666666666666668,wmoUnit:degC,97,48,,,,,,,,
Hood,32.43107878,-97.83280338,21.666666666666668,wmoUnit:degC,93,8,11265.408,wmoUnit:m,,,,,,
Victoria,28.79640594,-96.97176602,25.0,wmoUnit:degC,98,2,7885.785753478953,wmoUnit:m,,,,,,
Hutchinson,35.84000866,-101.3547257,17.77777777777778,wmoUnit:degC,93,22,,,,,,,,
Coryell,31.39087578,-97.7991883,23.88888888888889,wmoUnit:degC,97,4,9656.064,wmoUnit:m,,,,,,
Jackson,28.95603133,-96.57883268,26.11111111111111,wmoUnit:degC,91,4,13132.246794433579,wmoUnit:m,,,,,,
Taylor,32.30138229,-99.89003941,21.11111111111111,wmoUnit:degC,93,15,,,,,,,,
Zapata,27.00089072,-99.16860134,30.555555555555557,wmoUnit:degC,63,0,,,,,,,,
San Patricio,28.00922186,-97.51859857,26.11111111111111,wmoUnit:degC,91,1,16093.44,wmoUnit:m,,,,,,
Grimes,30.54360689,-95.98557334,23.333333333333332,wmoUnit:degC,97,3,13920.824986084028,wmoUnit:m,,,,,,
Lamb,34.06861242,-102.3517095,17.22222222222222,wmoUnit:degC,97,39,14725.496986084027,wmoUnit:m,TO,A,Tornado Watch,Extreme,Future,2025-06-05T22:00:00-05:00
