countyName,latitude,longitude,temperature,temperature_unit,relativeHumidity,precipitationProbability,visibility,visibility_unit,hazard_phenomenon,hazard_significance,alert_event,alert_severity,alert_urgency,alert_expires
Foard,33.97408519,-99.77871109,21.11111111111111,wmoUnit:degC,88,5,,,,,,,,
Blanco,30.26636128,-98.39974086,22.77777777777778,wmoUnit:degC,90,1,16093.44,wmoUnit:m,,,,,,
Hockley,33.60750375,-102.3430919,19.444444444444443,wmoUnit:degC,67,4,16093.44,wmoUnit:m,,,,,,
Llano,30.70566579,-98.68387398,23.333333333333332,wmoUnit:degC,82,0,16093.44,wmoUnit:m,,,,,,
Swisher,34.53064989,-101.734951,17.22222222222222,wmoUnit:degC,80,7,16093.44,wmoUnit:m,,,,,,
Titus,33.2160906,-94.96509786,18.88888888888889,wmoUnit:degC,88,0,16093.44,wmoUnit:m,,,,,,
Navarro,32.04695429,-96.47248134,22.22222222222222,wmoUnit:degC,76,0,16093.44,wmoUnit:m,,,,,,
Brazoria,29.19345387,-95.45578479,24.444444444444443,wmoUnit:degC,94,15,14484.096,wmoUnit:m,,,Air Quality Alert,Unknown,Unknown,2025-06-01T18:00:00-05:00
Hidalgo,26.396627,-98.18088681,24.444444444444443,wmoUnit:degC,93,1,,,,,,,,
Archer,33.61539176,-98.68783437,21.11111111111111,wmoUnit:degC,91,2,,,,,,,,
Refugio,28.32681413,-97.16546961,25.555555555555557,wmoUnit:degC,91,0,15675.010191650448,wmoUnit:m,,,,,,
Andrews,32.30506283,-102.6378839,23.333333333333332,wmoUnit:degC,52,0,16093.44,wmoUnit:m,,,,,,
Galveston,29.39424415,-94.96474975,25.555555555555557,wmoUnit:degC,88,15,15240.488109741196,wmoUnit:m,,,Air Quality Alert,Unknown,Unknown,2025-06-01T18:00:00-05:00
De Witt,29.08201599,-97.35666976,24.444444444444443,wmoUnit:degC,90,1,11265.408,wmoUnit:m,,,,,,
Gonzales,29.45641495,-97.49279927,24.444444444444443,wmoUnit:degC,87,1,16093.44,wmoUnit:m,,,,,,
Wharton,29.2778362,-96.22197375,24.444444444444443,wmoUnit:degC,97,3,11796.49139721687,wmoUnit:m,,,,,,
Fannin,33.59396919,-96.10656755,19.444444444444443,wmoUnit:degC,84,0,16093.44,wmoUnit:m,,,,,,
Madison,30.96564645,-95.92818441,21.666666666666668,wmoUnit:degC,84,1,16093.44,wmoUnit:m,,,Flood Warning,Severe,Immediate,2025-06-02T06:00:00-05:00
Moore,35.83768863,-101.8929556,16.666666666666668,wmoUnit:degC,75,20,,,,,,,,
Tyler,30.7712607,-94.37651432,20.555555555555557,wmoUnit:degC,84,0,15900.318904174776,wmoUnit:m,,,,,,
Lipscomb,36.27778432,-100.27317,21.11111111111111,wmoUnit:degC,81,20,,,,,,,,
Burleson,30.49246139,-96.62109399,23.333333333333332,wmoUnit:degC,74,1,16093.44,wmoUnit:m,,,,,,
Jim Hogg,27.04340499,-98.6972921,23.88888888888889,wmoUnit:degC,93,1,,,,,,,,
Throckmorton,33.17753907,-99.21236832,21.11111111111111,wmoUnit:degC,84,1,16093.44,wmoUnit:m,,,,,,
Kleberg,27.43274395,-97.72889778,26.666666666666668,wmoUnit:degC,91,3,15835.94520556642,wmoUnit:m,,,,,,
Shelby,31.79242191,-94.14495261,18.88888888888889,wmoUnit:degC,88,0,16093.44,wmoUnit:m,,,,,,
Garza,33.17991074,-101.2984496,22.22222222222222,wmoUnit:degC,58,5,16093.44,wmoUnit:m,,,,,,
Karnes,28.90493782,-97.85960621,25.555555555555557,wmoUnit:degC,85,0,16093.44,wmoUnit:m,,,,,,
Reeves,31.32307061,-103.693143,24.444444444444443,wmoUnit:degC,41,0,16093.44,wmoUnit:m,,,,,,
Houston,31.31764137,-95.42225367,20.555555555555557,wmoUnit:degC,87,1,16012.972493041932,wmoUnit:m,,,Flood Warning,Severe,Immediate,2025-06-01T22:00:00-05:00
El Paso,31.7686226,-106.2352229,26.666666666666668,wmoUnit:degC,33,5,16093.44,wmoUnit:m,AQ,Y,,,,
Carson,35.40346802,-101.3542037,18.88888888888889,wmoUnit:degC,68,14,,,,,,,,
Medina,29.35520493,-99.11008331,23.88888888888889,wmoUnit:degC,90,3,16093.44,wmoUnit:m,,,,,,
Wichita,33.98421585,-98.70153389,21.11111111111111,wmoUnit:degC,88,5,,,,,,,,
Chambers,29.73912276,-94.60891308,24.444444444444443,wmoUnit:degC,90,3,15272.674191650449,wmoUnit:m,,,,,,
Donley,34.96540246,-100.8140501,16.666666666666668,wmoUnit:degC,100,11,,,,,,,,
Hopkins,33.14933822,-95.56414173,18.88888888888889,wmoUnit:degC,84,0,16093.44,wmoUnit:m,,,,,,
Lampasas,31.19627791,-98.24142711,22.22222222222222,wmoUnit:degC,87,0,11265.408,wmoUnit:m,,,,,,
Falls,31.25317017,-96.93579511,21.11111111111111,wmoUnit:degC,87,0,16093.44,wmoUnit:m,,,,,,
Stephens,32.73584155,-98.83612016,23.88888888888889,wmoUnit:degC,71,0,16093.44,wmoUnit:m,,,,,,
Travis,30.33423319,-97.78194654,23.333333333333332,wmoUnit:degC,82,1,16093.44,wmoUnit:m,,,,,,
Roberts,35.8385577,-100.8135689,17.77777777777778,wmoUnit:degC,81,18,,,,,,,,
Crosby,33.61459873,-101.2998612,20.555555555555557,wmoUnit:degC,66,5,16093.44,wmoUnit:m,,,,,,
Kerr,30.06153035,-99.35016969,22.22222222222222,wmoUnit:degC,90,2,16093.44,wmoUnit:m,,,,,,
Wood,32.78634374,-95.38206498,19.444444444444443,wmoUnit:degC,83,0,16093.44,wmoUnit:m,,,,,,
Jack,33.23345819,-98.1725509,22.22222222222222,wmoUnit:degC,81,0,16093.44,wmoUnit:m,,,,,,
Marion,32.79797929,-94.35725239,18.88888888888889,wmoUnit:degC,90,0,16093.44,wmoUnit:m,,,,,,
Hale,34.07051782,-101.8269082,18.88888888888889,wmoUnit:degC,73,5,16093.44,wmoUnit:m,,,,,,
Jeff Davis,30.71559322,-104.1403539,16.666666666666668,wmoUnit:degC,64,1,16093.44,wmoUnit:m,,,,,,
Tarrant,32.77185236,-97.29116473,23.88888888888889,wmoUnit:degC,71,0,16093.44,wmoUnit:m,OzoneActionDay,,Air Quality Alert,Unknown,Unknown,2025-06-01T17:00:00-05:00
Waller,30.01093722,-95.98768942,23.88888888888889,wmoUnit:degC,84,3,16093.44,wmoUnit:m,,,,,,
Reagan,31.36617698,-101.5230108,22.22222222222222,wmoUnit:degC,71,0,16093.44,wmoUnit:m,,,,,,
Smith,32.37514553,-95.26909511,20.0,wmoUnit:degC,81,0,16093.44,wmoUnit:m,,,,,,
Van Zandt,32.56368961,-95.8364862,19.444444444444443,wmoUnit:degC,84,0,16093.44,wmoUnit:m,,,Special Weather Statement,Moderate,Expected,2025-06-01T10:15:00-05:00
Cooke,33.638465,-97.21247642,22.22222222222222,wmoUnit:degC,76,0,16093.44,wmoUnit:m,,,,,,
Zavala,28.86530621,-99.76102001,25.0,wmoUnit:degC,88,3,16093.44,wmoUnit:m,,,,,,
Hall,34.53074134,-100.6809876,19.444444444444443,wmoUnit:degC,80,5,16061.252383300736,wmoUnit:m,,,,,,
Kendall,29.9446397,-98.71160511,21.666666666666668,wmoUnit:degC,97,2,16093.44,wmoUnit:m,,,,,,
Goliad,28.65708563,-97.42646082,25.555555555555557,wmoUnit:degC,85,0,15900.318904174776,wmoUnit:m,,,,,,
Yoakum,33.17293501,-102.8278792,19.444444444444443,wmoUnit:degC,68,2,16093.44,wmoUnit:m,,,,,,
Knox,33.60614755,-99.74144313,22.77777777777778,wmoUnit:degC,75,2,,,,,,,,
McLennan,31.55234489,-97.20184883,22.77777777777778,wmoUnit:degC,81,0,16093.44,wmoUnit:m,,,,,,
Brewster,29.81205836,-103.2518906,22.22222222222222,wmoUnit:degC,71,0,16093.44,wmoUnit:m,,,,,,
Panola,32.16222886,-94.30552858,19.444444444444443,wmoUnit:degC,85,0,16093.44,wmoUnit:m,,,,,,
Bandera,29.74724753,-99.24637282,21.666666666666668,wmoUnit:degC,93,7,16093.44,wmoUnit:m,,,,,,
Parmer,34.53014507,-102.784594,17.77777777777778,wmoUnit:degC,85,4,16093.44,wmoUnit:m,,,,,,
Rockwall,32.89786769,-96.40780584,21.666666666666668,wmoUnit:degC,71,0,16093.44,wmoUnit:m,OzoneActionDay,,Air Quality Alert,Unknown,Unknown,2025-06-01T17:00:00-05:00
Trinity,31.0885069,-95.13551682,21.11111111111111,wmoUnit:degC,87,1,15980.786411132844,wmoUnit:m,,,Flood Warning,Severe,Immediate,2025-06-02T06:00:00-05:00
Bosque,31.90050476,-97.63437613,22.22222222222222,wmoUnit:degC,81,0,16093.44,wmoUnit:m,,,,,,
Coke,31.88849293,-100.5298747,20.555555555555557,wmoUnit:degC,81,0,16093.44,wmoUnit:m,,,,,,
Franklin,33.17550691,-95.21841437,20.0,wmoUnit:degC,77,0,16093.44,wmoUnit:m,,,,,,
Hill,31.99079033,-97.1324142,21.666666666666668,wmoUnit:degC,79,0,16093.44,wmoUnit:m,,,,,,
Calhoun,28.48966896,-96.64708119,26.666666666666668,wmoUnit:degC,91,2,15562.35660278313,wmoUnit:m,,,,,,
Irion,31.30393203,-100.9824126,21.11111111111111,wmoUnit:degC,81,0,16093.44,wmoUnit:m,,,,,,
Midland,31.86921148,-102.0315032,24.444444444444443,wmoUnit:degC,55,0,16093.44,wmoUnit:m,,,,,,
Brown,31.77432313,-98.99989649,20.555555555555557,wmoUnit:degC,93,0,16093.44,wmoUnit:m,,,,,,
Wilson,29.17315896,-98.08621015,24.444444444444443,wmoUnit:degC,87,2,16093.44,wmoUnit:m,,,,,,
Oldham,35.40497586,-102.6029949,17.77777777777778,wmoUnit:degC,73,17,,,,,,,,
Freestone,31.70486443,-96.14918535,20.555555555555557,wmoUnit:degC,81,0,16093.44,wmoUnit:m,,,,,,
Sabine,31.34321941,-93.85170439,20.0,wmoUnit:degC,89,0,16093.44,wmoUnit:m,,,,,,
Deaf Smith,34.96602014,-102.6048162,16.666666666666668,wmoUnit:degC,72,13,,,,,,,,
Angelina,31.25475875,-94.611742,20.555555555555557,wmoUnit:degC,87,0,16093.44,wmoUnit:m,,,Flood Warning,Severe,Immediate,2025-06-01T22:00:00-05:00
Kent,33.18284492,-100.7791031,22.22222222222222,wmoUnit:degC,65,5,16093.44,wmoUnit:m,,,,,,
Red River,33.62074539,-95.0501886,20.0,wmoUnit:degC,72,0,16093.44,wmoUnit:m,,,,,,
Kinney,29.35000302,-100.4178441,24.444444444444443,wmoUnit:degC,82,1,16093.44,wmoUnit:m,,,,,,
Denton,33.205574,-97.11681154,25.0,wmoUnit:degC,64,0,16093.44,wmoUnit:m,OzoneActionDay,,Air Quality Alert,Unknown,Unknown,2025-06-01T17:00:00-05:00
Sutton,30.49747152,-100.5382263,20.555555555555557,wmoUnit:degC,90,0,16093.44,wmoUnit:m,,,,,,
Guadalupe,29.58257236,-97.94850308,23.88888888888889,wmoUnit:degC,90,2,16093.44,wmoUnit:m,,,,,,
Winkler,31.85008609,-103.0484794,22.77777777777778,wmoUnit:degC,52,0,16093.44,wmoUnit:m,,,,,,
Dimmit,28.42161168,-99.760574,26.11111111111111,wmoUnit:degC,74,1,16093.44,wmoUnit:m,,,,,,
Wise,33.21585061,-97.65444124,22.77777777777778,wmoUnit:degC,71,0,16093.44,wmoUnit:m,OzoneActionDay,,Air Quality Alert,Unknown,Unknown,2025-06-01T17:00:00-05:00
Hemphill,35.83750155,-100.2704628,22.22222222222222,wmoUnit:degC,79,18,,,,,,,,
Potter,35.40128927,-101.8940484,17.77777777777778,wmoUnit:degC,75,14,,,,,,,,
Childress,34.52929257,-100.2075664,20.555555555555557,wmoUnit:degC,78,6,16093.44,wmoUnit:m,,,,,,
Willacy,26.47132899,-97.64303323,23.88888888888889,wmoUnit:degC,99,1,,,,,,,,
Bastrop,30.10353518,-97.31187705,23.88888888888889,wmoUnit:degC,84,1,16093.44,wmoUnit:m,,,,,,
Kimble,30.48676251,-99.74892716,21.11111111111111,wmoUnit:degC,93,0,16093.44,wmoUnit:m,,,,,,
Scurry,32.74720063,-100.9165071,23.88888888888889,wmoUnit:degC,58,0,16093.44,wmoUnit:m,,,,,,
Ochiltree,36.27846334,-100.815653,18.88888888888889,wmoUnit:degC,81,20,,,,,,,,
Hansford,36.27753179,-101.3545624,19.444444444444443,wmoUnit:degC,70,24,,,,,,,,
Hartley,35.83996755,-102.6028835,17.77777777777778,wmoUnit:degC,78,20,,,,,,,,
Cameron,26.13847728,-97.51499968,24.444444444444443,wmoUnit:degC,94,2,,,,,,,,
Matagorda,28.86711039,-95.98533866,25.555555555555557,wmoUnit:degC,91,3,12343.668602783131,wmoUnit:m,,,,,,
Burnet,30.78843382,-98.18252382,21.666666666666668,wmoUnit:degC,87,0,16093.44,wmoUnit:m,,,,,,
Rains,32.87004212,-95.79347545,19.444444444444443,wmoUnit:degC,81,0,16093.44,wmoUnit:m,,,,,,
Hays,30.05782657,-98.03104087,22.77777777777778,wmoUnit:degC,87,1,16093.44,wmoUnit:m,,,,,,
Mason,30.71742293,-99.2263026,21.666666666666668,wmoUnit:degC,90,0,16093.44,wmoUnit:m,,,,,,
Ward,31.509424,-103.1024636,23.88888888888889,wmoUnit:degC,47,0,16093.44,wmoUnit:m,,,,,,
Delta,33.38623601,-95.67221685,19.444444444444443,wmoUnit:degC,84,0,16093.44,wmoUnit:m,,,,,,
Nueces,27.72621549,-97.61767326,26.666666666666668,wmoUnit:degC,85,1,16045.160109741197,wmoUnit:m,,,,,,
Callahan,32.2977738,-99.37359692,21.666666666666668,wmoUnit:degC,81,0,16093.44,wmoUnit:m,,,,,,
Bell,31.03778267,-97.47790776,22.77777777777778,wmoUnit:degC,81,0,16093.44,wmoUnit:m,,,,,,
Cherokee,31.83695632,-95.16515234,20.555555555555557,wmoUnit:degC,78,0,16093.44,wmoUnit:m,,,Flood Warning,Severe,Immediate,2025-06-01T22:00:00-05:00
Ellis,32.34839264,-96.79467417,22.22222222222222,wmoUnit:degC,76,0,16093.44,wmoUnit:m,OzoneActionDay,,Air Quality Alert,Unknown,Unknown,2025-06-01T17:00:00-05:00
Lubbock,33.6101944,-101.8205745,20.555555555555557,wmoUnit:degC,63,5,16093.44,wmoUnit:m,,,,,,
Terrell,30.22502597,-102.0764533,23.88888888888889,wmoUnit:degC,66,0,16093.44,wmoUnit:m,,,,,,
Crockett,30.72291931,-101.4118364,21.11111111111111,wmoUnit:degC,78,0,16093.44,wmoUnit:m,,,,,,
Atascosa,28.89418432,-98.52741302,25.0,wmoUnit:degC,85,2,16093.44,wmoUnit:m,,,,,,
Ector,31.86908156,-102.5430907,25.0,wmoUnit:degC,41,0,16093.44,wmoUnit:m,,,,,,
Brazos,30.6610425,-96.3022943,23.333333333333332,wmoUnit:degC,76,1,16093.44,wmoUnit:m,,,Flood Warning,Severe,Immediate,2025-06-02T06:00:00-05:00
Aransas,28.12709562,-96.99258951,27.22222222222222,wmoUnit:degC,88,0,15707.197808349552,wmoUnit:m,,,,,,
Dallas,32.76653746,-96.77781862,23.88888888888889,wmoUnit:degC,64,0,16093.44,wmoUnit:m,OzoneActionDay,,Air Quality Alert,Unknown,Unknown,2025-06-01T17:00:00-05:00
Howard,32.30610232,-101.4355097,22.77777777777778,wmoUnit:degC,70,0,16093.44,wmoUnit:m,,,,,,
Motley,34.07409017,-100.7798961,20.0,wmoUnit:degC,74,5,16093.44,wmoUnit:m,,,,,,
San Augustine,31.39427005,-94.16809762,19.444444444444443,wmoUnit:degC,90,0,16093.44,wmoUnit:m,,,,,,
Maverick,28.74260943,-100.3144638,26.666666666666668,wmoUnit:degC,77,1,16093.44,wmoUnit:m,,,,,,
Erath,32.23640361,-98.21722756,21.666666666666668,wmoUnit:degC,84,0,16093.44,wmoUnit:m,,,,,,
Dickens,33.61663428,-100.7788138,21.666666666666668,wmoUnit:degC,66,5,16093.44,wmoUnit:m,,,,,,
Caldwell,29.83677935,-97.61983479,23.333333333333332,wmoUnit:degC,90,1,16093.44,wmoUnit:m,,,,,,
Dawson,32.74258137,-101.9476136,22.77777777777778,wmoUnit:degC,60,1,16093.44,wmoUnit:m,,,,,,
Camp,32.97321771,-94.97860185,20.0,wmoUnit:degC,83,0,16093.44,wmoUnit:m,,,,,,
Duval,27.68133382,-98.50889672,26.11111111111111,wmoUnit:degC,85,2,15787.665315307619,wmoUnit:m,,,,,,
Hunt,33.123531,-96.08550014,21.11111111111111,wmoUnit:degC,78,0,16093.44,wmoUnit:m,OzoneActionDay,,Air Quality Alert,Unknown,Unknown,2025-06-01T17:00:00-05:00
Mills,31.49524259,-98.59552736,22.22222222222222,wmoUnit:degC,81,0,16093.44,wmoUnit:m,,,,,,
Val Verde,29.89300587,-101.15171,24.444444444444443,wmoUnit:degC,69,0,16093.44,wmoUnit:m,,,,,,
Pecos,30.78100044,-102.7235743,23.88888888888889,wmoUnit:degC,58,0,16093.44,wmoUnit:m,,,,,,
Baylor,33.61648147,-99.21351964,21.666666666666668,wmoUnit:degC,82,3,,,,,,,,
Gregg,32.48036452,-94.81723694,20.0,wmoUnit:degC,84,0,16093.44,wmoUnit:m,,,,,,
Cochran,33.60410808,-102.8285264,18.88888888888889,wmoUnit:degC,71,3,16093.44,wmoUnit:m,,,,,,
Jasper,30.74391255,-94.02495849,21.666666666666668,wmoUnit:degC,81,0,16093.44,wmoUnit:m,,,,,,
Hamilton,31.70479181,-98.11066654,21.666666666666668,wmoUnit:degC,87,0,16093.44,wmoUnit:m,,,,,,
Castro,34.53000304,-102.2617608,17.22222222222222,wmoUnit:degC,86,6,16093.44,wmoUnit:m,,,,,,
Sterling,31.82786516,-101.0500699,19.444444444444443,wmoUnit:degC,84,0,16093.44,wmoUnit:m,,,,,,
Starr,26.56212627,-98.73834895,24.444444444444443,wmoUnit:degC,90,1,,,,,,,,
Crane,31.42846287,-102.5156425,24.444444444444443,wmoUnit:degC,57,0,16093.44,wmoUnit:m,,,,,,
Morris,33.11368507,-94.73205137,19.444444444444443,wmoUnit:degC,87,0,16093.44,wmoUnit:m,,,,,,
Briscoe,34.53041048,-101.2085769,19.444444444444443,wmoUnit:degC,67,7,16093.44,wmoUnit:m,,,,,,
Tom Green,31.4044442,-100.4620678,21.11111111111111,wmoUnit:degC,90,0,16093.44,wmoUnit:m,,,,,,
Menard,30.88981785,-99.82061472,20.0,wmoUnit:degC,97,0,16093.44,wmoUnit:m,,,,,,
Parker,32.77852261,-97.80472194,22.77777777777778,wmoUnit:degC,73,0,16093.44,wmoUnit:m,OzoneActionDay,,Air Quality Alert,Unknown,Unknown,2025-06-01T17:00:00-05:00
Walker,30.73899492,-95.57224172,22.77777777777778,wmoUnit:degC,81,1,16093.44,wmoUnit:m,,,Flood Warning,Severe,Immediate,2025-06-02T06:00:00-05:00
Brooks,27.0315669,-98.21874127,23.88888888888889,wmoUnit:degC,93,0,,,,,,,,
La Salle,28.34621032,-99.1034773,28.333333333333332,wmoUnit:degC,67,3,15900.318904174776,wmoUnit:m,,,,,,
Edwards,29.98248216,-100.3048937,21.666666666666668,wmoUnit:degC,84,0,16093.44,wmoUnit:m,,,,,,
Lee,30.31065065,-96.96568735,21.666666666666668,wmoUnit:degC,84,1,16093.44,wmoUnit:m,,,,,,
Robertson,31.02705415,-96.51272568,22.22222222222222,wmoUnit:degC,81,0,16093.44,wmoUnit:m,,,Flood Warning,Severe,Immediate,2025-06-02T03:15:00-05:00
Young,33.17670764,-98.68781396,23.333333333333332,wmoUnit:degC,79,1,16093.44,wmoUnit:m,,,,,,
Bee,28.41736675,-97.74116811,25.555555555555557,wmoUnit:degC,85,0,15739.383890258803,wmoUnit:m,,,,,,
Clay,33.78379717,-98.208958,21.11111111111111,wmoUnit:degC,88,6,,,,,,,,
San Jacinto,30.57948905,-95.16683273,21.666666666666668,wmoUnit:degC,90,1,16093.44,wmoUnit:m,,,Flood Warning,Severe,Immediate,2025-06-02T06:00:00-05:00
Uvalde,29.35669829,-99.76203107,23.333333333333332,wmoUnit:degC,93,1,16093.44,wmoUnit:m,,,,,,
Haskell,33.17824805,-99.73029401,21.666666666666668,wmoUnit:degC,79,2,16093.44,wmoUnit:m,,,,,,
Somervell,32.22229511,-97.77456553,23.333333333333332,wmoUnit:degC,74,0,16093.44,wmoUnit:m,,,,,,
Bexar,29.44884523,-98.51966309,25.0,wmoUnit:degC,88,5,16093.44,wmoUnit:m,,,,,,
Grayson,33.62684371,-96.67764864,20.555555555555557,wmoUnit:degC,76,0,16093.44,wmoUnit:m,,,,,,
Bailey,34.0684915,-102.8299069,18.333333333333332,wmoUnit:degC,76,4,16093.44,wmoUnit:m,,,,,,
Jones,32.73970429,-99.87850599,23.333333333333332,wmoUnit:degC,69,0,16093.44,wmoUnit:m,,,,,,
Jefferson,29.88425832,-94.1708778,23.333333333333332,wmoUnit:degC,84,0,16077.34619165045,wmoUnit:m,,,,,,
Rusk,32.10803224,-94.76169577,21.11111111111111,wmoUnit:degC,77,0,16093.44,wmoUnit:m,,,,,,
Glasscock,31.8694238,-101.520742,21.11111111111111,wmoUnit:degC,84,0,16093.44,wmoUnit:m,,,,,,
Gillespie,30.31800246,-98.94627245,21.666666666666668,wmoUnit:degC,93,1,16093.44,wmoUnit:m,,,,,,
Fisher,32.74305155,-100.4019503,23.88888888888889,wmoUnit:degC,56,0,16093.44,wmoUnit:m,,,,,,
Henderson,32.21188078,-95.85356847,20.555555555555557,wmoUnit:degC,84,0,16093.44,wmoUnit:m,OzoneActionDay,,Air Quality Alert,Unknown,Unknown,2025-06-01T17:00:00-05:00
Shackelford,32.7360276,-99.35403034,21.666666666666668,wmoUnit:degC,81,1,16093.44,wmoUnit:m,,,,,,
Palo Pinto,32.75316856,-98.31299522,23.333333333333332,wmoUnit:degC,74,0,16093.44,wmoUnit:m,,,,,,
Wilbarger,34.08044953,-99.24089568,21.11111111111111,wmoUnit:degC,89,5,,,,,,,,
Floyd,34.07239775,-101.3033037,19.444444444444443,wmoUnit:degC,68,5,16093.44,wmoUnit:m,,,,,,
Orange,30.12807126,-93.89653794,23.333333333333332,wmoUnit:degC,82,0,16093.44,wmoUnit:m,,,Flood Warning,Severe,Immediate,2025-06-02T10:00:00-05:00
Runnels,31.83105393,-99.97624799,20.555555555555557,wmoUnit:degC,90,0,16093.44,wmoUnit:m,,,,,,
Coleman,31.77329421,-99.45362579,20.555555555555557,wmoUnit:degC,90,0,16093.44,wmoUnit:m,,,,,,
Martin,32.30605847,-101.9512464,24.444444444444443,wmoUnit:degC,47,0,16093.44,wmoUnit:m,,,,,,
Wheeler,35.40129002,-100.2697634,21.11111111111111,wmoUnit:degC,84,14,,,,,,,,
Culberson,31.44709817,-104.5177421,21.11111111111111,wmoUnit:degC,53,1,16093.44,wmoUnit:m,,,,,,
Mitchell,32.30636024,-100.9211128,23.88888888888889,wmoUnit:degC,58,0,16093.44,wmoUnit:m,,,,,,
Hudspeth,31.45613738,-105.3869428,22.77777777777778,wmoUnit:degC,48,4,16093.44,wmoUnit:m,,,,,,
Upshur,32.7362827,-94.94132011,19.444444444444443,wmoUnit:degC,89,0,16093.44,wmoUnit:m,,,,,,
Liberty,30.15153187,-94.8120925,23.333333333333332,wmoUnit:degC,84,5,16093.44,wmoUnit:m,,,,,,
Williamson,30.64834941,-97.60105467,23.333333333333332,wmoUnit:degC,79,0,16093.44,wmoUnit:m,,,,,,
Nacogdoches,31.61604108,-94.6158776,19.444444444444443,wmoUnit:degC,92,0,16093.44,wmoUnit:m,,,Flood Warning,Severe,Immediate,2025-06-01T22:00:00-05:00
Loving,31.84912973,-103.5799063,25.0,wmoUnit:degC,44,0,16093.44,wmoUnit:m,,,,,,
Jim Wells,27.73131099,-98.0898649,26.11111111111111,wmoUnit:degC,88,1,15530.168986084027,wmoUnit:m,,,,,,
Upton,31.36853957,-102.0430005,23.88888888888889,wmoUnit:degC,61,0,16093.44,wmoUnit:m,,,,,,
Newton,30.78619977,-93.74462993,20.555555555555557,wmoUnit:degC,87,0,16093.44,wmoUnit:m,,,Flood Warning,Severe,Immediate,2025-06-02T10:00:00-05:00
Lamar,33.66746186,-95.57110784,20.0,wmoUnit:degC,81,0,16093.44,wmoUnit:m,,,,,,
Polk,30.79250963,-94.82994949,21.666666666666668,wmoUnit:degC,84,1,16093.44,wmoUnit:m,,,Flood Warning,Severe,Immediate,2025-06-02T06:00:00-05:00
Collin,33.18789055,-96.57248871,22.77777777777778,wmoUnit:degC,71,0,16093.44,wmoUnit:m,OzoneActionDay,,Air Quality Alert,Unknown,Unknown,2025-06-01T17:00:00-05:00
Hardeman,34.28865227,-99.7453851,21.11111111111111,wmoUnit:degC,85,9,,,,,,,,
McMullen,28.35351091,-98.56842256,26.666666666666668,wmoUnit:degC,79,1,15868.131287475511,wmoUnit:m,,,,,,
Cottle,34.0776571,-100.2786983,20.555555555555557,wmoUnit:degC,75,5,16093.44,wmoUnit:m,,,,,,
Frio,28.86726774,-99.10826004,25.0,wmoUnit:degC,82,4,16093.44,wmoUnit:m,,,,,,
Gray,35.40130666,-100.812475,18.333333333333332,wmoUnit:degC,84,14,,,,,,,,
Dallam,36.27777107,-102.6021647,16.666666666666668,wmoUnit:degC,81,27,,,,,,,,
Kenedy,26.92409448,-97.68137783,23.333333333333332,wmoUnit:degC,99,1,,,,,,,,
Fort Bend,29.52763253,-95.77090562,25.0,wmoUnit:degC,90,3,15240.488109741196,wmoUnit:m,,,,,,
Armstrong,34.96522076,-101.3572412,17.77777777777778,wmoUnit:degC,75,11,,,,,,,,
Collingsworth,34.96498493,-100.2700733,20.0,wmoUnit:degC,93,12,,,,,,,,
Cass,33.07750446,-94.34348771,18.88888888888889,wmoUnit:degC,88,0,16093.44,wmoUnit:m,,,,,,
Sherman,36.27765824,-101.8933822,17.77777777777778,wmoUnit:degC,73,28,,,,,,,,
Terry,33.17373729,-102.335157,19.444444444444443,wmoUnit:degC,69,3,16093.44,wmoUnit:m,,,,,,
Limestone,31.54541898,-96.58056718,20.555555555555557,wmoUnit:degC,78,0,16093.44,wmoUnit:m,,,,,,
Real,29.83182711,-99.82215881,21.666666666666668,wmoUnit:degC,84,3,16093.44,wmoUnit:m,,,,,,
Lynn,33.17685487,-101.8160235,20.555555555555557,wmoUnit:degC,63,4,16093.44,wmoUnit:m,,,,,,
Lavaca,29.38437003,-96.93020993,24.444444444444443,wmoUnit:degC,94,1,16093.44,wmoUnit:m,,,,,,
Nolan,32.3034718,-100.4060989,21.666666666666668,wmoUnit:degC,66,0,16093.44,wmoUnit:m,,,,,,
Gaines,32.74074537,-102.6351246,21.666666666666668,wmoUnit:degC,61,3,16093.44,wmoUnit:m,,,,,,
Montgomery,30.30022409,-95.50301411,22.77777777777778,wmoUnit:degC,87,1,16093.44,wmoUnit:m,,,,,,
Concho,31.32645211,-99.86413426,22.22222222222222,wmoUnit:degC,87,0,16093.44,wmoUnit:m,,,,,,
Hardin,30.33238431,-94.39021394,21.666666666666668,wmoUnit:degC,87,0,15996.878684692381,wmoUnit:m,,,,,,
Harris,29.85967144,-95.39782106,25.555555555555557,wmoUnit:degC,82,2,15272.674191650449,wmoUnit:m,,,Air Quality Alert,Unknown,Unknown,2025-06-01T18:00:00-05:00
Leon,31.29655719,-95.99554292,20.0,wmoUnit:degC,84,0,16093.44,wmoUnit:m,,,Flood Warning,Severe,Immediate,2025-06-02T03:15:00-05:00
Bowie,33.44572786,-94.42324298,18.88888888888889,wmoUnit:degC,85,0,16093.44,wmoUnit:m,,,,,,
Kaufman,32.59927808,-96.28779341,21.11111111111111,wmoUnit:degC,81,0,16093.44,wmoUnit:m,OzoneActionDay,,Special Weather Statement,Moderate,Expected,2025-06-01T10:15:00-05:00
Anderson,31.81321543,-95.65251774,19.444444444444443,wmoUnit:degC,90,0,16093.44,wmoUnit:m,,,Flood Warning,Severe,Immediate,2025-06-01T22:00:00-05:00
San Saba,31.15520543,-98.81754295,21.666666666666668,wmoUnit:degC,90,0,16093.44,wmoUnit:m,,,,,,
Schleicher,30.89661056,-100.538097,20.555555555555557,wmoUnit:degC,84,0,16093.44,wmoUnit:m,,,,,,
Colorado,29.6208542,-96.52630821,23.88888888888889,wmoUnit:degC,90,1,14886.432,wmoUnit:m,,,,,,
Milam,30.78625299,-96.97683495,22.22222222222222,wmoUnit:degC,84,0,16093.44,wmoUnit:m,,,,,,
Live Oak,28.3514375,-98.12474493,26.11111111111111,wmoUnit:degC,82,0,15658.916383300735,wmoUnit:m,,,,,,
Borden,32.7436916,-101.4317533,25.0,wmoUnit:degC,52,0,16093.44,wmoUnit:m,,,,,,
McCulloch,31.19896752,-99.34754972,21.11111111111111,wmoUnit:degC,93,0,16093.44,wmoUnit:m,,,,,,
Johnson,32.37899918,-97.36660504,23.333333333333332,wmoUnit:degC,71,0,16093.44,wmoUnit:m,OzoneActionDay,,Air Quality Alert,Unknown,Unknown,2025-06-01T17:00:00-05:00
Montague,33.67496328,-97.72466993,22.22222222222222,wmoUnit:degC,76,0,16093.44,wmoUnit:m,,,,,,
Stonewall,33.17842158,-100.255259,21.11111111111111,wmoUnit:degC,70,5,16093.44,wmoUnit:m,,,,,,
Comal,29.80816362,-98.27814516,22.22222222222222,wmoUnit:degC,87,3,16093.44,wmoUnit:m,,,,,,
Eastland,32.32739258,-98.8325713,22.77777777777778,wmoUnit:degC,79,0,16093.44,wmoUnit:m,,,,,,
Comanche,31.9490639,-98.55841538,21.666666666666668,wmoUnit:degC,81,0,16093.44,wmoUnit:m,,,,,,
King,33.61641863,-100.2558584,21.11111111111111,wmoUnit:degC,78,5,16093.44,wmoUnit:m,,,,,,
Washington,30.2145299,-96.40356575,22.77777777777778,wmoUnit:degC,81,1,16093.44,wmoUnit:m,,,,,,
Webb,27.76102524,-99.33170164,28.333333333333332,wmoUnit:degC,70,5,15932.504986084026,wmoUnit:m,,,,,,
Fayette,29.87683207,-96.91968047,23.333333333333332,wmoUnit:degC,90,1,16093.44,wmoUnit:m,,,,,,
Harrison,32.54814898,-94.37155736,19.444444444444443,wmoUnit:degC,85,0,16093.44,wmoUnit:m,,,,,,
Presidio,29.99977786,-104.2405552,20.0,wmoUnit:degC,61,1,16093.44,wmoUnit:m,,,,,,
Austin,29.88711223,-96.27791829,23.333333333333332,wmoUnit:degC,93,1,16093.44,wmoUnit:m,,,,,,
Randall,34.96594288,-101.8968527,18.333333333333332,wmoUnit:degC,70,12,,,,,,,,
Hood,32.43107878,-97.83280338,23.88888888888889,wmoUnit:degC,69,0,16093.44,wmoUnit:m,OzoneActionDay,,Air Quality Alert,Unknown,Unknown,2025-06-01T17:00:00-05:00
Victoria,28.79640594,-96.97176602,25.555555555555557,wmoUnit:degC,91,1,15337.047890258802,wmoUnit:m,,,,,,
Hutchinson,35.84000866,-101.3547257,20.555555555555557,wmoUnit:degC,63,20,,,,,,,,
Coryell,31.39087578,-97.7991883,23.333333333333332,wmoUnit:degC,79,0,16093.44,wmoUnit:m,,,,,,
Jackson,28.95603133,-96.57883268,25.0,wmoUnit:degC,97,3,14355.34860278313,wmoUnit:m,,,,,,
Taylor,32.30138229,-99.89003941,22.22222222222222,wmoUnit:degC,76,0,16093.44,wmoUnit:m,,,,,,
Zapata,27.00089072,-99.16860134,25.0,wmoUnit:degC,87,1,,,,,,,,
San Patricio,28.00922186,-97.51859857,26.11111111111111,wmoUnit:degC,91,0,15063.459287475513,wmoUnit:m,,,,,,
Grimes,30.54360689,-95.98557334,23.333333333333332,wmoUnit:degC,82,1,16093.44,wmoUnit:m,,,Flood Warning,Severe,Immediate,2025-06-02T06:00:00-05:00
Lamb,34.06861242,-102.3517095,18.333333333333332,wmoUnit:degC,78,5,16093.44,wmoUnit:m,,,,,,
