countyName,latitude,longitude,temperature,temperature_unit,relativeHumidity,precipitationProbability,visibility,visibility_unit,hazard_phenomenon,hazard_significance,alert_event,alert_severity,alert_urgency,alert_expires
Foard,33.97408519,-99.77871109,22.77777777777778,wmoUnit:degC,76,24,,,,,,,,
Blanco,30.26636128,-98.39974086,25.555555555555557,wmoUnit:degC,82,28,16093.44,wmoUnit:m,TO,A,Tornado Watch,Extreme,Future,2025-05-27T00:00:00-05:00
Hockley,33.60750375,-102.3430919,24.444444444444443,wmoUnit:degC,50,8,16093.44,wmoUnit:m,SV,A,Severe Thunderstorm Warning,Severe,Immediate,2025-05-26T21:45:00-05:00
Llano,30.70566579,-98.68387398,26.666666666666668,wmoUnit:degC,68,41,14484.096,wmoUnit:m,TO,A,Tornado Watch,Extreme,Future,2025-05-27T00:00:00-05:00
Swisher,34.53064989,-101.734951,21.666666666666668,wmoUnit:degC,66,29,16093.44,wmoUnit:m,SV,A,Severe Thunderstorm Warning,Severe,Immediate,2025-05-26T22:15:00-05:00
Titus,33.2160906,-94.96509786,24.444444444444443,wmoUnit:degC,84,28,16093.44,wmoUnit:m,FA,A,Flood Watch,Severe,Future,2025-05-27T07:00:00-05:00
Navarro,32.04695429,-96.47248134,22.22222222222222,wmoUnit:degC,84,39,16093.44,wmoUnit:m,FA,A,Flood Warning,Severe,Immediate,2025-05-27T14:30:00-05:00
Brazoria,29.19345387,-95.45578479,26.11111111111111,wmoUnit:degC,91,50,16077.34619165045,wmoUnit:m,,,Severe Thunderstorm Watch,Severe,Future,2025-05-27T05:00:00-05:00
Hidalgo,26.396627,-98.18088681,35.55555555555556,wmoUnit:degC,53,1,,,,,,,,
Archer,33.61539176,-98.68783437,22.77777777777778,wmoUnit:degC,73,6,,,,,,,,
Refugio,28.32681413,-97.16546961,32.22222222222222,wmoUnit:degC,62,13,12697.7239451294,wmoUnit:m,,,,,,
Andrews,32.30506283,-102.6378839,23.333333333333332,wmoUnit:degC,64,0,16093.44,wmoUnit:m,,,,,,
Galveston,29.39424415,-94.96474975,25.555555555555557,wmoUnit:degC,88,99,16093.44,wmoUnit:m,,,Severe Thunderstorm Watch,Severe,Future,2025-05-27T05:00:00-05:00
De Witt,29.08201599,-97.35666976,32.77777777777778,wmoUnit:degC,60,24,16093.44,wmoUnit:m,SV,A,Severe Thunderstorm Watch,Severe,Future,2025-05-27T05:00:00-05:00
Gonzales,29.45641495,-97.49279927,30.0,wmoUnit:degC,72,33,16093.44,wmoUnit:m,SV,A,Severe Thunderstorm Watch,Severe,Future,2025-05-27T05:00:00-05:00
Wharton,29.2778362,-96.22197375,26.11111111111111,wmoUnit:degC,82,73,15707.197808349552,wmoUnit:m,,,Severe Thunderstorm Watch,Severe,Future,2025-05-27T05:00:00-05:00
Fannin,33.59396919,-96.10656755,24.444444444444443,wmoUnit:degC,71,24,16093.44,wmoUnit:m,,,,,,
Madison,30.96564645,-95.92818441,21.666666666666668,wmoUnit:degC,90,0,15787.665315307619,wmoUnit:m,,,Severe Thunderstorm Watch,Severe,Future,2025-05-27T05:00:00-05:00
Moore,35.83768863,-101.8929556,15.0,wmoUnit:degC,87,53,,,SV,A,Severe Thunderstorm Watch,Severe,Future,2025-05-27T00:00:00-05:00
Tyler,30.7712607,-94.37651432,28.88888888888889,wmoUnit:degC,70,61,2510.5765479125316,wmoUnit:m,,,,,,
Lipscomb,36.27778432,-100.27317,16.666666666666668,wmoUnit:degC,87,65,,,,,Special Weather Statement,Moderate,Expected,2025-05-26T21:45:00-05:00
Burleson,30.49246139,-96.62109399,26.11111111111111,wmoUnit:degC,72,0,12906.939616699265,wmoUnit:m,,,Severe Thunderstorm Watch,Severe,Future,2025-05-27T05:00:00-05:00
Jim Hogg,27.04340499,-98.6972921,36.111111111111114,wmoUnit:degC,43,2,,,,,,,,
Throckmorton,33.17753907,-99.21236832,21.666666666666668,wmoUnit:degC,81,34,9656.064,wmoUnit:m,,,,,,
Kleberg,27.43274395,-97.72889778,33.888888888888886,wmoUnit:degC,62,3,16093.44,wmoUnit:m,,,,,,
Shelby,31.79242191,-94.14495261,27.77777777777778,wmoUnit:degC,64,29,16093.44,wmoUnit:m,FA,A,Flood Watch,Severe,Future,2025-05-27T07:00:00-05:00
Garza,33.17991074,-101.2984496,21.11111111111111,wmoUnit:degC,78,18,16093.44,wmoUnit:m,SV,A,Severe Thunderstorm Watch,Severe,Future,2025-05-27T00:00:00-05:00
Karnes,28.90493782,-97.85960621,32.22222222222222,wmoUnit:degC,57,17,16093.44,wmoUnit:m,SV,A,Severe Thunderstorm Watch,Severe,Future,2025-05-27T05:00:00-05:00
Reeves,31.32307061,-103.693143,27.77777777777778,wmoUnit:degC,40,0,16093.44,wmoUnit:m,,,,,,
Houston,31.31764137,-95.42225367,20.0,wmoUnit:degC,97,40,13518.488986084027,wmoUnit:m,,,Severe Thunderstorm Watch,Severe,Future,2025-05-27T05:00:00-05:00
El Paso,31.7686226,-106.2352229,27.77777777777778,wmoUnit:degC,8,0,16045.160109741197,wmoUnit:m,,,,,,
Carson,35.40346802,-101.3542037,16.666666666666668,wmoUnit:degC,84,52,,,SV,A,Severe Thunderstorm Watch,Severe,Future,2025-05-27T00:00:00-05:00
Medina,29.35520493,-99.11008331,33.888888888888886,wmoUnit:degC,53,33,16093.44,wmoUnit:m,TO,A,Flash Flood Warning,Severe,Immediate,2025-05-27T02:00:00-05:00
Wichita,33.98421585,-98.70153389,24.444444444444443,wmoUnit:degC,66,5,,,,,,,,
Chambers,29.73912276,-94.60891308,23.88888888888889,wmoUnit:degC,82,100,16093.44,wmoUnit:m,,,Severe Thunderstorm Watch,Severe,Future,2025-05-27T05:00:00-05:00
Donley,34.96540246,-100.8140501,21.11111111111111,wmoUnit:degC,73,39,,,SV,A,Severe Thunderstorm Watch,Severe,Future,2025-05-27T00:00:00-05:00
Hopkins,33.14933822,-95.56414173,23.333333333333332,wmoUnit:degC,79,18,16093.44,wmoUnit:m,FA,A,,,,
Lampasas,31.19627791,-98.24142711,25.555555555555557,wmoUnit:degC,79,32,16093.44,wmoUnit:m,,,,,,
Falls,31.25317017,-96.93579511,24.444444444444443,wmoUnit:degC,74,32,16093.44,wmoUnit:m,FA,A,Severe Thunderstorm Warning,Severe,Immediate,2025-05-26T22:15:00-05:00
Stephens,32.73584155,-98.83612016,20.555555555555557,wmoUnit:degC,90,57,11265.408,wmoUnit:m,,,,,,
Travis,30.33423319,-97.78194654,27.22222222222222,wmoUnit:degC,79,40,16093.44,wmoUnit:m,TO,A,Tornado Watch,Extreme,Future,2025-05-27T00:00:00-05:00
Roberts,35.8385577,-100.8135689,16.11111111111111,wmoUnit:degC,90,59,,,SV,A,Severe Thunderstorm Watch,Severe,Future,2025-05-27T00:00:00-05:00
Crosby,33.61459873,-101.2998612,21.11111111111111,wmoUnit:degC,76,19,16093.44,wmoUnit:m,SV,A,Severe Thunderstorm Watch,Severe,Future,2025-05-27T00:00:00-05:00
Kerr,30.06153035,-99.35016969,29.444444444444443,wmoUnit:degC,65,40,16093.44,wmoUnit:m,TO,A,Flash Flood Warning,Severe,Immediate,2025-05-27T02:00:00-05:00
Wood,32.78634374,-95.38206498,26.11111111111111,wmoUnit:degC,75,28,16093.44,wmoUnit:m,FA,A,Flood Watch,Severe,Future,2025-05-27T07:00:00-05:00
Jack,33.23345819,-98.1725509,22.22222222222222,wmoUnit:degC,79,62,16093.44,wmoUnit:m,,,Flood Warning,Severe,Expected,2025-05-27T14:30:00-05:00
Marion,32.79797929,-94.35725239,27.22222222222222,wmoUnit:degC,72,28,16093.44,wmoUnit:m,FA,A,Flood Watch,Severe,Future,2025-05-27T07:00:00-05:00
Hale,34.07051782,-101.8269082,22.22222222222222,wmoUnit:degC,64,16,16093.44,wmoUnit:m,SV,A,Severe Thunderstorm Watch,Severe,Future,2025-05-27T00:00:00-05:00
Jeff Davis,30.71559322,-104.1403539,25.0,wmoUnit:degC,10,0,16093.44,wmoUnit:m,,,,,,
Tarrant,32.77185236,-97.29116473,22.77777777777778,wmoUnit:degC,79,62,16093.44,wmoUnit:m,FA,A,,,,
Waller,30.01093722,-95.98768942,21.666666666666668,wmoUnit:degC,100,24,11265.408,wmoUnit:m,,,Severe Thunderstorm Watch,Severe,Future,2025-05-27T05:00:00-05:00
Reagan,31.36617698,-101.5230108,31.666666666666668,wmoUnit:degC,42,10,16093.44,wmoUnit:m,,,,,,
Smith,32.37514553,-95.26909511,27.22222222222222,wmoUnit:degC,71,27,16093.44,wmoUnit:m,FA,A,Flood Watch,Severe,Future,2025-05-27T07:00:00-05:00
Van Zandt,32.56368961,-95.8364862,22.22222222222222,wmoUnit:degC,84,32,16093.44,wmoUnit:m,FA,A,,,,
Cooke,33.638465,-97.21247642,25.0,wmoUnit:degC,69,42,16093.44,wmoUnit:m,,,,,,
Zavala,28.86530621,-99.76102001,37.22222222222222,wmoUnit:degC,44,5,16093.44,wmoUnit:m,TO,A,Severe Thunderstorm Warning,Severe,Immediate,2025-05-26T22:15:00-05:00
Hall,34.53074134,-100.6809876,23.333333333333332,wmoUnit:degC,69,23,16093.44,wmoUnit:m,SV,A,Severe Thunderstorm Warning,Severe,Immediate,2025-05-26T22:15:00-05:00
Kendall,29.9446397,-98.71160511,26.666666666666668,wmoUnit:degC,88,30,16093.44,wmoUnit:m,TO,A,Flash Flood Warning,Severe,Immediate,2025-05-27T02:00:00-05:00
Goliad,28.65708563,-97.42646082,32.77777777777778,wmoUnit:degC,54,15,16093.44,wmoUnit:m,SV,A,Severe Thunderstorm Watch,Severe,Future,2025-05-27T05:00:00-05:00
Yoakum,33.17293501,-102.8278792,25.555555555555557,wmoUnit:degC,42,4,16093.44,wmoUnit:m,SV,A,Severe Thunderstorm Warning,Severe,Immediate,2025-05-26T21:45:00-05:00
Knox,33.60614755,-99.74144313,22.77777777777778,wmoUnit:degC,73,16,,,,,,,,
McLennan,31.55234489,-97.20184883,21.11111111111111,wmoUnit:degC,93,32,16093.44,wmoUnit:m,FA,A,Flood Watch,Severe,Future,2025-05-27T05:30:00-05:00
Brewster,29.81205836,-103.2518906,35.0,wmoUnit:degC,6,0,16093.44,wmoUnit:m,,,,,,
Panola,32.16222886,-94.30552858,27.77777777777778,wmoUnit:degC,67,28,16093.44,wmoUnit:m,FA,A,Flood Watch,Severe,Future,2025-05-27T07:00:00-05:00
Bandera,29.74724753,-99.24637282,29.444444444444443,wmoUnit:degC,66,39,16093.44,wmoUnit:m,TO,A,Flash Flood Warning,Severe,Immediate,2025-05-27T02:00:00-05:00
Parmer,34.53014507,-102.784594,21.666666666666668,wmoUnit:degC,59,26,16093.44,wmoUnit:m,SV,A,Severe Thunderstorm Watch,Severe,Future,2025-05-27T00:00:00-05:00
Rockwall,32.89786769,-96.40780584,22.22222222222222,wmoUnit:degC,81,46,16093.44,wmoUnit:m,FA,A,Flood Warning,Severe,Immediate,2025-05-27T11:00:00-05:00
Trinity,31.0885069,-95.13551682,21.11111111111111,wmoUnit:degC,93,100,15562.35660278313,wmoUnit:m,,,Severe Thunderstorm Watch,Severe,Future,2025-05-27T05:00:00-05:00
Bosque,31.90050476,-97.63437613,25.0,wmoUnit:degC,74,39,16093.44,wmoUnit:m,FA,A,Flood Watch,Severe,Future,2025-05-27T05:30:00-05:00
Coke,31.88849293,-100.5298747,28.88888888888889,wmoUnit:degC,53,34,16093.44,wmoUnit:m,,,,,,
Franklin,33.17550691,-95.21841437,24.444444444444443,wmoUnit:degC,85,28,16093.44,wmoUnit:m,FA,A,Flood Watch,Severe,Future,2025-05-27T07:00:00-05:00
Hill,31.99079033,-97.1324142,23.333333333333332,wmoUnit:degC,74,40,16093.44,wmoUnit:m,FA,A,Flood Watch,Severe,Future,2025-05-27T05:30:00-05:00
Calhoun,28.48966896,-96.64708119,31.666666666666668,wmoUnit:degC,68,12,16093.44,wmoUnit:m,SV,A,Severe Thunderstorm Watch,Severe,Future,2025-05-27T05:00:00-05:00
Irion,31.30393203,-100.9824126,31.666666666666668,wmoUnit:degC,47,30,16093.44,wmoUnit:m,,,,,,
Midland,31.86921148,-102.0315032,28.333333333333332,wmoUnit:degC,55,2,16093.44,wmoUnit:m,,,,,,
Brown,31.77432313,-98.99989649,27.77777777777778,wmoUnit:degC,65,52,16093.44,wmoUnit:m,,,,,,
Wilson,29.17315896,-98.08621015,31.666666666666668,wmoUnit:degC,60,25,16093.44,wmoUnit:m,TO,A,Tornado Watch,Extreme,Future,2025-05-27T00:00:00-05:00
Oldham,35.40497586,-102.6029949,16.11111111111111,wmoUnit:degC,87,49,,,SV,A,Severe Thunderstorm Warning,Severe,Immediate,2025-05-26T22:30:00-05:00
Freestone,31.70486443,-96.14918535,21.666666666666668,wmoUnit:degC,84,32,14484.096,wmoUnit:m,FA,A,Flood Watch,Severe,Future,2025-05-27T05:30:00-05:00
Sabine,31.34321941,-93.85170439,28.88888888888889,wmoUnit:degC,69,51,11265.408,wmoUnit:m,FA,A,Flood Watch,Severe,Future,2025-05-27T07:00:00-05:00
Deaf Smith,34.96602014,-102.6048162,18.88888888888889,wmoUnit:degC,61,45,,,SV,A,Severe Thunderstorm Warning,Severe,Immediate,2025-05-26T22:30:00-05:00
Angelina,31.25475875,-94.611742,30.0,wmoUnit:degC,68,44,16093.44,wmoUnit:m,FA,A,Flood Watch,Severe,Future,2025-05-27T07:00:00-05:00
Kent,33.18284492,-100.7791031,21.11111111111111,wmoUnit:degC,84,27,16093.44,wmoUnit:m,,,,,,
Red River,33.62074539,-95.0501886,23.88888888888889,wmoUnit:degC,86,26,16093.44,wmoUnit:m,,,Flood Warning,Severe,Immediate,2025-05-27T21:00:00-05:00
Kinney,29.35000302,-100.4178441,36.111111111111114,wmoUnit:degC,38,4,16093.44,wmoUnit:m,,,,,,
Denton,33.205574,-97.11681154,24.444444444444443,wmoUnit:degC,71,53,16093.44,wmoUnit:m,FA,A,Flood Warning,Severe,Immediate,2025-05-27T14:45:00-05:00
Sutton,30.49747152,-100.5382263,33.888888888888886,wmoUnit:degC,31,28,16093.44,wmoUnit:m,,,,,,
Guadalupe,29.58257236,-97.94850308,29.444444444444443,wmoUnit:degC,66,35,16093.44,wmoUnit:m,TO,A,Tornado Watch,Extreme,Future,2025-05-27T00:00:00-05:00
Winkler,31.85008609,-103.0484794,25.0,wmoUnit:degC,58,0,16093.44,wmoUnit:m,,,,,,
Dimmit,28.42161168,-99.760574,38.333333333333336,wmoUnit:degC,37,3,16093.44,wmoUnit:m,,,Severe Thunderstorm Warning,Severe,Immediate,2025-05-26T22:15:00-05:00
Wise,33.21585061,-97.65444124,21.666666666666668,wmoUnit:degC,76,62,16093.44,wmoUnit:m,,,Flood Warning,Severe,Expected,2025-05-27T14:30:00-05:00
Hemphill,35.83750155,-100.2704628,19.444444444444443,wmoUnit:degC,78,63,,,SV,A,Severe Thunderstorm Warning,Severe,Immediate,2025-05-26T22:00:00-05:00
Potter,35.40128927,-101.8940484,18.333333333333332,wmoUnit:degC,68,45,,,SV,A,Severe Thunderstorm Warning,Severe,Immediate,2025-05-26T22:30:00-05:00
Childress,34.52929257,-100.2075664,22.77777777777778,wmoUnit:degC,71,21,16093.44,wmoUnit:m,SV,A,Severe Thunderstorm Warning,Severe,Immediate,2025-05-26T22:15:00-05:00
Willacy,26.47132899,-97.64303323,33.888888888888886,wmoUnit:degC,61,1,,,,,,,,
Bastrop,30.10353518,-97.31187705,28.88888888888889,wmoUnit:degC,70,39,14484.096,wmoUnit:m,TO,A,Tornado Watch,Extreme,Future,2025-05-27T00:00:00-05:00
Kimble,30.48676251,-99.74892716,32.22222222222222,wmoUnit:degC,54,34,16093.44,wmoUnit:m,,,,,,
Scurry,32.74720063,-100.9165071,20.0,wmoUnit:degC,88,13,12697.7239451294,wmoUnit:m,,,,,,
Ochiltree,36.27846334,-100.815653,15.0,wmoUnit:degC,90,74,,,,,,,,
Hansford,36.27753179,-101.3545624,14.444444444444445,wmoUnit:degC,96,63,,,,,,,,
Hartley,35.83996755,-102.6028835,16.666666666666668,wmoUnit:degC,72,41,,,SV,A,Severe Thunderstorm Watch,Severe,Future,2025-05-27T00:00:00-05:00
Cameron,26.13847728,-97.51499968,33.888888888888886,wmoUnit:degC,58,1,,,,,,,,
Matagorda,28.86711039,-95.98533866,30.555555555555557,wmoUnit:degC,75,24,16093.44,wmoUnit:m,,,Severe Thunderstorm Watch,Severe,Future,2025-05-27T05:00:00-05:00
Burnet,30.78843382,-98.18252382,24.444444444444443,wmoUnit:degC,84,45,16093.44,wmoUnit:m,TO,A,Tornado Watch,Extreme,Future,2025-05-27T00:00:00-05:00
Rains,32.87004212,-95.79347545,23.333333333333332,wmoUnit:degC,82,24,16093.44,wmoUnit:m,FA,A,,,,
Hays,30.05782657,-98.03104087,26.666666666666668,wmoUnit:degC,82,34,16093.44,wmoUnit:m,TO,A,Tornado Watch,Extreme,Future,2025-05-27T00:00:00-05:00
Mason,30.71742293,-99.2263026,28.333333333333332,wmoUnit:degC,67,42,16093.44,wmoUnit:m,,,Flash Flood Warning,Severe,Immediate,2025-05-26T22:00:00-05:00
Ward,31.509424,-103.1024636,27.77777777777778,wmoUnit:degC,47,0,16093.44,wmoUnit:m,,,,,,
Delta,33.38623601,-95.67221685,23.88888888888889,wmoUnit:degC,76,13,16093.44,wmoUnit:m,FA,A,,,,
Nueces,27.72621549,-97.61767326,33.888888888888886,wmoUnit:degC,60,4,16093.44,wmoUnit:m,,,,,,
Callahan,32.2977738,-99.37359692,23.88888888888889,wmoUnit:degC,74,44,9656.064,wmoUnit:m,,,,,,
Bell,31.03778267,-97.47790776,24.444444444444443,wmoUnit:degC,76,32,16093.44,wmoUnit:m,FA,A,Severe Thunderstorm Warning,Severe,Immediate,2025-05-26T22:15:00-05:00
Cherokee,31.83695632,-95.16515234,27.77777777777778,wmoUnit:degC,68,30,16093.44,wmoUnit:m,FA,A,Flood Watch,Severe,Future,2025-05-27T07:00:00-05:00
Ellis,32.34839264,-96.79467417,22.22222222222222,wmoUnit:degC,84,47,16093.44,wmoUnit:m,FA,A,Flood Watch,Severe,Future,2025-05-27T05:30:00-05:00
Lubbock,33.6101944,-101.8205745,23.333333333333332,wmoUnit:degC,62,13,16093.44,wmoUnit:m,SV,A,Severe Thunderstorm Watch,Severe,Future,2025-05-27T00:00:00-05:00
Terrell,30.22502597,-102.0764533,34.44444444444444,wmoUnit:degC,23,0,16093.44,wmoUnit:m,,,,,,
Crockett,30.72291931,-101.4118364,34.44444444444444,wmoUnit:degC,24,22,16093.44,wmoUnit:m,,,,,,
Atascosa,28.89418432,-98.52741302,33.888888888888886,wmoUnit:degC,50,15,16093.44,wmoUnit:m,TO,A,Tornado Watch,Extreme,Future,2025-05-27T00:00:00-05:00
Ector,31.86908156,-102.5430907,25.555555555555557,wmoUnit:degC,61,0,16093.44,wmoUnit:m,,,,,,
Brazos,30.6610425,-96.3022943,25.555555555555557,wmoUnit:degC,76,0,14645.031013915974,wmoUnit:m,,,Severe Thunderstorm Watch,Severe,Future,2025-05-27T05:00:00-05:00
Aransas,28.12709562,-96.99258951,29.444444444444443,wmoUnit:degC,82,8,11265.408,wmoUnit:m,SC,Y,,,,
Dallas,32.76653746,-96.77781862,22.77777777777778,wmoUnit:degC,76,60,16093.44,wmoUnit:m,FA,A,Flood Warning,Severe,Immediate,2025-05-27T14:30:00-05:00
Howard,32.30610232,-101.4355097,22.77777777777778,wmoUnit:degC,75,11,16093.44,wmoUnit:m,,,,,,
Motley,34.07409017,-100.7798961,21.666666666666668,wmoUnit:degC,76,22,16093.44,wmoUnit:m,,,,,,
San Augustine,31.39427005,-94.16809762,29.444444444444443,wmoUnit:degC,64,47,12697.7239451294,wmoUnit:m,FA,A,Flood Watch,Severe,Future,2025-05-27T07:00:00-05:00
Maverick,28.74260943,-100.3144638,38.333333333333336,wmoUnit:degC,34,3,16093.44,wmoUnit:m,,,Severe Thunderstorm Warning,Severe,Immediate,2025-05-26T22:15:00-05:00
Erath,32.23640361,-98.21722756,21.666666666666668,wmoUnit:degC,81,43,16093.44,wmoUnit:m,,,,,,
Dickens,33.61663428,-100.7788138,21.11111111111111,wmoUnit:degC,78,26,16093.44,wmoUnit:m,,,,,,
Caldwell,29.83677935,-97.61983479,28.88888888888889,wmoUnit:degC,72,40,16093.44,wmoUnit:m,TO,A,Tornado Watch,Extreme,Future,2025-05-27T00:00:00-05:00
Dawson,32.74258137,-101.9476136,21.11111111111111,wmoUnit:degC,75,6,16093.44,wmoUnit:m,,,,,,
Camp,32.97321771,-94.97860185,26.11111111111111,wmoUnit:degC,72,29,16093.44,wmoUnit:m,FA,A,Flood Watch,Severe,Future,2025-05-27T07:00:00-05:00
Duval,27.68133382,-98.50889672,36.666666666666664,wmoUnit:degC,43,4,16093.44,wmoUnit:m,,,,,,
Hunt,33.123531,-96.08550014,22.77777777777778,wmoUnit:degC,84,34,16093.44,wmoUnit:m,FA,A,Flood Warning,Severe,Immediate,2025-05-27T11:00:00-05:00
Mills,31.49524259,-98.59552736,27.22222222222222,wmoUnit:degC,65,33,16093.44,wmoUnit:m,,,,,,
Val Verde,29.89300587,-101.15171,35.0,wmoUnit:degC,28,2,16093.44,wmoUnit:m,,,Flood Advisory,Minor,Expected,2025-05-26T23:30:00-05:00
Pecos,30.78100044,-102.7235743,29.444444444444443,wmoUnit:degC,33,0,16093.44,wmoUnit:m,,,,,,
Baylor,33.61648147,-99.21351964,24.444444444444443,wmoUnit:degC,69,15,,,,,,,,
Gregg,32.48036452,-94.81723694,29.444444444444443,wmoUnit:degC,59,28,16093.44,wmoUnit:m,FA,A,Flood Watch,Severe,Future,2025-05-27T07:00:00-05:00
Cochran,33.60410808,-102.8285264,25.555555555555557,wmoUnit:degC,45,5,16093.44,wmoUnit:m,SV,A,Severe Thunderstorm Warning,Severe,Immediate,2025-05-26T21:45:00-05:00
Jasper,30.74391255,-94.02495849,28.88888888888889,wmoUnit:degC,70,57,1915.1194520874683,wmoUnit:m,,,,,,
Hamilton,31.70479181,-98.11066654,25.0,wmoUnit:degC,79,32,16093.44,wmoUnit:m,,,,,,
Castro,34.53000304,-102.2617608,21.666666666666668,wmoUnit:degC,57,30,16093.44,wmoUnit:m,SV,A,Severe Thunderstorm Warning,Severe,Immediate,2025-05-26T22:15:00-05:00
Sterling,31.82786516,-101.0500699,28.88888888888889,wmoUnit:degC,57,28,16093.44,wmoUnit:m,,,,,,
Starr,26.56212627,-98.73834895,36.666666666666664,wmoUnit:degC,46,1,,,,,,,,
Crane,31.42846287,-102.5156425,29.444444444444443,wmoUnit:degC,46,0,16093.44,wmoUnit:m,,,,,,
Morris,33.11368507,-94.73205137,25.555555555555557,wmoUnit:degC,78,29,16093.44,wmoUnit:m,FA,A,Flood Watch,Severe,Future,2025-05-27T07:00:00-05:00
Briscoe,34.53041048,-101.2085769,21.11111111111111,wmoUnit:degC,73,27,16093.44,wmoUnit:m,SV,A,Severe Thunderstorm Watch,Severe,Future,2025-05-27T00:00:00-05:00
Tom Green,31.4044442,-100.4620678,28.333333333333332,wmoUnit:degC,63,47,16093.44,wmoUnit:m,,,,,,
Menard,30.88981785,-99.82061472,31.666666666666668,wmoUnit:degC,54,44,16093.44,wmoUnit:m,,,Flash Flood Warning,Severe,Immediate,2025-05-26T22:00:00-05:00
Parker,32.77852261,-97.80472194,20.555555555555557,wmoUnit:degC,90,62,16093.44,wmoUnit:m,,,,,,
Walker,30.73899492,-95.57224172,21.11111111111111,wmoUnit:degC,90,35,15980.786411132844,wmoUnit:m,,,Severe Thunderstorm Watch,Severe,Future,2025-05-27T05:00:00-05:00
Brooks,27.0315669,-98.21874127,36.111111111111114,wmoUnit:degC,47,2,,,,,,,,
La Salle,28.34621032,-99.1034773,38.333333333333336,wmoUnit:degC,41,7,16093.44,wmoUnit:m,,,,,,
Edwards,29.98248216,-100.3048937,32.77777777777778,wmoUnit:degC,43,20,16093.44,wmoUnit:m,TO,A,Tornado Watch,Extreme,Future,2025-05-27T00:00:00-05:00
Lee,30.31065065,-96.96568735,27.22222222222222,wmoUnit:degC,72,43,14484.096,wmoUnit:m,TO,A,Tornado Watch,Extreme,Future,2025-05-27T00:00:00-05:00
Robertson,31.02705415,-96.51272568,25.0,wmoUnit:degC,74,32,12697.7239451294,wmoUnit:m,FA,A,Severe Thunderstorm Warning,Severe,Immediate,2025-05-26T22:15:00-05:00
Young,33.17670764,-98.68781396,21.666666666666668,wmoUnit:degC,81,62,16093.44,wmoUnit:m,,,,,,
Bee,28.41736675,-97.74116811,33.888888888888886,wmoUnit:degC,51,15,16093.44,wmoUnit:m,,,,,,
Clay,33.78379717,-98.208958,22.77777777777778,wmoUnit:degC,73,2,,,,,,,,
San Jacinto,30.57948905,-95.16683273,21.666666666666668,wmoUnit:degC,93,100,12923.031890258802,wmoUnit:m,,,Severe Thunderstorm Watch,Severe,Future,2025-05-27T05:00:00-05:00
Uvalde,29.35669829,-99.76203107,35.55555555555556,wmoUnit:degC,45,28,16093.44,wmoUnit:m,TO,A,Tornado Watch,Extreme,Future,2025-05-27T00:00:00-05:00
Haskell,33.17824805,-99.73029401,21.666666666666668,wmoUnit:degC,79,33,9656.064,wmoUnit:m,,,,,,
Somervell,32.22229511,-97.77456553,23.88888888888889,wmoUnit:degC,79,44,16093.44,wmoUnit:m,,,,,,
Bexar,29.44884523,-98.51966309,30.0,wmoUnit:degC,71,27,16093.44,wmoUnit:m,TO,A,Tornado Watch,Extreme,Future,2025-05-27T00:00:00-05:00
Grayson,33.62684371,-96.67764864,22.77777777777778,wmoUnit:degC,76,37,16093.44,wmoUnit:m,,,,,,
Bailey,34.0684915,-102.8299069,21.666666666666668,wmoUnit:degC,59,13,16093.44,wmoUnit:m,SV,A,Severe Thunderstorm Watch,Severe,Future,2025-05-27T00:00:00-05:00
Jones,32.73970429,-99.87850599,22.22222222222222,wmoUnit:degC,81,31,14532.375890258803,wmoUnit:m,,,,,,
Jefferson,29.88425832,-94.1708778,30.0,wmoUnit:degC,70,31,16093.44,wmoUnit:m,,,,,,
Rusk,32.10803224,-94.76169577,28.88888888888889,wmoUnit:degC,66,29,16093.44,wmoUnit:m,FA,A,Flood Watch,Severe,Future,2025-05-27T07:00:00-05:00
Glasscock,31.8694238,-101.520742,28.333333333333332,wmoUnit:degC,59,10,16093.44,wmoUnit:m,,,,,,
Gillespie,30.31800246,-98.94627245,26.666666666666668,wmoUnit:degC,73,39,16093.44,wmoUnit:m,TO,A,Tornado Watch,Extreme,Future,2025-05-27T00:00:00-05:00
Fisher,32.74305155,-100.4019503,22.22222222222222,wmoUnit:degC,79,28,16093.44,wmoUnit:m,,,,,,
Henderson,32.21188078,-95.85356847,21.666666666666668,wmoUnit:degC,90,32,16093.44,wmoUnit:m,FA,A,Flood Warning,Severe,Immediate,2025-05-27T14:30:00-05:00
Shackelford,32.7360276,-99.35403034,21.11111111111111,wmoUnit:degC,87,36,9656.064,wmoUnit:m,,,,,,
Palo Pinto,32.75316856,-98.31299522,18.88888888888889,wmoUnit:degC,97,59,16093.44,wmoUnit:m,,,,,,
Wilbarger,34.08044953,-99.24089568,23.333333333333332,wmoUnit:degC,71,15,,,,,,,,
Floyd,34.07239775,-101.3033037,21.11111111111111,wmoUnit:degC,73,19,16093.44,wmoUnit:m,SV,A,Severe Thunderstorm Watch,Severe,Future,2025-05-27T00:00:00-05:00
Orange,30.12807126,-93.89653794,30.0,wmoUnit:degC,68,39,16093.44,wmoUnit:m,,,Flood Warning,Severe,Immediate,2025-05-27T10:15:00-05:00
Runnels,31.83105393,-99.97624799,27.22222222222222,wmoUnit:degC,63,46,16093.44,wmoUnit:m,,,,,,
Coleman,31.77329421,-99.45362579,27.22222222222222,wmoUnit:degC,63,49,16093.44,wmoUnit:m,,,,,,
Martin,32.30605847,-101.9512464,23.333333333333332,wmoUnit:degC,70,4,16093.44,wmoUnit:m,,,,,,
Wheeler,35.40129002,-100.2697634,20.0,wmoUnit:degC,81,51,,,SV,A,Severe Thunderstorm Warning,Severe,Immediate,2025-05-26T22:00:00-05:00
Culberson,31.44709817,-104.5177421,27.22222222222222,wmoUnit:degC,13,0,16093.44,wmoUnit:m,,,,,,
Mitchell,32.30636024,-100.9211128,23.333333333333332,wmoUnit:degC,80,11,16093.44,wmoUnit:m,,,,,,
Hudspeth,31.45613738,-105.3869428,26.11111111111111,wmoUnit:degC,13,0,15964.69260278313,wmoUnit:m,,,,,,
Upshur,32.7362827,-94.94132011,26.666666666666668,wmoUnit:degC,68,27,16093.44,wmoUnit:m,FA,A,Flood Watch,Severe,Future,2025-05-27T07:00:00-05:00
Liberty,30.15153187,-94.8120925,20.555555555555557,wmoUnit:degC,93,86,15771.571506958067,wmoUnit:m,,,Severe Thunderstorm Watch,Severe,Future,2025-05-27T05:00:00-05:00
Williamson,30.64834941,-97.60105467,25.555555555555557,wmoUnit:degC,87,49,16093.44,wmoUnit:m,TO,A,Flash Flood Warning,Severe,Immediate,2025-05-27T02:00:00-05:00
Nacogdoches,31.61604108,-94.6158776,28.333333333333332,wmoUnit:degC,71,28,16093.44,wmoUnit:m,FA,A,Flood Watch,Severe,Future,2025-05-27T07:00:00-05:00
Loving,31.84912973,-103.5799063,26.11111111111111,wmoUnit:degC,48,0,16093.44,wmoUnit:m,,,,,,
Jim Wells,27.73131099,-98.0898649,36.666666666666664,wmoUnit:degC,47,4,16093.44,wmoUnit:m,,,,,,
Upton,31.36853957,-102.0430005,29.444444444444443,wmoUnit:degC,38,1,16093.44,wmoUnit:m,,,,,,
Newton,30.78619977,-93.74462993,28.333333333333332,wmoUnit:degC,72,55,5568.330301391646,wmoUnit:m,,,Flood Warning,Severe,Immediate,2025-05-27T10:15:00-05:00
Lamar,33.66746186,-95.57110784,23.333333333333332,wmoUnit:degC,76,11,16093.44,wmoUnit:m,,,,,,
Polk,30.79250963,-94.82994949,22.22222222222222,wmoUnit:degC,87,100,14789.870684692381,wmoUnit:m,,,Severe Thunderstorm Watch,Severe,Future,2025-05-27T05:00:00-05:00
Collin,33.18789055,-96.57248871,23.88888888888889,wmoUnit:degC,71,44,16093.44,wmoUnit:m,FA,A,,,,
Hardeman,34.28865227,-99.7453851,21.666666666666668,wmoUnit:degC,79,26,,,,,,,,
McMullen,28.35351091,-98.56842256,37.77777777777778,wmoUnit:degC,44,15,16093.44,wmoUnit:m,,,,,,
Cottle,34.0776571,-100.2786983,21.666666666666668,wmoUnit:degC,79,26,16093.44,wmoUnit:m,,,,,,
Frio,28.86726774,-99.10826004,36.111111111111114,wmoUnit:degC,43,13,16093.44,wmoUnit:m,TO,A,Tornado Watch,Extreme,Future,2025-05-27T00:00:00-05:00
Gray,35.40130666,-100.812475,20.0,wmoUnit:degC,78,57,,,SV,A,Severe Thunderstorm Watch,Severe,Future,2025-05-27T00:00:00-05:00
Dallam,36.27777107,-102.6021647,16.666666666666668,wmoUnit:degC,65,46,,,,,,,,
Kenedy,26.92409448,-97.68137783,34.44444444444444,wmoUnit:degC,60,1,,,,,,,,
Fort Bend,29.52763253,-95.77090562,22.77777777777778,wmoUnit:degC,100,100,15932.504986084026,wmoUnit:m,,,Severe Thunderstorm Watch,Severe,Future,2025-05-27T05:00:00-05:00
Armstrong,34.96522076,-101.3572412,20.0,wmoUnit:degC,73,47,,,SV,A,Severe Thunderstorm Watch,Severe,Future,2025-05-27T00:00:00-05:00
Collingsworth,34.96498493,-100.2700733,22.22222222222222,wmoUnit:degC,68,43,,,SV,A,Severe Thunderstorm Watch,Severe,Future,2025-05-27T00:00:00-05:00
Cass,33.07750446,-94.34348771,25.555555555555557,wmoUnit:degC,75,28,16093.44,wmoUnit:m,FA,A,Flood Watch,Severe,Future,2025-05-27T07:00:00-05:00
Sherman,36.27765824,-101.8933822,14.444444444444445,wmoUnit:degC,87,51,,,,,,,,
Terry,33.17373729,-102.335157,25.555555555555557,wmoUnit:degC,48,5,16093.44,wmoUnit:m,SV,A,Severe Thunderstorm Warning,Severe,Immediate,2025-05-26T21:45:00-05:00
Limestone,31.54541898,-96.58056718,22.77777777777778,wmoUnit:degC,73,32,16093.44,wmoUnit:m,FA,A,Severe Thunderstorm Warning,Severe,Immediate,2025-05-26T22:15:00-05:00
Real,29.83182711,-99.82215881,31.666666666666668,wmoUnit:degC,52,36,16093.44,wmoUnit:m,TO,A,Tornado Watch,Extreme,Future,2025-05-27T00:00:00-05:00
Lynn,33.17685487,-101.8160235,21.666666666666668,wmoUnit:degC,76,11,16093.44,wmoUnit:m,SV,A,Severe Thunderstorm Watch,Severe,Future,2025-05-27T00:00:00-05:00
Lavaca,29.38437003,-96.93020993,31.11111111111111,wmoUnit:degC,67,23,16093.44,wmoUnit:m,SV,A,Severe Thunderstorm Watch,Severe,Future,2025-05-27T05:00:00-05:00
Nolan,32.3034718,-100.4060989,25.0,wmoUnit:degC,67,27,16093.44,wmoUnit:m,,,,,,
Gaines,32.74074537,-102.6351246,22.77777777777778,wmoUnit:degC,62,0,16093.44,wmoUnit:m,,,,,,
Montgomery,30.30022409,-95.50301411,20.555555555555557,wmoUnit:degC,97,97,11265.408,wmoUnit:m,,,Severe Thunderstorm Watch,Severe,Future,2025-05-27T05:00:00-05:00
Concho,31.32645211,-99.86413426,27.77777777777778,wmoUnit:degC,67,46,16093.44,wmoUnit:m,,,Flash Flood Warning,Severe,Immediate,2025-05-26T22:00:00-05:00
Hardin,30.33238431,-94.39021394,30.0,wmoUnit:degC,68,47,16093.44,wmoUnit:m,,,,,,
Harris,29.85967144,-95.39782106,23.88888888888889,wmoUnit:degC,79,38,16012.972493041932,wmoUnit:m,,,Severe Thunderstorm Watch,Severe,Future,2025-05-27T05:00:00-05:00
Leon,31.29655719,-95.99554292,21.11111111111111,wmoUnit:degC,93,32,14484.096,wmoUnit:m,FA,A,Flood Watch,Severe,Future,2025-05-27T05:30:00-05:00
Bowie,33.44572786,-94.42324298,25.0,wmoUnit:degC,86,28,16093.44,wmoUnit:m,,,Flood Warning,Severe,Immediate,2025-05-27T21:00:00-05:00
Kaufman,32.59927808,-96.28779341,22.22222222222222,wmoUnit:degC,81,41,16093.44,wmoUnit:m,FA,A,,,,
Anderson,31.81321543,-95.65251774,21.11111111111111,wmoUnit:degC,90,33,11265.408,wmoUnit:m,FA,A,Flood Warning,Severe,Immediate,2025-05-27T20:45:00-05:00
San Saba,31.15520543,-98.81754295,28.333333333333332,wmoUnit:degC,67,48,16093.44,wmoUnit:m,,,Flood Advisory,Minor,Expected,2025-05-26T22:00:00-05:00
Schleicher,30.89661056,-100.538097,32.77777777777778,wmoUnit:degC,34,30,16093.44,wmoUnit:m,,,,,,
Colorado,29.6208542,-96.52630821,20.555555555555557,wmoUnit:degC,100,100,14693.310904174776,wmoUnit:m,,,Severe Thunderstorm Watch,Severe,Future,2025-05-27T05:00:00-05:00
Milam,30.78625299,-96.97683495,27.22222222222222,wmoUnit:degC,67,32,16093.44,wmoUnit:m,FA,A,Severe Thunderstorm Warning,Severe,Immediate,2025-05-26T22:15:00-05:00
Live Oak,28.3514375,-98.12474493,36.666666666666664,wmoUnit:degC,47,15,16093.44,wmoUnit:m,,,,,,
Borden,32.7436916,-101.4317533,20.0,wmoUnit:degC,82,11,16093.44,wmoUnit:m,,,,,,
McCulloch,31.19896752,-99.34754972,27.77777777777778,wmoUnit:degC,67,47,16093.44,wmoUnit:m,,,,,,
Johnson,32.37899918,-97.36660504,23.333333333333332,wmoUnit:degC,84,49,16093.44,wmoUnit:m,FA,A,Flood Watch,Severe,Future,2025-05-27T05:30:00-05:00
Montague,33.67496328,-97.72466993,23.88888888888889,wmoUnit:degC,69,49,16093.44,wmoUnit:m,,,,,,
Stonewall,33.17842158,-100.255259,21.11111111111111,wmoUnit:degC,84,38,16093.44,wmoUnit:m,,,,,,
Comal,29.80816362,-98.27814516,26.666666666666668,wmoUnit:degC,82,32,16093.44,wmoUnit:m,TO,A,Tornado Watch,Extreme,Future,2025-05-27T00:00:00-05:00
Eastland,32.32739258,-98.8325713,22.22222222222222,wmoUnit:degC,81,47,16093.44,wmoUnit:m,,,,,,
Comanche,31.9490639,-98.55841538,25.555555555555557,wmoUnit:degC,64,37,16093.44,wmoUnit:m,,,,,,
King,33.61641863,-100.2558584,22.77777777777778,wmoUnit:degC,76,35,16093.44,wmoUnit:m,,,,,,
Washington,30.2145299,-96.40356575,22.22222222222222,wmoUnit:degC,87,24,11265.408,wmoUnit:m,,,Severe Thunderstorm Watch,Severe,Future,2025-05-27T05:00:00-05:00
Webb,27.76102524,-99.33170164,38.333333333333336,wmoUnit:degC,36,0,16093.44,wmoUnit:m,,,,,,
Fayette,29.87683207,-96.91968047,29.444444444444443,wmoUnit:degC,69,35,16093.44,wmoUnit:m,SV,A,Severe Thunderstorm Watch,Severe,Future,2025-05-27T05:00:00-05:00
Harrison,32.54814898,-94.37155736,27.22222222222222,wmoUnit:degC,70,28,16093.44,wmoUnit:m,FA,A,Flood Watch,Severe,Future,2025-05-27T07:00:00-05:00
Presidio,29.99977786,-104.2405552,28.88888888888889,wmoUnit:degC,5,0,16093.44,wmoUnit:m,,,,,,
Austin,29.88711223,-96.27791829,22.22222222222222,wmoUnit:degC,90,92,11265.408,wmoUnit:m,,,Severe Thunderstorm Watch,Severe,Future,2025-05-27T05:00:00-05:00
Randall,34.96594288,-101.8968527,18.88888888888889,wmoUnit:degC,73,49,,,SV,A,Severe Thunderstorm Warning,Severe,Immediate,2025-05-26T22:30:00-05:00
Hood,32.43107878,-97.83280338,22.22222222222222,wmoUnit:degC,84,49,16093.44,wmoUnit:m,,,,,,
Victoria,28.79640594,-96.97176602,32.77777777777778,wmoUnit:degC,60,15,16093.44,wmoUnit:m,SV,A,Severe Thunderstorm Watch,Severe,Future,2025-05-27T05:00:00-05:00
Hutchinson,35.84000866,-101.3547257,18.333333333333332,wmoUnit:degC,65,44,,,SV,A,Severe Thunderstorm Watch,Severe,Future,2025-05-27T00:00:00-05:00
Coryell,31.39087578,-97.7991883,24.444444444444443,wmoUnit:degC,87,32,16093.44,wmoUnit:m,FA,A,Flood Watch,Severe,Future,2025-05-27T05:30:00-05:00
Jackson,28.95603133,-96.57883268,30.555555555555557,wmoUnit:degC,72,24,16012.972493041932,wmoUnit:m,,,Severe Thunderstorm Watch,Severe,Future,2025-05-27T05:00:00-05:00
Taylor,32.30138229,-99.89003941,24.444444444444443,wmoUnit:degC,69,35,14532.375890258803,wmoUnit:m,,,,,,
Zapata,27.00089072,-99.16860134,37.77777777777778,wmoUnit:degC,38,1,,,,,,,,
San Patricio,28.00922186,-97.51859857,32.22222222222222,wmoUnit:degC,68,8,16093.44,wmoUnit:m,,,,,,
Grimes,30.54360689,-95.98557334,23.333333333333332,wmoUnit:degC,90,24,12923.031890258802,wmoUnit:m,,,Severe Thunderstorm Watch,Severe,Future,2025-05-27T05:00:00-05:00
Lamb,34.06861242,-102.3517095,21.11111111111111,wmoUnit:degC,68,16,16093.44,wmoUnit:m,SV,A,Severe Thunderstorm Watch,Severe,Future,2025-05-27T00:00:00-05:00
