countyName,latitude,longitude,temperature,temperature_unit,relativeHumidity,precipitationProbability,visibility,visibility_unit,hazard_phenomenon,hazard_significance,alert_event,alert_severity,alert_urgency,alert_expires
Foard,33.97408519,-99.77871109,20.0,wmoUnit:degC,97,30,,,,,,,,
Blanco,30.26636128,-98.39974086,22.22222222222222,wmoUnit:degC,88,55,13953.01260278313,wmoUnit:m,,,,,,
Hockley,33.60750375,-102.3430919,16.11111111111111,wmoUnit:degC,100,5,11265.408,wmoUnit:m,,,,,,
Llano,30.70566579,-98.68387398,21.666666666666668,wmoUnit:degC,95,48,11265.408,wmoUnit:m,,,,,,
Swisher,34.53064989,-101.734951,15.0,wmoUnit:degC,100,5,11265.408,wmoUnit:m,,,,,,
Titus,33.2160906,-94.96509786,21.666666666666668,wmoUnit:degC,97,78,11265.408,wmoUnit:m,FA,A,Flood Watch,Severe,Future,2025-06-12T19:00:00-05:00
Navarro,32.04695429,-96.47248134,21.11111111111111,wmoUnit:degC,97,54,14548.469698608355,wmoUnit:m,FA,A,Flash Flood Warning,Severe,Immediate,2025-06-11T15:45:00-05:00
Brazoria,29.19345387,-95.45578479,26.666666666666668,wmoUnit:degC,97,0,13711.611616699263,wmoUnit:m,,,,,,
Hidalgo,26.396627,-98.18088681,22.77777777777778,wmoUnit:degC,93,11,,,,,,,,
Archer,33.61539176,-98.68783437,20.0,wmoUnit:degC,100,35,,,,,,,,
Refugio,28.32681413,-97.16546961,25.555555555555557,wmoUnit:degC,88,40,11120.566794433578,wmoUnit:m,,,,,,
Andrews,32.30506283,-102.6378839,16.666666666666668,wmoUnit:degC,100,11,11265.408,wmoUnit:m,,,,,,
Galveston,29.39424415,-94.96474975,26.666666666666668,wmoUnit:degC,100,0,15369.235506958066,wmoUnit:m,,,,,,
De Witt,29.08201599,-97.35666976,23.88888888888889,wmoUnit:degC,99,47,16093.44,wmoUnit:m,,,,,,
Gonzales,29.45641495,-97.49279927,24.444444444444443,wmoUnit:degC,93,47,16093.44,wmoUnit:m,,,,,,
Wharton,29.2778362,-96.22197375,25.555555555555557,wmoUnit:degC,94,12,11265.408,wmoUnit:m,,,,,,
Fannin,33.59396919,-96.10656755,20.0,wmoUnit:degC,93,14,16093.44,wmoUnit:m,FA,A,Flood Watch,Severe,Future,2025-06-11T20:45:00-05:00
Madison,30.96564645,-95.92818441,23.333333333333332,wmoUnit:degC,97,0,16093.44,wmoUnit:m,FA,A,Flood Watch,Severe,Future,2025-06-11T16:00:00-05:00
Moore,35.83768863,-101.8929556,16.11111111111111,wmoUnit:degC,97,0,,,,,,,,
Tyler,30.7712607,-94.37651432,22.22222222222222,wmoUnit:degC,97,18,8014.533150695823,wmoUnit:m,,,,,,
Lipscomb,36.27778432,-100.27317,15.0,wmoUnit:degC,96,0,,,,,,,,
Burleson,30.49246139,-96.62109399,24.444444444444443,wmoUnit:degC,94,48,15095.646904174775,wmoUnit:m,FA,A,Flood Watch,Severe,Future,2025-06-11T16:00:00-05:00
Jim Hogg,27.04340499,-98.6972921,21.11111111111111,wmoUnit:degC,100,50,,,,,,,,
Throckmorton,33.17753907,-99.21236832,20.0,wmoUnit:degC,97,44,,,,,,,,
Kleberg,27.43274395,-97.72889778,26.666666666666668,wmoUnit:degC,79,29,14516.283616699264,wmoUnit:m,,,,,,
Shelby,31.79242191,-94.14495261,18.88888888888889,wmoUnit:degC,100,31,11265.408,wmoUnit:m,FA,A,Flood Watch,Severe,Future,2025-06-12T19:00:00-05:00
Garza,33.17991074,-101.2984496,17.77777777777778,wmoUnit:degC,100,24,16093.44,wmoUnit:m,,,,,,
Karnes,28.90493782,-97.85960621,23.88888888888889,wmoUnit:degC,93,62,16093.44,wmoUnit:m,,,,,,
Reeves,31.32307061,-103.693143,17.22222222222222,wmoUnit:degC,90,4,14468.002191650448,wmoUnit:m,,,,,,
Houston,31.31764137,-95.42225367,22.22222222222222,wmoUnit:degC,100,79,9656.064,wmoUnit:m,FA,A,Flood Warning,Severe,Immediate,2025-06-12T11:30:00-05:00
El Paso,31.7686226,-106.2352229,17.22222222222222,wmoUnit:degC,58,0,15900.318904174776,wmoUnit:m,,,,,,
Carson,35.40346802,-101.3542037,15.555555555555555,wmoUnit:degC,100,0,,,,,,,,
Medina,29.35520493,-99.11008331,22.22222222222222,wmoUnit:degC,89,63,9656.064,wmoUnit:m,,,,,,
Wichita,33.98421585,-98.70153389,20.555555555555557,wmoUnit:degC,97,32,,,,,,,,
Chambers,29.73912276,-94.60891308,25.555555555555557,wmoUnit:degC,100,0,12778.191452087469,wmoUnit:m,,,Flood Warning,Severe,Immediate,2025-06-12T03:30:00-05:00
Donley,34.96540246,-100.8140501,16.11111111111111,wmoUnit:degC,100,3,,,,,,,,
Hopkins,33.14933822,-95.56414173,21.11111111111111,wmoUnit:degC,90,20,16093.44,wmoUnit:m,FA,A,Flood Warning,Severe,Expected,2025-06-12T07:45:00-05:00
Lampasas,31.19627791,-98.24142711,20.555555555555557,wmoUnit:degC,90,61,9656.064,wmoUnit:m,FA,A,Flood Watch,Severe,Future,2025-06-11T20:45:00-05:00
Falls,31.25317017,-96.93579511,21.666666666666668,wmoUnit:degC,100,55,12746.00460278313,wmoUnit:m,FA,A,Flood Watch,Severe,Future,2025-06-11T20:45:00-05:00
Stephens,32.73584155,-98.83612016,20.555555555555557,wmoUnit:degC,93,54,16093.44,wmoUnit:m,,,,,,
Travis,30.33423319,-97.78194654,23.88888888888889,wmoUnit:degC,91,46,16093.44,wmoUnit:m,,,Flood Watch,Severe,Future,2025-06-12T05:00:00-05:00
Roberts,35.8385577,-100.8135689,16.11111111111111,wmoUnit:degC,93,0,,,,,,,,
Crosby,33.61459873,-101.2998612,16.11111111111111,wmoUnit:degC,100,17,16093.44,wmoUnit:m,,,,,,
Kerr,30.06153035,-99.35016969,20.0,wmoUnit:degC,89,61,11265.408,wmoUnit:m,,,,,,
Wood,32.78634374,-95.38206498,21.666666666666668,wmoUnit:degC,93,80,7934.065643737756,wmoUnit:m,FA,A,Flood Watch,Severe,Future,2025-06-12T19:00:00-05:00
Jack,33.23345819,-98.1725509,19.444444444444443,wmoUnit:degC,93,35,16093.44,wmoUnit:m,,,,,,
Marion,32.79797929,-94.35725239,20.0,wmoUnit:degC,100,46,11265.408,wmoUnit:m,FA,A,Flood Watch,Severe,Future,2025-06-12T19:00:00-05:00
Hale,34.07051782,-101.8269082,16.11111111111111,wmoUnit:degC,100,5,11265.408,wmoUnit:m,,,,,,
Jeff Davis,30.71559322,-104.1403539,12.777777777777779,wmoUnit:degC,80,1,16093.44,wmoUnit:m,,,,,,
Tarrant,32.77185236,-97.29116473,21.666666666666668,wmoUnit:degC,84,46,16093.44,wmoUnit:m,FA,A,Flood Watch,Severe,Future,2025-06-11T20:45:00-05:00
Waller,30.01093722,-95.98768942,26.11111111111111,wmoUnit:degC,94,0,11265.408,wmoUnit:m,,,,,,
Reagan,31.36617698,-101.5230108,18.88888888888889,wmoUnit:degC,93,45,16093.44,wmoUnit:m,,,,,,
Smith,32.37514553,-95.26909511,21.666666666666668,wmoUnit:degC,93,65,9656.064,wmoUnit:m,FA,A,Flood Watch,Severe,Future,2025-06-12T19:00:00-05:00
Van Zandt,32.56368961,-95.8364862,20.555555555555557,wmoUnit:degC,97,35,11265.408,wmoUnit:m,FA,A,Flood Watch,Severe,Future,2025-06-11T20:45:00-05:00
Cooke,33.638465,-97.21247642,20.0,wmoUnit:degC,97,22,16093.44,wmoUnit:m,,,,,,
Zavala,28.86530621,-99.76102001,22.22222222222222,wmoUnit:degC,96,64,9656.064,wmoUnit:m,,,,,,
Hall,34.53074134,-100.6809876,17.77777777777778,wmoUnit:degC,100,5,16093.44,wmoUnit:m,,,,,,
Kendall,29.9446397,-98.71160511,21.666666666666668,wmoUnit:degC,88,67,9656.064,wmoUnit:m,,,,,,
Goliad,28.65708563,-97.42646082,23.88888888888889,wmoUnit:degC,87,39,13856.451287475511,wmoUnit:m,,,,,,
Yoakum,33.17293501,-102.8278792,16.11111111111111,wmoUnit:degC,100,5,16093.44,wmoUnit:m,,,,,,
Knox,33.60614755,-99.74144313,20.0,wmoUnit:degC,100,46,,,,,,,,
McLennan,31.55234489,-97.20184883,21.11111111111111,wmoUnit:degC,100,61,9656.064,wmoUnit:m,FA,A,Flood Watch,Severe,Future,2025-06-11T20:45:00-05:00
Brewster,29.81205836,-103.2518906,18.333333333333332,wmoUnit:degC,78,10,16093.44,wmoUnit:m,,,,,,
Panola,32.16222886,-94.30552858,20.0,wmoUnit:degC,100,34,11265.408,wmoUnit:m,FA,A,Flood Watch,Severe,Future,2025-06-12T19:00:00-05:00
Bandera,29.74724753,-99.24637282,21.11111111111111,wmoUnit:degC,88,63,9656.064,wmoUnit:m,,,,,,
Parmer,34.53014507,-102.784594,15.0,wmoUnit:degC,100,5,11265.408,wmoUnit:m,,,,,,
Rockwall,32.89786769,-96.40780584,21.11111111111111,wmoUnit:degC,90,33,16093.44,wmoUnit:m,FA,A,Flood Watch,Severe,Future,2025-06-11T20:45:00-05:00
Trinity,31.0885069,-95.13551682,23.333333333333332,wmoUnit:degC,93,28,14982.993315307618,wmoUnit:m,FA,A,Flood Warning,Severe,Immediate,2025-06-12T11:30:00-05:00
Bosque,31.90050476,-97.63437613,20.555555555555557,wmoUnit:degC,100,62,7885.785753478953,wmoUnit:m,FA,A,Flood Watch,Severe,Future,2025-06-11T20:45:00-05:00
Coke,31.88849293,-100.5298747,20.555555555555557,wmoUnit:degC,93,70,,,,,,,,
Franklin,33.17550691,-95.21841437,21.666666666666668,wmoUnit:degC,97,80,11265.408,wmoUnit:m,FA,A,Flood Watch,Severe,Future,2025-06-12T19:00:00-05:00
Hill,31.99079033,-97.1324142,21.11111111111111,wmoUnit:degC,100,64,9656.064,wmoUnit:m,FA,A,Flood Watch,Severe,Future,2025-06-11T20:45:00-05:00
Calhoun,28.48966896,-96.64708119,27.22222222222222,wmoUnit:degC,100,41,15208.300493041934,wmoUnit:m,,,,,,
Irion,31.30393203,-100.9824126,17.77777777777778,wmoUnit:degC,97,66,,,,,,,,
Midland,31.86921148,-102.0315032,18.333333333333332,wmoUnit:degC,93,30,16093.44,wmoUnit:m,,,,,,
Brown,31.77432313,-98.99989649,20.0,wmoUnit:degC,97,57,,,,,,,,
Wilson,29.17315896,-98.08621015,23.88888888888889,wmoUnit:degC,86,75,16093.44,wmoUnit:m,,,,,,
Oldham,35.40497586,-102.6029949,16.11111111111111,wmoUnit:degC,97,0,,,,,,,,
Freestone,31.70486443,-96.14918535,20.555555555555557,wmoUnit:degC,100,43,14548.469698608355,wmoUnit:m,FA,A,Flood Watch,Severe,Future,2025-06-11T20:45:00-05:00
Sabine,31.34321941,-93.85170439,21.11111111111111,wmoUnit:degC,100,27,11265.408,wmoUnit:m,FA,A,Flood Watch,Severe,Future,2025-06-12T19:00:00-05:00
Deaf Smith,34.96602014,-102.6048162,16.11111111111111,wmoUnit:degC,100,0,,,,,,,,
Angelina,31.25475875,-94.611742,21.666666666666668,wmoUnit:degC,93,33,11265.408,wmoUnit:m,FA,A,Flood Watch,Severe,Future,2025-06-12T19:00:00-05:00
Kent,33.18284492,-100.7791031,17.77777777777778,wmoUnit:degC,100,24,14468.002191650448,wmoUnit:m,,,,,,
Red River,33.62074539,-95.0501886,21.666666666666668,wmoUnit:degC,93,52,11265.408,wmoUnit:m,FA,A,Flood Watch,Severe,Future,2025-06-12T19:00:00-05:00
Kinney,29.35000302,-100.4178441,21.666666666666668,wmoUnit:degC,92,42,9656.064,wmoUnit:m,,,,,,
Denton,33.205574,-97.11681154,21.666666666666668,wmoUnit:degC,93,30,16093.44,wmoUnit:m,FA,A,Flood Watch,Severe,Future,2025-06-11T20:45:00-05:00
Sutton,30.49747152,-100.5382263,17.77777777777778,wmoUnit:degC,97,68,,,,,,,,
Guadalupe,29.58257236,-97.94850308,23.88888888888889,wmoUnit:degC,86,58,16093.44,wmoUnit:m,,,,,,
Winkler,31.85008609,-103.0484794,16.666666666666668,wmoUnit:degC,100,10,11265.408,wmoUnit:m,,,,,,
Dimmit,28.42161168,-99.760574,22.77777777777778,wmoUnit:degC,89,70,16093.44,wmoUnit:m,,,,,,
Wise,33.21585061,-97.65444124,20.555555555555557,wmoUnit:degC,87,33,16093.44,wmoUnit:m,,,,,,
Hemphill,35.83750155,-100.2704628,16.11111111111111,wmoUnit:degC,93,0,,,,,,,,
Potter,35.40128927,-101.8940484,16.666666666666668,wmoUnit:degC,97,0,,,,,,,,
Childress,34.52929257,-100.2075664,18.333333333333332,wmoUnit:degC,97,5,16093.44,wmoUnit:m,,,,,,
Willacy,26.47132899,-97.64303323,26.11111111111111,wmoUnit:degC,95,14,,,,,,,,
Bastrop,30.10353518,-97.31187705,23.88888888888889,wmoUnit:degC,92,29,16093.44,wmoUnit:m,,,Flood Watch,Severe,Future,2025-06-12T05:00:00-05:00
Kimble,30.48676251,-99.74892716,18.88888888888889,wmoUnit:degC,100,64,,,,,,,,
Scurry,32.74720063,-100.9165071,17.77777777777778,wmoUnit:degC,100,55,16093.44,wmoUnit:m,,,,,,
Ochiltree,36.27846334,-100.815653,15.0,wmoUnit:degC,93,0,,,,,,,,
Hansford,36.27753179,-101.3545624,16.11111111111111,wmoUnit:degC,97,0,,,,,,,,
Hartley,35.83996755,-102.6028835,14.444444444444445,wmoUnit:degC,96,0,,,,,,,,
Cameron,26.13847728,-97.51499968,27.77777777777778,wmoUnit:degC,89,11,,,,,,,,
Matagorda,28.86711039,-95.98533866,27.22222222222222,wmoUnit:degC,100,66,9656.064,wmoUnit:m,,,,,,
Burnet,30.78843382,-98.18252382,21.11111111111111,wmoUnit:degC,98,56,16093.44,wmoUnit:m,,,Flood Watch,Severe,Future,2025-06-12T05:00:00-05:00
Rains,32.87004212,-95.79347545,20.555555555555557,wmoUnit:degC,97,28,16093.44,wmoUnit:m,FA,A,Flood Watch,Severe,Future,2025-06-11T20:45:00-05:00
Hays,30.05782657,-98.03104087,22.77777777777778,wmoUnit:degC,92,50,16093.44,wmoUnit:m,,,,,,
Mason,30.71742293,-99.2263026,18.88888888888889,wmoUnit:degC,97,47,,,,,,,,
Ward,31.509424,-103.1024636,16.666666666666668,wmoUnit:degC,100,11,11265.408,wmoUnit:m,,,,,,
Delta,33.38623601,-95.67221685,21.11111111111111,wmoUnit:degC,90,16,16093.44,wmoUnit:m,FA,A,Flood Warning,Severe,Expected,2025-06-12T07:45:00-05:00
Nueces,27.72621549,-97.61767326,26.11111111111111,wmoUnit:degC,77,33,15208.300493041934,wmoUnit:m,,,,,,
Callahan,32.2977738,-99.37359692,20.0,wmoUnit:degC,97,76,,,,,,,,
Bell,31.03778267,-97.47790776,21.666666666666668,wmoUnit:degC,90,58,9559.503452087469,wmoUnit:m,FA,A,Flood Watch,Severe,Future,2025-06-11T20:45:00-05:00
Cherokee,31.83695632,-95.16515234,21.11111111111111,wmoUnit:degC,100,53,9656.064,wmoUnit:m,FA,A,Flood Watch,Severe,Future,2025-06-12T19:00:00-05:00
Ellis,32.34839264,-96.79467417,21.11111111111111,wmoUnit:degC,100,57,9656.064,wmoUnit:m,FA,A,Flood Watch,Severe,Future,2025-06-11T20:45:00-05:00
Lubbock,33.6101944,-101.8205745,17.22222222222222,wmoUnit:degC,97,5,16093.44,wmoUnit:m,,,,,,
Terrell,30.22502597,-102.0764533,18.88888888888889,wmoUnit:degC,97,28,16093.44,wmoUnit:m,,,,,,
Crockett,30.72291931,-101.4118364,17.77777777777778,wmoUnit:degC,90,50,,,,,,,,
Atascosa,28.89418432,-98.52741302,23.333333333333332,wmoUnit:degC,90,67,16093.44,wmoUnit:m,,,,,,
Ector,31.86908156,-102.5430907,17.77777777777778,wmoUnit:degC,90,18,11265.408,wmoUnit:m,,,,,,
Brazos,30.6610425,-96.3022943,23.88888888888889,wmoUnit:degC,97,12,16093.44,wmoUnit:m,FA,A,Flood Watch,Severe,Future,2025-06-11T16:00:00-05:00
Aransas,28.12709562,-96.99258951,28.88888888888889,wmoUnit:degC,82,41,13180.526684692382,wmoUnit:m,,,,,,
Dallas,32.76653746,-96.77781862,21.666666666666668,wmoUnit:degC,90,42,16093.44,wmoUnit:m,FA,A,Flood Watch,Severe,Future,2025-06-11T20:45:00-05:00
Howard,32.30610232,-101.4355097,17.77777777777778,wmoUnit:degC,97,44,16093.44,wmoUnit:m,,,,,,
Motley,34.07409017,-100.7798961,17.22222222222222,wmoUnit:degC,100,14,16093.44,wmoUnit:m,,,,,,
San Augustine,31.39427005,-94.16809762,20.0,wmoUnit:degC,100,30,11265.408,wmoUnit:m,FA,A,Flood Watch,Severe,Future,2025-06-12T19:00:00-05:00
Maverick,28.74260943,-100.3144638,22.22222222222222,wmoUnit:degC,95,52,9656.064,wmoUnit:m,,,,,,
Erath,32.23640361,-98.21722756,19.444444444444443,wmoUnit:degC,97,59,9656.064,wmoUnit:m,FA,A,Flood Watch,Severe,Future,2025-06-11T20:45:00-05:00
Dickens,33.61663428,-100.7788138,17.22222222222222,wmoUnit:degC,100,24,16093.44,wmoUnit:m,,,,,,
Caldwell,29.83677935,-97.61983479,23.88888888888889,wmoUnit:degC,95,37,16093.44,wmoUnit:m,,,,,,
Dawson,32.74258137,-101.9476136,16.666666666666668,wmoUnit:degC,100,23,16093.44,wmoUnit:m,,,,,,
Camp,32.97321771,-94.97860185,21.11111111111111,wmoUnit:degC,100,80,11265.408,wmoUnit:m,FA,A,Flood Watch,Severe,Future,2025-06-12T19:00:00-05:00
Duval,27.68133382,-98.50889672,24.444444444444443,wmoUnit:degC,79,35,4763.658301391645,wmoUnit:m,,,,,,
Hunt,33.123531,-96.08550014,21.11111111111111,wmoUnit:degC,100,23,16093.44,wmoUnit:m,FA,A,Flood Watch,Severe,Future,2025-06-11T20:45:00-05:00
Mills,31.49524259,-98.59552736,19.444444444444443,wmoUnit:degC,100,61,9559.503452087469,wmoUnit:m,FA,A,Flood Watch,Severe,Future,2025-06-11T20:45:00-05:00
Val Verde,29.89300587,-101.15171,20.555555555555557,wmoUnit:degC,89,40,14725.496986084027,wmoUnit:m,,,,,,
Pecos,30.78100044,-102.7235743,16.666666666666668,wmoUnit:degC,97,18,16093.44,wmoUnit:m,,,,,,
Baylor,33.61648147,-99.21351964,20.0,wmoUnit:degC,97,46,,,,,,,,
Gregg,32.48036452,-94.81723694,21.666666666666668,wmoUnit:degC,93,54,11265.408,wmoUnit:m,FA,A,Flood Watch,Severe,Future,2025-06-12T19:00:00-05:00
Cochran,33.60410808,-102.8285264,16.11111111111111,wmoUnit:degC,100,5,16093.44,wmoUnit:m,,,,,,
Jasper,30.74391255,-94.02495849,22.77777777777778,wmoUnit:degC,100,17,6807.525150695823,wmoUnit:m,,,,,,
Hamilton,31.70479181,-98.11066654,20.555555555555557,wmoUnit:degC,93,60,9559.503452087469,wmoUnit:m,FA,A,Flood Watch,Severe,Future,2025-06-11T20:45:00-05:00
Castro,34.53000304,-102.2617608,16.11111111111111,wmoUnit:degC,100,5,11265.408,wmoUnit:m,,,,,,
Sterling,31.82786516,-101.0500699,18.88888888888889,wmoUnit:degC,90,64,,,,,,,,
Starr,26.56212627,-98.73834895,21.11111111111111,wmoUnit:degC,98,26,,,,,,,,
Crane,31.42846287,-102.5156425,18.333333333333332,wmoUnit:degC,93,22,14468.002191650448,wmoUnit:m,,,,,,
Morris,33.11368507,-94.73205137,21.11111111111111,wmoUnit:degC,97,75,11265.408,wmoUnit:m,FA,A,Flood Watch,Severe,Future,2025-06-12T19:00:00-05:00
Briscoe,34.53041048,-101.2085769,17.77777777777778,wmoUnit:degC,97,5,16093.44,wmoUnit:m,,,,,,
Tom Green,31.4044442,-100.4620678,19.444444444444443,wmoUnit:degC,97,69,,,,,,,,
Menard,30.88981785,-99.82061472,17.77777777777778,wmoUnit:degC,100,59,,,,,,,,
Parker,32.77852261,-97.80472194,20.0,wmoUnit:degC,90,46,16093.44,wmoUnit:m,FA,A,Flood Watch,Severe,Future,2025-06-11T20:45:00-05:00
Walker,30.73899492,-95.57224172,24.444444444444443,wmoUnit:degC,94,1,16012.972493041932,wmoUnit:m,FA,A,Flood Watch,Severe,Future,2025-06-11T16:00:00-05:00
Brooks,27.0315669,-98.21874127,20.555555555555557,wmoUnit:degC,100,30,,,,,,,,
La Salle,28.34621032,-99.1034773,23.333333333333332,wmoUnit:degC,82,50,11603.370301391646,wmoUnit:m,,,,,,
Edwards,29.98248216,-100.3048937,19.444444444444443,wmoUnit:degC,93,25,9656.064,wmoUnit:m,,,,,,
Lee,30.31065065,-96.96568735,23.88888888888889,wmoUnit:degC,92,18,16093.44,wmoUnit:m,,,Flood Watch,Severe,Future,2025-06-12T05:00:00-05:00
Robertson,31.02705415,-96.51272568,21.666666666666668,wmoUnit:degC,97,42,14548.469698608355,wmoUnit:m,FA,A,Flood Warning,Severe,Immediate,2025-06-12T08:00:00-05:00
Young,33.17670764,-98.68781396,20.0,wmoUnit:degC,100,41,16093.44,wmoUnit:m,,,,,,
Bee,28.41736675,-97.74116811,23.88888888888889,wmoUnit:degC,84,39,14033.480109741196,wmoUnit:m,,,,,,
Clay,33.78379717,-98.208958,20.555555555555557,wmoUnit:degC,97,28,,,,,,,,
San Jacinto,30.57948905,-95.16683273,22.77777777777778,wmoUnit:degC,100,0,11265.408,wmoUnit:m,,,,,,
Uvalde,29.35669829,-99.76203107,21.11111111111111,wmoUnit:degC,92,51,9656.064,wmoUnit:m,,,,,,
Haskell,33.17824805,-99.73029401,20.555555555555557,wmoUnit:degC,97,29,,,,,,,,
Somervell,32.22229511,-97.77456553,20.555555555555557,wmoUnit:degC,97,60,9656.064,wmoUnit:m,FA,A,Flood Watch,Severe,Future,2025-06-11T20:45:00-05:00
Bexar,29.44884523,-98.51966309,23.88888888888889,wmoUnit:degC,83,63,16093.44,wmoUnit:m,,,,,,
Grayson,33.62684371,-96.67764864,20.555555555555557,wmoUnit:degC,87,18,16093.44,wmoUnit:m,FA,A,Flood Watch,Severe,Future,2025-06-11T20:45:00-05:00
Bailey,34.0684915,-102.8299069,16.11111111111111,wmoUnit:degC,100,5,11265.408,wmoUnit:m,,,,,,
Jones,32.73970429,-99.87850599,21.666666666666668,wmoUnit:degC,93,53,,,,,,,,
Jefferson,29.88425832,-94.1708778,24.444444444444443,wmoUnit:degC,97,30,13325.367890258804,wmoUnit:m,,,Flash Flood Warning,Severe,Immediate,2025-06-11T16:45:00-05:00
Rusk,32.10803224,-94.76169577,21.666666666666668,wmoUnit:degC,93,46,11265.408,wmoUnit:m,FA,A,Flood Watch,Severe,Future,2025-06-12T19:00:00-05:00
Glasscock,31.8694238,-101.520742,17.77777777777778,wmoUnit:degC,97,44,16093.44,wmoUnit:m,,,,,,
Gillespie,30.31800246,-98.94627245,19.444444444444443,wmoUnit:degC,95,57,11265.408,wmoUnit:m,,,,,,
Fisher,32.74305155,-100.4019503,20.555555555555557,wmoUnit:degC,97,52,,,,,,,,
Henderson,32.21188078,-95.85356847,20.555555555555557,wmoUnit:degC,97,39,14548.469698608355,wmoUnit:m,FA,A,Flood Watch,Severe,Future,2025-06-11T20:45:00-05:00
Shackelford,32.7360276,-99.35403034,21.11111111111111,wmoUnit:degC,93,65,,,,,,,,
Palo Pinto,32.75316856,-98.31299522,20.555555555555557,wmoUnit:degC,93,48,16093.44,wmoUnit:m,,,,,,
Wilbarger,34.08044953,-99.24089568,20.0,wmoUnit:degC,100,32,,,,,,,,
Floyd,34.07239775,-101.3033037,17.22222222222222,wmoUnit:degC,100,7,16093.44,wmoUnit:m,,,,,,
Orange,30.12807126,-93.89653794,24.444444444444443,wmoUnit:degC,94,33,11506.809753478952,wmoUnit:m,,,,,,
Runnels,31.83105393,-99.97624799,20.555555555555557,wmoUnit:degC,93,71,,,,,,,,
Coleman,31.77329421,-99.45362579,20.0,wmoUnit:degC,93,64,,,,,,,,
Martin,32.30605847,-101.9512464,17.22222222222222,wmoUnit:degC,97,27,16093.44,wmoUnit:m,,,,,,
Wheeler,35.40129002,-100.2697634,16.666666666666668,wmoUnit:degC,93,0,,,,,,,,
Culberson,31.44709817,-104.5177421,15.0,wmoUnit:degC,83,0,16093.44,wmoUnit:m,,,,,,
Mitchell,32.30636024,-100.9211128,18.88888888888889,wmoUnit:degC,93,57,9656.064,wmoUnit:m,,,,,,
Hudspeth,31.45613738,-105.3869428,12.777777777777779,wmoUnit:degC,86,0,15916.412712524489,wmoUnit:m,,,,,,
Upshur,32.7362827,-94.94132011,21.11111111111111,wmoUnit:degC,97,73,11265.408,wmoUnit:m,FA,A,Flood Watch,Severe,Future,2025-06-12T19:00:00-05:00
Liberty,30.15153187,-94.8120925,23.88888888888889,wmoUnit:degC,94,0,11265.408,wmoUnit:m,,,Flood Warning,Severe,Immediate,2025-06-12T03:30:00-05:00
Williamson,30.64834941,-97.60105467,22.22222222222222,wmoUnit:degC,95,43,16093.44,wmoUnit:m,,,Flood Watch,Severe,Future,2025-06-12T05:00:00-05:00
Nacogdoches,31.61604108,-94.6158776,20.555555555555557,wmoUnit:degC,97,38,11265.408,wmoUnit:m,FA,A,Flood Watch,Severe,Future,2025-06-12T19:00:00-05:00
Loving,31.84912973,-103.5799063,17.77777777777778,wmoUnit:degC,97,3,11265.408,wmoUnit:m,,,,,,
Jim Wells,27.73131099,-98.0898649,25.0,wmoUnit:degC,79,32,12488.509808349552,wmoUnit:m,,,,,,
Upton,31.36853957,-102.0430005,18.333333333333332,wmoUnit:degC,93,32,16093.44,wmoUnit:m,,,,,,
Newton,30.78619977,-93.74462993,21.666666666666668,wmoUnit:degC,100,15,6501.749698608354,wmoUnit:m,,,,,,
Lamar,33.66746186,-95.57110784,20.555555555555557,wmoUnit:degC,93,10,16093.44,wmoUnit:m,FA,A,Flood Watch,Severe,Future,2025-06-11T20:45:00-05:00
Polk,30.79250963,-94.82994949,23.333333333333332,wmoUnit:degC,97,0,11265.408,wmoUnit:m,,,Flood Warning,Severe,Immediate,2025-06-12T11:30:00-05:00
Collin,33.18789055,-96.57248871,21.666666666666668,wmoUnit:degC,90,25,16093.44,wmoUnit:m,FA,A,Flood Watch,Severe,Future,2025-06-11T20:45:00-05:00
Hardeman,34.28865227,-99.7453851,20.0,wmoUnit:degC,97,27,,,,,,,,
McMullen,28.35351091,-98.56842256,23.333333333333332,wmoUnit:degC,82,47,12504.602849304178,wmoUnit:m,,,,,,
Cottle,34.0776571,-100.2786983,19.444444444444443,wmoUnit:degC,90,16,16093.44,wmoUnit:m,,,,,,
Frio,28.86726774,-99.10826004,23.333333333333332,wmoUnit:degC,90,72,16093.44,wmoUnit:m,,,,,,
Gray,35.40130666,-100.812475,16.11111111111111,wmoUnit:degC,97,0,,,,,,,,
Dallam,36.27777107,-102.6021647,13.88888888888889,wmoUnit:degC,96,0,,,,,,,,
Kenedy,26.92409448,-97.68137783,24.444444444444443,wmoUnit:degC,93,19,,,,,,,,
Fort Bend,29.52763253,-95.77090562,26.666666666666668,wmoUnit:degC,97,0,11490.715945129401,wmoUnit:m,,,,,,
Armstrong,34.96522076,-101.3572412,15.555555555555555,wmoUnit:degC,100,0,,,,,,,,
Collingsworth,34.96498493,-100.2700733,16.11111111111111,wmoUnit:degC,100,6,,,,,,,,
Cass,33.07750446,-94.34348771,20.0,wmoUnit:degC,97,48,11265.408,wmoUnit:m,FA,A,Flood Watch,Severe,Future,2025-06-12T19:00:00-05:00
Sherman,36.27765824,-101.8933822,15.555555555555555,wmoUnit:degC,96,0,,,,,,,,
Terry,33.17373729,-102.335157,17.77777777777778,wmoUnit:degC,93,5,16093.44,wmoUnit:m,,,,,,
Limestone,31.54541898,-96.58056718,20.555555555555557,wmoUnit:degC,100,49,12746.00460278313,wmoUnit:m,FA,A,Flood Warning,Severe,Immediate,2025-06-12T08:00:00-05:00
Real,29.83182711,-99.82215881,19.444444444444443,wmoUnit:degC,89,46,9656.064,wmoUnit:m,,,,,,
Lynn,33.17685487,-101.8160235,17.77777777777778,wmoUnit:degC,93,12,16093.44,wmoUnit:m,,,,,,
Lavaca,29.38437003,-96.93020993,24.444444444444443,wmoUnit:degC,99,35,16093.44,wmoUnit:m,,,,,,
Nolan,32.3034718,-100.4060989,19.444444444444443,wmoUnit:degC,97,63,,,,,,,,
Gaines,32.74074537,-102.6351246,16.11111111111111,wmoUnit:degC,100,8,16093.44,wmoUnit:m,,,,,,
Montgomery,30.30022409,-95.50301411,25.0,wmoUnit:degC,97,0,15015.179397216869,wmoUnit:m,,,,,,
Concho,31.32645211,-99.86413426,18.88888888888889,wmoUnit:degC,100,73,,,,,,,,
Hardin,30.33238431,-94.39021394,22.77777777777778,wmoUnit:degC,97,25,10460.736,wmoUnit:m,,,,,,
Harris,29.85967144,-95.39782106,26.666666666666668,wmoUnit:degC,91,4,16093.44,wmoUnit:m,,,,,,
Leon,31.29655719,-95.99554292,21.11111111111111,wmoUnit:degC,100,36,14548.469698608355,wmoUnit:m,FA,A,Flood Warning,Severe,Immediate,2025-06-12T08:00:00-05:00
Bowie,33.44572786,-94.42324298,20.555555555555557,wmoUnit:degC,100,34,11265.408,wmoUnit:m,FA,A,Flood Watch,Severe,Future,2025-06-12T19:00:00-05:00
Kaufman,32.59927808,-96.28779341,21.11111111111111,wmoUnit:degC,100,43,16093.44,wmoUnit:m,FA,A,Flood Watch,Severe,Future,2025-06-11T20:45:00-05:00
Anderson,31.81321543,-95.65251774,19.444444444444443,wmoUnit:degC,100,34,14548.469698608355,wmoUnit:m,FA,A,Flood Watch,Severe,Future,2025-06-11T20:45:00-05:00
San Saba,31.15520543,-98.81754295,18.88888888888889,wmoUnit:degC,100,78,,,,,,,,
Schleicher,30.89661056,-100.538097,17.77777777777778,wmoUnit:degC,100,63,,,,,,,,
Colorado,29.6208542,-96.52630821,23.333333333333332,wmoUnit:degC,97,79,9656.064,wmoUnit:m,,,,,,
Milam,30.78625299,-96.97683495,21.666666666666668,wmoUnit:degC,97,49,14548.469698608355,wmoUnit:m,FA,A,Flood Warning,Severe,Expected,2025-06-12T08:00:00-05:00
Live Oak,28.3514375,-98.12474493,23.88888888888889,wmoUnit:degC,82,41,13486.302904174776,wmoUnit:m,,,,,,
Borden,32.7436916,-101.4317533,17.22222222222222,wmoUnit:degC,100,41,16093.44,wmoUnit:m,,,,,,
McCulloch,31.19896752,-99.34754972,18.88888888888889,wmoUnit:degC,97,70,,,,,,,,
Johnson,32.37899918,-97.36660504,20.555555555555557,wmoUnit:degC,100,60,4699.28460278313,wmoUnit:m,FA,A,Flood Watch,Severe,Future,2025-06-11T20:45:00-05:00
Montague,33.67496328,-97.72466993,20.0,wmoUnit:degC,100,23,16093.44,wmoUnit:m,,,,,,
Stonewall,33.17842158,-100.255259,19.444444444444443,wmoUnit:degC,100,24,16093.44,wmoUnit:m,,,,,,
Comal,29.80816362,-98.27814516,22.22222222222222,wmoUnit:degC,88,58,16093.44,wmoUnit:m,,,,,,
Eastland,32.32739258,-98.8325713,18.88888888888889,wmoUnit:degC,97,62,9656.064,wmoUnit:m,,,,,,
Comanche,31.9490639,-98.55841538,18.88888888888889,wmoUnit:degC,100,62,9656.064,wmoUnit:m,FA,A,Flood Watch,Severe,Future,2025-06-11T20:45:00-05:00
King,33.61641863,-100.2558584,19.444444444444443,wmoUnit:degC,100,24,16093.44,wmoUnit:m,,,,,,
Washington,30.2145299,-96.40356575,25.0,wmoUnit:degC,97,90,9656.064,wmoUnit:m,FA,A,Flood Watch,Severe,Future,2025-06-11T16:00:00-05:00
Webb,27.76102524,-99.33170164,23.333333333333332,wmoUnit:degC,82,36,11571.183452087469,wmoUnit:m,,,,,,
Fayette,29.87683207,-96.91968047,24.444444444444443,wmoUnit:degC,99,18,16093.44,wmoUnit:m,,,Flood Watch,Severe,Future,2025-06-12T05:00:00-05:00
Harrison,32.54814898,-94.37155736,20.555555555555557,wmoUnit:degC,100,39,11265.408,wmoUnit:m,FA,A,Flood Watch,Severe,Future,2025-06-12T19:00:00-05:00
Presidio,29.99977786,-104.2405552,15.555555555555555,wmoUnit:degC,78,1,16093.44,wmoUnit:m,,,,,,
Austin,29.88711223,-96.27791829,24.444444444444443,wmoUnit:degC,94,22,11893.051945129402,wmoUnit:m,,,,,,
Randall,34.96594288,-101.8968527,16.11111111111111,wmoUnit:degC,97,0,,,,,,,,
Hood,32.43107878,-97.83280338,20.555555555555557,wmoUnit:degC,90,57,9656.064,wmoUnit:m,FA,A,Flood Watch,Severe,Future,2025-06-11T20:45:00-05:00
Victoria,28.79640594,-96.97176602,25.0,wmoUnit:degC,79,38,14258.787287475512,wmoUnit:m,,,,,,
Hutchinson,35.84000866,-101.3547257,16.666666666666668,wmoUnit:degC,97,0,,,,,,,,
Coryell,31.39087578,-97.7991883,21.11111111111111,wmoUnit:degC,100,60,6356.908876739477,wmoUnit:m,FA,A,Flood Watch,Severe,Future,2025-06-11T20:45:00-05:00
Jackson,28.95603133,-96.57883268,25.0,wmoUnit:degC,94,100,5745.3579725647005,wmoUnit:m,,,,,,
Taylor,32.30138229,-99.89003941,20.0,wmoUnit:degC,93,69,,,,,,,,
Zapata,27.00089072,-99.16860134,22.22222222222222,wmoUnit:degC,93,44,,,,,,,,
San Patricio,28.00922186,-97.51859857,26.11111111111111,wmoUnit:degC,79,34,13132.246794433579,wmoUnit:m,,,,,,
Grimes,30.54360689,-95.98557334,24.444444444444443,wmoUnit:degC,97,2,11989.612493041934,wmoUnit:m,FA,A,Flood Watch,Severe,Future,2025-06-11T16:00:00-05:00
Lamb,34.06861242,-102.3517095,16.666666666666668,wmoUnit:degC,100,5,11265.408,wmoUnit:m,,,,,,
