countyName,latitude,longitude,temperature,temperature_unit,relativeHumidity,precipitationProbability,visibility,visibility_unit,hazard_phenomenon,hazard_significance,alert_event,alert_severity,alert_urgency,alert_expires
Foard,33.97408519,-99.77871109,26.666666666666668,wmoUnit:degC,69,8,,,,,,,,
Blanco,30.26636128,-98.39974086,20.555555555555557,wmoUnit:degC,90,16,16093.44,wmoUnit:m,,,,,,
Hockley,33.60750375,-102.3430919,28.333333333333332,wmoUnit:degC,46,20,16093.44,wmoUnit:m,SV,A,Severe Thunderstorm Watch,Severe,Future,2025-06-10T02:00:00-05:00
Llano,30.70566579,-98.68387398,20.0,wmoUnit:degC,93,28,16093.44,wmoUnit:m,,,,,,
Swisher,34.53064989,-101.734951,27.22222222222222,wmoUnit:degC,53,19,16093.44,wmoUnit:m,SV,A,Severe Thunderstorm Watch,Severe,Future,2025-06-10T02:00:00-05:00
Titus,33.2160906,-94.96509786,30.555555555555557,wmoUnit:degC,55,8,16093.44,wmoUnit:m,,,Flood Warning,Severe,Immediate,2025-06-10T21:45:00-05:00
Navarro,32.04695429,-96.47248134,30.0,wmoUnit:degC,63,3,15787.665315307619,wmoUnit:m,,,Flood Warning,Severe,Expected,2025-06-10T08:45:00-05:00
Brazoria,29.19345387,-95.45578479,32.22222222222222,wmoUnit:degC,60,17,16093.44,wmoUnit:m,,,,,,
Hidalgo,26.396627,-98.18088681,34.44444444444444,wmoUnit:degC,54,0,,,,,,,,
Archer,33.61539176,-98.68783437,27.77777777777778,wmoUnit:degC,67,10,,,,,,,,
Refugio,28.32681413,-97.16546961,32.22222222222222,wmoUnit:degC,62,10,16093.44,wmoUnit:m,,,,,,
Andrews,32.30506283,-102.6378839,32.77777777777778,wmoUnit:degC,40,0,16093.44,wmoUnit:m,SV,A,Severe Thunderstorm Warning,Severe,Immediate,2025-06-10T01:15:00-05:00
Galveston,29.39424415,-94.96474975,31.11111111111111,wmoUnit:degC,68,29,16093.44,wmoUnit:m,,,,,,
De Witt,29.08201599,-97.35666976,26.666666666666668,wmoUnit:degC,85,12,11265.408,wmoUnit:m,,,,,,
Gonzales,29.45641495,-97.49279927,24.444444444444443,wmoUnit:degC,82,15,16093.44,wmoUnit:m,,,,,,
Wharton,29.2778362,-96.22197375,33.333333333333336,wmoUnit:degC,54,15,16093.44,wmoUnit:m,,,,,,
Fannin,33.59396919,-96.10656755,29.444444444444443,wmoUnit:degC,61,1,16093.44,wmoUnit:m,,,,,,
Madison,30.96564645,-95.92818441,31.666666666666668,wmoUnit:degC,57,20,16093.44,wmoUnit:m,,,,,,
Moore,35.83768863,-101.8929556,26.666666666666668,wmoUnit:degC,41,7,,,,,,,,
Tyler,30.7712607,-94.37651432,31.11111111111111,wmoUnit:degC,66,65,16077.34619165045,wmoUnit:m,,,,,,
Lipscomb,36.27778432,-100.27317,28.333333333333332,wmoUnit:degC,41,0,,,,,,,,
Burleson,30.49246139,-96.62109399,33.888888888888886,wmoUnit:degC,47,24,16093.44,wmoUnit:m,,,,,,
Jim Hogg,27.04340499,-98.6972921,34.44444444444444,wmoUnit:degC,50,1,,,,,,,,
Throckmorton,33.17753907,-99.21236832,28.88888888888889,wmoUnit:degC,59,9,,,,,,,,
Kleberg,27.43274395,-97.72889778,32.22222222222222,wmoUnit:degC,64,1,16093.44,wmoUnit:m,,,,,,
Shelby,31.79242191,-94.14495261,28.333333333333332,wmoUnit:degC,61,24,16093.44,wmoUnit:m,,,,,,
Garza,33.17991074,-101.2984496,26.666666666666668,wmoUnit:degC,60,17,16093.44,wmoUnit:m,SV,A,Severe Thunderstorm Warning,Severe,Immediate,2025-06-10T01:30:00-05:00
Karnes,28.90493782,-97.85960621,27.22222222222222,wmoUnit:degC,85,6,16093.44,wmoUnit:m,,,,,,
Reeves,31.32307061,-103.693143,35.0,wmoUnit:degC,37,0,16093.44,wmoUnit:m,,,,,,
Houston,31.31764137,-95.42225367,31.11111111111111,wmoUnit:degC,57,25,16093.44,wmoUnit:m,,,Flood Warning,Severe,Immediate,2025-06-10T21:30:00-05:00
El Paso,31.7686226,-106.2352229,36.666666666666664,wmoUnit:degC,5,0,16093.44,wmoUnit:m,,,,,,
Carson,35.40346802,-101.3542037,26.666666666666668,wmoUnit:degC,41,1,,,,,,,,
Medina,29.35520493,-99.11008331,26.11111111111111,wmoUnit:degC,79,2,16093.44,wmoUnit:m,,,,,,
Wichita,33.98421585,-98.70153389,28.333333333333332,wmoUnit:degC,57,8,,,,,,,,
Chambers,29.73912276,-94.60891308,31.666666666666668,wmoUnit:degC,64,37,16093.44,wmoUnit:m,,,Flood Warning,Severe,Immediate,2025-06-10T15:00:00-05:00
Donley,34.96540246,-100.8140501,27.22222222222222,wmoUnit:degC,44,1,,,,,,,,
Hopkins,33.14933822,-95.56414173,29.444444444444443,wmoUnit:degC,63,5,15996.878684692381,wmoUnit:m,,,,,,
Lampasas,31.19627791,-98.24142711,30.0,wmoUnit:degC,61,10,16077.34619165045,wmoUnit:m,,,,,,
Falls,31.25317017,-96.93579511,30.0,wmoUnit:degC,65,9,16077.34619165045,wmoUnit:m,,,,,,
Stephens,32.73584155,-98.83612016,28.88888888888889,wmoUnit:degC,57,3,16093.44,wmoUnit:m,,,,,,
Travis,30.33423319,-97.78194654,21.11111111111111,wmoUnit:degC,90,29,16093.44,wmoUnit:m,,,,,,
Roberts,35.8385577,-100.8135689,28.333333333333332,wmoUnit:degC,38,1,,,,,,,,
Crosby,33.61459873,-101.2998612,25.0,wmoUnit:degC,67,11,16093.44,wmoUnit:m,SV,A,Severe Thunderstorm Warning,Severe,Immediate,2025-06-10T01:30:00-05:00
Kerr,30.06153035,-99.35016969,22.22222222222222,wmoUnit:degC,84,6,16093.44,wmoUnit:m,,,,,,
Wood,32.78634374,-95.38206498,30.0,wmoUnit:degC,57,9,16093.44,wmoUnit:m,,,Flood Warning,Severe,Immediate,2025-06-10T21:45:00-05:00
Jack,33.23345819,-98.1725509,29.444444444444443,wmoUnit:degC,55,2,16029.066301391646,wmoUnit:m,,,,,,
Marion,32.79797929,-94.35725239,30.555555555555557,wmoUnit:degC,59,16,16093.44,wmoUnit:m,,,,,,
Hale,34.07051782,-101.8269082,27.22222222222222,wmoUnit:degC,51,17,16093.44,wmoUnit:m,SV,A,Severe Thunderstorm Warning,Severe,Immediate,2025-06-10T01:30:00-05:00
Jeff Davis,30.71559322,-104.1403539,26.666666666666668,wmoUnit:degC,44,0,16093.44,wmoUnit:m,,,,,,
Tarrant,32.77185236,-97.29116473,30.555555555555557,wmoUnit:degC,59,2,15996.878684692381,wmoUnit:m,,,,,,
Waller,30.01093722,-95.98768942,33.888888888888886,wmoUnit:degC,52,44,16093.44,wmoUnit:m,,,,,,
Reagan,31.36617698,-101.5230108,32.77777777777778,wmoUnit:degC,44,0,16093.44,wmoUnit:m,SV,A,Severe Thunderstorm Watch,Severe,Future,2025-06-10T02:00:00-05:00
Smith,32.37514553,-95.26909511,31.11111111111111,wmoUnit:degC,54,14,16093.44,wmoUnit:m,,,Flood Warning,Severe,Immediate,2025-06-10T21:45:00-05:00
Van Zandt,32.56368961,-95.8364862,28.88888888888889,wmoUnit:degC,70,6,15916.412712524489,wmoUnit:m,,,,,,
Cooke,33.638465,-97.21247642,30.0,wmoUnit:degC,59,1,15916.412712524489,wmoUnit:m,,,,,,
Zavala,28.86530621,-99.76102001,26.11111111111111,wmoUnit:degC,88,0,16093.44,wmoUnit:m,,,,,,
Hall,34.53074134,-100.6809876,28.333333333333332,wmoUnit:degC,51,10,16093.44,wmoUnit:m,,,,,,
Kendall,29.9446397,-98.71160511,22.77777777777778,wmoUnit:degC,84,6,16093.44,wmoUnit:m,,,,,,
Goliad,28.65708563,-97.42646082,33.333333333333336,wmoUnit:degC,54,14,16093.44,wmoUnit:m,,,,,,
Yoakum,33.17293501,-102.8278792,27.77777777777778,wmoUnit:degC,49,20,16093.44,wmoUnit:m,SV,A,Severe Thunderstorm Watch,Severe,Future,2025-06-10T02:00:00-05:00
Knox,33.60614755,-99.74144313,26.666666666666668,wmoUnit:degC,69,10,,,,,,,,
McLennan,31.55234489,-97.20184883,30.555555555555557,wmoUnit:degC,57,8,16093.44,wmoUnit:m,,,,,,
Brewster,29.81205836,-103.2518906,32.22222222222222,wmoUnit:degC,44,0,16093.44,wmoUnit:m,,,,,,
Panola,32.16222886,-94.30552858,30.0,wmoUnit:degC,57,20,16093.44,wmoUnit:m,,,,,,
Bandera,29.74724753,-99.24637282,23.333333333333332,wmoUnit:degC,84,2,16093.44,wmoUnit:m,,,,,,
Parmer,34.53014507,-102.784594,27.22222222222222,wmoUnit:degC,49,40,16093.44,wmoUnit:m,SV,A,Severe Thunderstorm Watch,Severe,Future,2025-06-10T02:00:00-05:00
Rockwall,32.89786769,-96.40780584,30.0,wmoUnit:degC,61,2,16093.44,wmoUnit:m,,,Flood Warning,Severe,Immediate,2025-06-10T08:00:00-05:00
Trinity,31.0885069,-95.13551682,31.666666666666668,wmoUnit:degC,56,28,16093.44,wmoUnit:m,,,Flood Warning,Severe,Immediate,2025-06-10T21:30:00-05:00
Bosque,31.90050476,-97.63437613,30.0,wmoUnit:degC,61,8,16061.252383300736,wmoUnit:m,,,,,,
Coke,31.88849293,-100.5298747,33.333333333333336,wmoUnit:degC,41,9,,,SV,A,Severe Thunderstorm Watch,Severe,Future,2025-06-10T02:00:00-05:00
Franklin,33.17550691,-95.21841437,30.555555555555557,wmoUnit:degC,53,7,16093.44,wmoUnit:m,,,Flood Warning,Severe,Immediate,2025-06-10T21:45:00-05:00
Hill,31.99079033,-97.1324142,30.0,wmoUnit:degC,63,5,16045.160109741197,wmoUnit:m,,,,,,
Calhoun,28.48966896,-96.64708119,31.666666666666668,wmoUnit:degC,66,14,16093.44,wmoUnit:m,,,,,,
Irion,31.30393203,-100.9824126,34.44444444444444,wmoUnit:degC,40,9,,,SV,A,Severe Thunderstorm Watch,Severe,Future,2025-06-10T02:00:00-05:00
Midland,31.86921148,-102.0315032,32.77777777777778,wmoUnit:degC,42,0,16093.44,wmoUnit:m,SV,A,Flash Flood Warning,Severe,Immediate,2025-06-10T02:45:00-05:00
Brown,31.77432313,-98.99989649,30.555555555555557,wmoUnit:degC,52,5,,,,,,,,
Wilson,29.17315896,-98.08621015,26.11111111111111,wmoUnit:degC,91,7,16093.44,wmoUnit:m,,,,,,
Oldham,35.40497586,-102.6029949,25.555555555555557,wmoUnit:degC,58,16,,,,,,,,
Freestone,31.70486443,-96.14918535,28.88888888888889,wmoUnit:degC,72,6,13615.050301391646,wmoUnit:m,,,,,,
Sabine,31.34321941,-93.85170439,33.333333333333336,wmoUnit:degC,49,29,16093.44,wmoUnit:m,,,,,,
Deaf Smith,34.96602014,-102.6048162,26.11111111111111,wmoUnit:degC,50,17,,,,,,,,
Angelina,31.25475875,-94.611742,32.77777777777778,wmoUnit:degC,54,27,16093.44,wmoUnit:m,,,Flood Warning,Severe,Immediate,2025-06-10T21:30:00-05:00
Kent,33.18284492,-100.7791031,26.666666666666668,wmoUnit:degC,65,16,16093.44,wmoUnit:m,,,Severe Thunderstorm Warning,Severe,Immediate,2025-06-10T01:30:00-05:00
Red River,33.62074539,-95.0501886,31.666666666666668,wmoUnit:degC,48,5,16093.44,wmoUnit:m,,,Flood Warning,Severe,Immediate,2025-06-10T21:45:00-05:00
Kinney,29.35000302,-100.4178441,25.555555555555557,wmoUnit:degC,82,1,16093.44,wmoUnit:m,,,,,,
Denton,33.205574,-97.11681154,31.11111111111111,wmoUnit:degC,55,1,15900.318904174776,wmoUnit:m,,,,,,
Sutton,30.49747152,-100.5382263,33.888888888888886,wmoUnit:degC,40,11,,,SV,A,Severe Thunderstorm Watch,Severe,Future,2025-06-10T02:00:00-05:00
Guadalupe,29.58257236,-97.94850308,23.333333333333332,wmoUnit:degC,84,14,16093.44,wmoUnit:m,,,,,,
Winkler,31.85008609,-103.0484794,33.333333333333336,wmoUnit:degC,40,0,16093.44,wmoUnit:m,SV,A,Severe Thunderstorm Watch,Severe,Future,2025-06-10T02:00:00-05:00
Dimmit,28.42161168,-99.760574,26.666666666666668,wmoUnit:degC,79,0,16093.44,wmoUnit:m,,,,,,
Wise,33.21585061,-97.65444124,30.0,wmoUnit:degC,53,2,15642.824109741197,wmoUnit:m,,,,,,
Hemphill,35.83750155,-100.2704628,27.22222222222222,wmoUnit:degC,42,1,,,,,,,,
Potter,35.40128927,-101.8940484,26.11111111111111,wmoUnit:degC,50,3,,,,,,,,
Childress,34.52929257,-100.2075664,28.333333333333332,wmoUnit:degC,51,8,16093.44,wmoUnit:m,,,,,,
Willacy,26.47132899,-97.64303323,30.555555555555557,wmoUnit:degC,70,0,,,,,,,,
Bastrop,30.10353518,-97.31187705,22.22222222222222,wmoUnit:degC,93,24,16093.44,wmoUnit:m,,,,,,
Kimble,30.48676251,-99.74892716,34.44444444444444,wmoUnit:degC,40,13,,,SV,A,Severe Thunderstorm Watch,Severe,Future,2025-06-10T02:00:00-05:00
Scurry,32.74720063,-100.9165071,30.0,wmoUnit:degC,45,0,16093.44,wmoUnit:m,,,,,,
Ochiltree,36.27846334,-100.815653,27.22222222222222,wmoUnit:degC,46,1,,,,,,,,
Hansford,36.27753179,-101.3545624,27.77777777777778,wmoUnit:degC,40,2,,,,,,,,
Hartley,35.83996755,-102.6028835,26.11111111111111,wmoUnit:degC,44,14,,,,,,,,
Cameron,26.13847728,-97.51499968,31.11111111111111,wmoUnit:degC,67,0,,,,,,,,
Matagorda,28.86711039,-95.98533866,31.666666666666668,wmoUnit:degC,66,7,16093.44,wmoUnit:m,,,,,,
Burnet,30.78843382,-98.18252382,18.88888888888889,wmoUnit:degC,100,30,16093.44,wmoUnit:m,,,,,,
Rains,32.87004212,-95.79347545,30.0,wmoUnit:degC,59,5,15916.412712524489,wmoUnit:m,,,,,,
Hays,30.05782657,-98.03104087,21.11111111111111,wmoUnit:degC,90,8,16093.44,wmoUnit:m,,,,,,
Mason,30.71742293,-99.2263026,33.333333333333336,wmoUnit:degC,44,12,,,,,,,,
Ward,31.509424,-103.1024636,34.44444444444444,wmoUnit:degC,37,0,16093.44,wmoUnit:m,SV,A,Severe Thunderstorm Watch,Severe,Future,2025-06-10T02:00:00-05:00
Delta,33.38623601,-95.67221685,29.444444444444443,wmoUnit:degC,61,3,16077.34619165045,wmoUnit:m,,,,,,
Nueces,27.72621549,-97.61767326,33.888888888888886,wmoUnit:degC,56,1,16093.44,wmoUnit:m,,,,,,
Callahan,32.2977738,-99.37359692,29.444444444444443,wmoUnit:degC,51,12,,,,,,,,
Bell,31.03778267,-97.47790776,31.666666666666668,wmoUnit:degC,56,10,16093.44,wmoUnit:m,,,,,,
Cherokee,31.83695632,-95.16515234,29.444444444444443,wmoUnit:degC,61,18,16093.44,wmoUnit:m,,,Flood Warning,Severe,Immediate,2025-06-10T21:30:00-05:00
Ellis,32.34839264,-96.79467417,30.555555555555557,wmoUnit:degC,61,2,15996.878684692381,wmoUnit:m,,,,,,
Lubbock,33.6101944,-101.8205745,28.88888888888889,wmoUnit:degC,49,12,16093.44,wmoUnit:m,SV,A,Severe Thunderstorm Warning,Severe,Immediate,2025-06-10T01:30:00-05:00
Terrell,30.22502597,-102.0764533,32.22222222222222,wmoUnit:degC,49,0,16093.44,wmoUnit:m,,,,,,
Crockett,30.72291931,-101.4118364,32.22222222222222,wmoUnit:degC,44,12,,,SV,A,Severe Thunderstorm Watch,Severe,Future,2025-06-10T02:00:00-05:00
Atascosa,28.89418432,-98.52741302,26.666666666666668,wmoUnit:degC,82,3,16093.44,wmoUnit:m,,,,,,
Ector,31.86908156,-102.5430907,34.44444444444444,wmoUnit:degC,39,0,16093.44,wmoUnit:m,SV,A,Severe Thunderstorm Warning,Severe,Immediate,2025-06-10T01:15:00-05:00
Brazos,30.6610425,-96.3022943,32.77777777777778,wmoUnit:degC,56,24,16093.44,wmoUnit:m,,,,,,
Aransas,28.12709562,-96.99258951,30.0,wmoUnit:degC,77,5,16093.44,wmoUnit:m,,,,,,
Dallas,32.76653746,-96.77781862,31.666666666666668,wmoUnit:degC,54,1,16061.252383300736,wmoUnit:m,,,Flood Warning,Severe,Immediate,2025-06-10T08:45:00-05:00
Howard,32.30610232,-101.4355097,36.111111111111114,wmoUnit:degC,35,0,16093.44,wmoUnit:m,SV,A,Severe Thunderstorm Watch,Severe,Future,2025-06-10T02:00:00-05:00
Motley,34.07409017,-100.7798961,28.333333333333332,wmoUnit:degC,53,11,16093.44,wmoUnit:m,,,,,,
San Augustine,31.39427005,-94.16809762,32.77777777777778,wmoUnit:degC,49,28,16093.44,wmoUnit:m,,,,,,
Maverick,28.74260943,-100.3144638,26.11111111111111,wmoUnit:degC,88,2,16093.44,wmoUnit:m,,,,,,
Erath,32.23640361,-98.21722756,29.444444444444443,wmoUnit:degC,55,7,16093.44,wmoUnit:m,,,,,,
Dickens,33.61663428,-100.7788138,26.666666666666668,wmoUnit:degC,60,13,16093.44,wmoUnit:m,,,Severe Thunderstorm Warning,Severe,Immediate,2025-06-10T01:30:00-05:00
Caldwell,29.83677935,-97.61983479,23.333333333333332,wmoUnit:degC,82,15,16093.44,wmoUnit:m,,,,,,
Dawson,32.74258137,-101.9476136,31.11111111111111,wmoUnit:degC,38,0,16093.44,wmoUnit:m,SV,A,Severe Thunderstorm Warning,Severe,Immediate,2025-06-10T01:45:00-05:00
Camp,32.97321771,-94.97860185,30.0,wmoUnit:degC,57,10,16093.44,wmoUnit:m,,,,,,
Duval,27.68133382,-98.50889672,36.666666666666664,wmoUnit:degC,43,2,16093.44,wmoUnit:m,,,,,,
Hunt,33.123531,-96.08550014,30.0,wmoUnit:degC,61,2,16077.34619165045,wmoUnit:m,,,Flood Warning,Severe,Immediate,2025-06-10T08:00:00-05:00
Mills,31.49524259,-98.59552736,29.444444444444443,wmoUnit:degC,59,10,16093.44,wmoUnit:m,,,,,,
Val Verde,29.89300587,-101.15171,26.11111111111111,wmoUnit:degC,69,1,16093.44,wmoUnit:m,,,,,,
Pecos,30.78100044,-102.7235743,30.555555555555557,wmoUnit:degC,55,0,16093.44,wmoUnit:m,,,,,,
Baylor,33.61648147,-99.21351964,27.22222222222222,wmoUnit:degC,67,10,,,,,,,,
Gregg,32.48036452,-94.81723694,30.555555555555557,wmoUnit:degC,55,15,16093.44,wmoUnit:m,,,Flood Warning,Severe,Immediate,2025-06-10T21:30:00-05:00
Cochran,33.60410808,-102.8285264,27.77777777777778,wmoUnit:degC,46,29,16093.44,wmoUnit:m,SV,A,Severe Thunderstorm Watch,Severe,Future,2025-06-10T02:00:00-05:00
Jasper,30.74391255,-94.02495849,31.666666666666668,wmoUnit:degC,64,61,16093.44,wmoUnit:m,,,,,,
Hamilton,31.70479181,-98.11066654,30.0,wmoUnit:degC,51,10,16093.44,wmoUnit:m,,,,,,
Castro,34.53000304,-102.2617608,26.666666666666668,wmoUnit:degC,52,27,16093.44,wmoUnit:m,SV,A,Severe Thunderstorm Watch,Severe,Future,2025-06-10T02:00:00-05:00
Sterling,31.82786516,-101.0500699,34.44444444444444,wmoUnit:degC,40,11,,,SV,A,Severe Thunderstorm Watch,Severe,Future,2025-06-10T02:00:00-05:00
Starr,26.56212627,-98.73834895,35.0,wmoUnit:degC,46,0,,,,,,,,
Crane,31.42846287,-102.5156425,33.888888888888886,wmoUnit:degC,43,0,16093.44,wmoUnit:m,SV,A,Severe Thunderstorm Watch,Severe,Future,2025-06-10T02:00:00-05:00
Morris,33.11368507,-94.73205137,30.555555555555557,wmoUnit:degC,57,11,16093.44,wmoUnit:m,,,Flood Warning,Severe,Immediate,2025-06-10T21:45:00-05:00
Briscoe,34.53041048,-101.2085769,26.666666666666668,wmoUnit:degC,56,12,16093.44,wmoUnit:m,,,,,,
Tom Green,31.4044442,-100.4620678,34.44444444444444,wmoUnit:degC,40,9,,,SV,A,Severe Thunderstorm Watch,Severe,Future,2025-06-10T02:00:00-05:00
Menard,30.88981785,-99.82061472,33.333333333333336,wmoUnit:degC,43,8,,,SV,A,Severe Thunderstorm Watch,Severe,Future,2025-06-10T02:00:00-05:00
Parker,32.77852261,-97.80472194,28.88888888888889,wmoUnit:degC,59,3,16012.972493041932,wmoUnit:m,,,,,,
Walker,30.73899492,-95.57224172,32.22222222222222,wmoUnit:degC,54,27,16093.44,wmoUnit:m,,,,,,
Brooks,27.0315669,-98.21874127,33.333333333333336,wmoUnit:degC,58,0,,,,,,,,
La Salle,28.34621032,-99.1034773,40.0,wmoUnit:degC,32,2,16093.44,wmoUnit:m,,,,,,
Edwards,29.98248216,-100.3048937,23.88888888888889,wmoUnit:degC,79,1,16093.44,wmoUnit:m,,,,,,
Lee,30.31065065,-96.96568735,21.666666666666668,wmoUnit:degC,90,28,16093.44,wmoUnit:m,,,,,,
Robertson,31.02705415,-96.51272568,30.0,wmoUnit:degC,65,10,15964.69260278313,wmoUnit:m,,,,,,
Young,33.17670764,-98.68781396,30.0,wmoUnit:degC,53,1,16093.44,wmoUnit:m,,,,,,
Bee,28.41736675,-97.74116811,34.44444444444444,wmoUnit:degC,49,6,16093.44,wmoUnit:m,,,,,,
Clay,33.78379717,-98.208958,28.333333333333332,wmoUnit:degC,65,10,,,,,,,,
San Jacinto,30.57948905,-95.16683273,31.666666666666668,wmoUnit:degC,57,38,16093.44,wmoUnit:m,,,,,,
Uvalde,29.35669829,-99.76203107,25.555555555555557,wmoUnit:degC,82,1,16093.44,wmoUnit:m,,,,,,
Haskell,33.17824805,-99.73029401,29.444444444444443,wmoUnit:degC,50,10,,,,,,,,
Somervell,32.22229511,-97.77456553,30.0,wmoUnit:degC,55,6,16012.972493041932,wmoUnit:m,,,,,,
Bexar,29.44884523,-98.51966309,26.11111111111111,wmoUnit:degC,85,6,16093.44,wmoUnit:m,,,,,,
Grayson,33.62684371,-96.67764864,29.444444444444443,wmoUnit:degC,55,0,16077.34619165045,wmoUnit:m,,,,,,
Bailey,34.0684915,-102.8299069,27.77777777777778,wmoUnit:degC,47,38,16093.44,wmoUnit:m,SV,A,Severe Thunderstorm Watch,Severe,Future,2025-06-10T02:00:00-05:00
Jones,32.73970429,-99.87850599,28.88888888888889,wmoUnit:degC,55,13,,,,,,,,
Jefferson,29.88425832,-94.1708778,30.0,wmoUnit:degC,77,60,16093.44,wmoUnit:m,,,,,,
Rusk,32.10803224,-94.76169577,32.22222222222222,wmoUnit:degC,50,18,16093.44,wmoUnit:m,,,Flood Warning,Severe,Immediate,2025-06-10T21:30:00-05:00
Glasscock,31.8694238,-101.520742,33.333333333333336,wmoUnit:degC,40,0,16093.44,wmoUnit:m,SV,A,Severe Thunderstorm Watch,Severe,Future,2025-06-10T02:00:00-05:00
Gillespie,30.31800246,-98.94627245,20.555555555555557,wmoUnit:degC,90,14,16093.44,wmoUnit:m,,,,,,
Fisher,32.74305155,-100.4019503,31.11111111111111,wmoUnit:degC,43,14,,,,,,,,
Henderson,32.21188078,-95.85356847,28.88888888888889,wmoUnit:degC,70,7,15320.955616699264,wmoUnit:m,,,Flood Warning,Severe,Expected,2025-06-10T08:45:00-05:00
Shackelford,32.7360276,-99.35403034,28.333333333333332,wmoUnit:degC,55,12,,,,,,,,
Palo Pinto,32.75316856,-98.31299522,29.444444444444443,wmoUnit:degC,55,3,16093.44,wmoUnit:m,,,,,,
Wilbarger,34.08044953,-99.24089568,28.333333333333332,wmoUnit:degC,59,7,,,,,,,,
Floyd,34.07239775,-101.3033037,27.22222222222222,wmoUnit:degC,53,11,16093.44,wmoUnit:m,SV,A,Severe Thunderstorm Watch,Severe,Future,2025-06-10T02:00:00-05:00
Orange,30.12807126,-93.89653794,30.555555555555557,wmoUnit:degC,72,66,16093.44,wmoUnit:m,,,,,,
Runnels,31.83105393,-99.97624799,32.22222222222222,wmoUnit:degC,44,3,,,,,,,,
Coleman,31.77329421,-99.45362579,30.555555555555557,wmoUnit:degC,48,6,,,,,,,,
Martin,32.30605847,-101.9512464,33.888888888888886,wmoUnit:degC,37,0,16093.44,wmoUnit:m,SV,A,Severe Thunderstorm Watch,Severe,Future,2025-06-10T02:00:00-05:00
Wheeler,35.40129002,-100.2697634,28.333333333333332,wmoUnit:degC,38,1,,,,,,,,
Culberson,31.44709817,-104.5177421,30.555555555555557,wmoUnit:degC,32,0,16093.44,wmoUnit:m,,,,,,
Mitchell,32.30636024,-100.9211128,35.0,wmoUnit:degC,40,0,16093.44,wmoUnit:m,SV,A,Severe Thunderstorm Watch,Severe,Future,2025-06-10T02:00:00-05:00
Hudspeth,31.45613738,-105.3869428,34.44444444444444,wmoUnit:degC,9,0,16093.44,wmoUnit:m,,,,,,
Upshur,32.7362827,-94.94132011,30.555555555555557,wmoUnit:degC,53,12,16093.44,wmoUnit:m,,,,,,
Liberty,30.15153187,-94.8120925,32.77777777777778,wmoUnit:degC,56,45,16093.44,wmoUnit:m,,,Flood Warning,Severe,Immediate,2025-06-10T15:00:00-05:00
Williamson,30.64834941,-97.60105467,20.555555555555557,wmoUnit:degC,93,32,16093.44,wmoUnit:m,,,,,,
Nacogdoches,31.61604108,-94.6158776,31.666666666666668,wmoUnit:degC,52,23,16093.44,wmoUnit:m,,,Flood Warning,Severe,Immediate,2025-06-10T21:30:00-05:00
Loving,31.84912973,-103.5799063,32.77777777777778,wmoUnit:degC,38,0,16093.44,wmoUnit:m,SV,A,Severe Thunderstorm Warning,Severe,Immediate,2025-06-10T01:45:00-05:00
Jim Wells,27.73131099,-98.0898649,35.0,wmoUnit:degC,51,1,16093.44,wmoUnit:m,,,,,,
Upton,31.36853957,-102.0430005,32.22222222222222,wmoUnit:degC,47,0,16093.44,wmoUnit:m,SV,A,Severe Thunderstorm Warning,Severe,Immediate,2025-06-10T01:30:00-05:00
Newton,30.78619977,-93.74462993,30.555555555555557,wmoUnit:degC,68,64,16093.44,wmoUnit:m,,,,,,
Lamar,33.66746186,-95.57110784,29.444444444444443,wmoUnit:degC,59,2,16093.44,wmoUnit:m,,,,,,
Polk,30.79250963,-94.82994949,32.22222222222222,wmoUnit:degC,54,35,16093.44,wmoUnit:m,,,Flood Warning,Severe,Immediate,2025-06-10T21:30:00-05:00
Collin,33.18789055,-96.57248871,31.11111111111111,wmoUnit:degC,54,1,16093.44,wmoUnit:m,,,,,,
Hardeman,34.28865227,-99.7453851,27.77777777777778,wmoUnit:degC,63,7,,,,,,,,
McMullen,28.35351091,-98.56842256,38.888888888888886,wmoUnit:degC,37,3,16093.44,wmoUnit:m,,,,,,
Cottle,34.0776571,-100.2786983,28.333333333333332,wmoUnit:degC,53,10,16093.44,wmoUnit:m,,,,,,
Frio,28.86726774,-99.10826004,26.11111111111111,wmoUnit:degC,85,1,14548.469698608355,wmoUnit:m,,,,,,
Gray,35.40130666,-100.812475,27.22222222222222,wmoUnit:degC,41,1,,,,,,,,
Dallam,36.27777107,-102.6021647,25.555555555555557,wmoUnit:degC,42,16,,,,,,,,
Kenedy,26.92409448,-97.68137783,31.11111111111111,wmoUnit:degC,68,0,,,,,,,,
Fort Bend,29.52763253,-95.77090562,33.888888888888886,wmoUnit:degC,52,36,16093.44,wmoUnit:m,,,,,,
Armstrong,34.96522076,-101.3572412,27.22222222222222,wmoUnit:degC,44,2,,,,,,,,
Collingsworth,34.96498493,-100.2700733,30.555555555555557,wmoUnit:degC,31,1,,,,,,,,
Cass,33.07750446,-94.34348771,30.555555555555557,wmoUnit:degC,57,15,16093.44,wmoUnit:m,,,,,,
Sherman,36.27765824,-101.8933822,27.77777777777778,wmoUnit:degC,34,7,,,,,,,,
Terry,33.17373729,-102.335157,27.77777777777778,wmoUnit:degC,53,18,16093.44,wmoUnit:m,SV,A,Severe Thunderstorm Watch,Severe,Future,2025-06-10T02:00:00-05:00
Limestone,31.54541898,-96.58056718,29.444444444444443,wmoUnit:degC,65,6,15546.262794433578,wmoUnit:m,,,,,,
Real,29.83182711,-99.82215881,22.77777777777778,wmoUnit:degC,81,1,16093.44,wmoUnit:m,,,,,,
Lynn,33.17685487,-101.8160235,27.22222222222222,wmoUnit:degC,56,16,16093.44,wmoUnit:m,SV,A,Severe Thunderstorm Watch,Severe,Future,2025-06-10T02:00:00-05:00
Lavaca,29.38437003,-96.93020993,24.444444444444443,wmoUnit:degC,85,19,16093.44,wmoUnit:m,,,,,,
Nolan,32.3034718,-100.4060989,30.0,wmoUnit:degC,50,12,,,SV,A,Severe Thunderstorm Watch,Severe,Future,2025-06-10T02:00:00-05:00
Gaines,32.74074537,-102.6351246,32.22222222222222,wmoUnit:degC,37,0,16093.44,wmoUnit:m,SV,A,Severe Thunderstorm Warning,Severe,Immediate,2025-06-10T01:15:00-05:00
Montgomery,30.30022409,-95.50301411,33.333333333333336,wmoUnit:degC,58,43,16093.44,wmoUnit:m,,,,,,
Concho,31.32645211,-99.86413426,31.11111111111111,wmoUnit:degC,54,8,,,SV,A,Severe Thunderstorm Watch,Severe,Future,2025-06-10T02:00:00-05:00
Hardin,30.33238431,-94.39021394,31.11111111111111,wmoUnit:degC,70,68,16061.252383300736,wmoUnit:m,,,,,,
Harris,29.85967144,-95.39782106,33.888888888888886,wmoUnit:degC,52,50,16093.44,wmoUnit:m,,,,,,
Leon,31.29655719,-95.99554292,30.0,wmoUnit:degC,68,10,14355.34860278313,wmoUnit:m,,,,,,
Bowie,33.44572786,-94.42324298,31.666666666666668,wmoUnit:degC,54,12,16093.44,wmoUnit:m,,,Flood Warning,Severe,Immediate,2025-06-10T21:45:00-05:00
Kaufman,32.59927808,-96.28779341,30.0,wmoUnit:degC,65,3,16077.34619165045,wmoUnit:m,,,,,,
Anderson,31.81321543,-95.65251774,28.88888888888889,wmoUnit:degC,67,10,13148.34060278313,wmoUnit:m,,,Flood Warning,Severe,Immediate,2025-06-10T21:30:00-05:00
San Saba,31.15520543,-98.81754295,30.0,wmoUnit:degC,57,7,,,,,,,,
Schleicher,30.89661056,-100.538097,33.333333333333336,wmoUnit:degC,41,10,,,SV,A,Severe Thunderstorm Watch,Severe,Future,2025-06-10T02:00:00-05:00
Colorado,29.6208542,-96.52630821,33.888888888888886,wmoUnit:degC,51,23,16093.44,wmoUnit:m,,,,,,
Milam,30.78625299,-96.97683495,30.555555555555557,wmoUnit:degC,65,11,16077.34619165045,wmoUnit:m,,,,,,
Live Oak,28.3514375,-98.12474493,36.666666666666664,wmoUnit:degC,43,4,16093.44,wmoUnit:m,,,,,,
Borden,32.7436916,-101.4317533,30.0,wmoUnit:degC,45,0,16093.44,wmoUnit:m,,,Severe Thunderstorm Warning,Severe,Immediate,2025-06-10T01:45:00-05:00
McCulloch,31.19896752,-99.34754972,30.0,wmoUnit:degC,59,6,,,,,,,,
Johnson,32.37899918,-97.36660504,30.0,wmoUnit:degC,63,3,15932.504986084026,wmoUnit:m,,,,,,
Montague,33.67496328,-97.72466993,28.88888888888889,wmoUnit:degC,61,1,15916.412712524489,wmoUnit:m,,,,,,
Stonewall,33.17842158,-100.255259,27.22222222222222,wmoUnit:degC,65,14,16093.44,wmoUnit:m,,,,,,
Comal,29.80816362,-98.27814516,22.22222222222222,wmoUnit:degC,84,11,16093.44,wmoUnit:m,,,,,,
Eastland,32.32739258,-98.8325713,28.88888888888889,wmoUnit:degC,57,7,16093.44,wmoUnit:m,,,,,,
Comanche,31.9490639,-98.55841538,30.0,wmoUnit:degC,50,10,16093.44,wmoUnit:m,,,,,,
King,33.61641863,-100.2558584,28.333333333333332,wmoUnit:degC,61,11,16093.44,wmoUnit:m,,,,,,
Washington,30.2145299,-96.40356575,32.77777777777778,wmoUnit:degC,52,37,16093.44,wmoUnit:m,,,,,,
Webb,27.76102524,-99.33170164,38.888888888888886,wmoUnit:degC,32,1,16093.44,wmoUnit:m,,,,,,
Fayette,29.87683207,-96.91968047,22.77777777777778,wmoUnit:degC,87,21,16093.44,wmoUnit:m,,,,,,
Harrison,32.54814898,-94.37155736,29.444444444444443,wmoUnit:degC,61,17,16093.44,wmoUnit:m,,,,,,
Presidio,29.99977786,-104.2405552,29.444444444444443,wmoUnit:degC,40,0,16093.44,wmoUnit:m,,,,,,
Austin,29.88711223,-96.27791829,33.888888888888886,wmoUnit:degC,49,36,16093.44,wmoUnit:m,,,,,,
Randall,34.96594288,-101.8968527,26.11111111111111,wmoUnit:degC,54,5,,,,,,,,
Hood,32.43107878,-97.83280338,28.88888888888889,wmoUnit:degC,63,4,16029.066301391646,wmoUnit:m,,,,,,
Victoria,28.79640594,-96.97176602,33.333333333333336,wmoUnit:degC,56,14,16093.44,wmoUnit:m,,,,,,
Hutchinson,35.84000866,-101.3547257,27.77777777777778,wmoUnit:degC,41,2,,,,,,,,
Coryell,31.39087578,-97.7991883,30.555555555555557,wmoUnit:degC,52,10,16093.44,wmoUnit:m,,,,,,
Jackson,28.95603133,-96.57883268,33.333333333333336,wmoUnit:degC,57,7,16093.44,wmoUnit:m,,,,,,
Taylor,32.30138229,-99.89003941,28.88888888888889,wmoUnit:degC,51,12,,,,,,,,
Zapata,27.00089072,-99.16860134,36.666666666666664,wmoUnit:degC,37,2,,,,,,,,
San Patricio,28.00922186,-97.51859857,32.77777777777778,wmoUnit:degC,60,5,16093.44,wmoUnit:m,,,,,,
Grimes,30.54360689,-95.98557334,34.44444444444444,wmoUnit:degC,51,29,16093.44,wmoUnit:m,,,,,,
Lamb,34.06861242,-102.3517095,27.77777777777778,wmoUnit:degC,49,26,16093.44,wmoUnit:m,SV,A,Severe Thunderstorm Watch,Severe,Future,2025-06-10T02:00:00-05:00
