countyName,latitude,longitude,temperature,temperature_unit,relativeHumidity,precipitationProbability,visibility,visibility_unit,hazard_phenomenon,hazard_significance,alert_event,alert_severity,alert_urgency,alert_expires
Foard,33.97408519,-99.77871109,20.0,wmoUnit:degC,84,2,,,,,,,,
Blanco,30.26636128,-98.39974086,31.11111111111111,wmoUnit:degC,59,0,16093.44,wmoUnit:m,,,,,,
Hockley,33.60750375,-102.3430919,32.22222222222222,wmoUnit:degC,28,2,16093.44,wmoUnit:m,,,,,,
Llano,30.70566579,-98.68387398,33.333333333333336,wmoUnit:degC,44,0,16093.44,wmoUnit:m,,,,,,
Swisher,34.53064989,-101.734951,28.88888888888889,wmoUnit:degC,46,2,16093.44,wmoUnit:m,,,,,,
Titus,33.2160906,-94.96509786,22.77777777777778,wmoUnit:degC,76,32,16093.44,wmoUnit:m,,,,,,
Navarro,32.04695429,-96.47248134,27.77777777777778,wmoUnit:degC,61,20,16093.44,wmoUnit:m,SV,A,Severe Thunderstorm Watch,Severe,Future,2025-06-01T22:00:00-05:00
Brazoria,29.19345387,-95.45578479,26.666666666666668,wmoUnit:degC,85,10,15642.824109741197,wmoUnit:m,,,,,,
Hidalgo,26.396627,-98.18088681,33.888888888888886,wmoUnit:degC,53,8,,,,,,,,
Archer,33.61539176,-98.68783437,20.555555555555557,wmoUnit:degC,90,17,,,,,,,,
Refugio,28.32681413,-97.16546961,30.555555555555557,wmoUnit:degC,65,2,14548.469698608355,wmoUnit:m,,,,,,
Andrews,32.30506283,-102.6378839,31.666666666666668,wmoUnit:degC,29,0,16093.44,wmoUnit:m,,,,,,
Galveston,29.39424415,-94.96474975,27.22222222222222,wmoUnit:degC,91,12,15658.916383300735,wmoUnit:m,,,,,,
De Witt,29.08201599,-97.35666976,30.555555555555557,wmoUnit:degC,68,1,16093.44,wmoUnit:m,,,,,,
Gonzales,29.45641495,-97.49279927,31.666666666666668,wmoUnit:degC,60,0,16093.44,wmoUnit:m,,,,,,
Wharton,29.2778362,-96.22197375,26.11111111111111,wmoUnit:degC,94,5,14725.496986084027,wmoUnit:m,,,,,,
Fannin,33.59396919,-96.10656755,20.555555555555557,wmoUnit:degC,93,24,16093.44,wmoUnit:m,,,,,,
Madison,30.96564645,-95.92818441,23.88888888888889,wmoUnit:degC,94,0,15916.412712524489,wmoUnit:m,SV,A,Severe Thunderstorm Watch,Severe,Future,2025-06-01T22:00:00-05:00
Moore,35.83768863,-101.8929556,25.555555555555557,wmoUnit:degC,43,0,,,,,,,,
Tyler,30.7712607,-94.37651432,23.88888888888889,wmoUnit:degC,84,2,15015.179397216869,wmoUnit:m,,,,,,
Lipscomb,36.27778432,-100.27317,26.666666666666668,wmoUnit:degC,51,0,,,,,,,,
Burleson,30.49246139,-96.62109399,26.666666666666668,wmoUnit:degC,82,0,16077.34619165045,wmoUnit:m,SV,A,Severe Thunderstorm Watch,Severe,Future,2025-06-01T22:00:00-05:00
Jim Hogg,27.04340499,-98.6972921,33.333333333333336,wmoUnit:degC,49,3,,,,,,,,
Throckmorton,33.17753907,-99.21236832,29.444444444444443,wmoUnit:degC,59,2,16093.44,wmoUnit:m,,,,,,
Kleberg,27.43274395,-97.72889778,30.555555555555557,wmoUnit:degC,65,2,16093.44,wmoUnit:m,,,,,,
Shelby,31.79242191,-94.14495261,27.22222222222222,wmoUnit:degC,37,10,16093.44,wmoUnit:m,,,,,,
Garza,33.17991074,-101.2984496,32.77777777777778,wmoUnit:degC,33,3,16093.44,wmoUnit:m,,,,,,
Karnes,28.90493782,-97.85960621,31.666666666666668,wmoUnit:degC,57,0,16093.44,wmoUnit:m,,,,,,
Reeves,31.32307061,-103.693143,32.22222222222222,wmoUnit:degC,27,0,16093.44,wmoUnit:m,,,,,,
Houston,31.31764137,-95.42225367,23.88888888888889,wmoUnit:degC,87,0,13132.246794433579,wmoUnit:m,SV,A,Severe Thunderstorm Watch,Severe,Future,2025-06-01T22:00:00-05:00
El Paso,31.7686226,-106.2352229,30.0,wmoUnit:degC,29,0,16061.252383300736,wmoUnit:m,,,,,,
Carson,35.40346802,-101.3542037,23.88888888888889,wmoUnit:degC,60,0,,,,,,,,
Medina,29.35520493,-99.11008331,31.11111111111111,wmoUnit:degC,62,0,16093.44,wmoUnit:m,,,,,,
Wichita,33.98421585,-98.70153389,20.555555555555557,wmoUnit:degC,90,19,,,,,,,,
Chambers,29.73912276,-94.60891308,27.22222222222222,wmoUnit:degC,82,13,15626.730301391646,wmoUnit:m,,,,,,
Donley,34.96540246,-100.8140501,23.333333333333332,wmoUnit:degC,79,1,,,,,,,,
Hopkins,33.14933822,-95.56414173,23.333333333333332,wmoUnit:degC,82,26,16093.44,wmoUnit:m,,,,,,
Lampasas,31.19627791,-98.24142711,28.88888888888889,wmoUnit:degC,70,6,16093.44,wmoUnit:m,,,,,,
Falls,31.25317017,-96.93579511,28.88888888888889,wmoUnit:degC,70,10,16093.44,wmoUnit:m,SV,A,Severe Thunderstorm Watch,Severe,Future,2025-06-01T22:00:00-05:00
Stephens,32.73584155,-98.83612016,30.0,wmoUnit:degC,53,6,11265.408,wmoUnit:m,,,,,,
Travis,30.33423319,-97.78194654,32.77777777777778,wmoUnit:degC,56,0,16093.44,wmoUnit:m,,,,,,
Roberts,35.8385577,-100.8135689,26.666666666666668,wmoUnit:degC,65,0,,,,,,,,
Crosby,33.61459873,-101.2998612,32.22222222222222,wmoUnit:degC,28,3,16093.44,wmoUnit:m,,,,,,
Kerr,30.06153035,-99.35016969,31.666666666666668,wmoUnit:degC,52,0,16093.44,wmoUnit:m,,,,,,
Wood,32.78634374,-95.38206498,21.11111111111111,wmoUnit:degC,93,39,16093.44,wmoUnit:m,,,,,,
Jack,33.23345819,-98.1725509,25.555555555555557,wmoUnit:degC,76,12,16093.44,wmoUnit:m,,,,,,
Marion,32.79797929,-94.35725239,26.666666666666668,wmoUnit:degC,60,19,16093.44,wmoUnit:m,,,,,,
Hale,34.07051782,-101.8269082,31.11111111111111,wmoUnit:degC,33,2,16093.44,wmoUnit:m,,,,,,
Jeff Davis,30.71559322,-104.1403539,25.0,wmoUnit:degC,32,1,16093.44,wmoUnit:m,,,,,,
Tarrant,32.77185236,-97.29116473,27.77777777777778,wmoUnit:degC,61,22,16093.44,wmoUnit:m,OzoneActionDay,,Severe Thunderstorm Warning,Severe,Immediate,2025-06-01T19:45:00-05:00
Waller,30.01093722,-95.98768942,25.555555555555557,wmoUnit:degC,91,0,14918.619616699263,wmoUnit:m,SV,A,Severe Thunderstorm Watch,Severe,Future,2025-06-01T22:00:00-05:00
Reagan,31.36617698,-101.5230108,31.11111111111111,wmoUnit:degC,39,0,16093.44,wmoUnit:m,,,,,,
Smith,32.37514553,-95.26909511,23.333333333333332,wmoUnit:degC,82,39,16093.44,wmoUnit:m,,,,,,
Van Zandt,32.56368961,-95.8364862,25.555555555555557,wmoUnit:degC,67,27,16093.44,wmoUnit:m,,,,,,
Cooke,33.638465,-97.21247642,22.77777777777778,wmoUnit:degC,79,17,16093.44,wmoUnit:m,,,,,,
Zavala,28.86530621,-99.76102001,31.666666666666668,wmoUnit:degC,62,0,16093.44,wmoUnit:m,,,,,,
Hall,34.53074134,-100.6809876,30.0,wmoUnit:degC,50,3,16093.44,wmoUnit:m,,,,,,
Kendall,29.9446397,-98.71160511,31.11111111111111,wmoUnit:degC,67,0,16093.44,wmoUnit:m,,,,,,
Goliad,28.65708563,-97.42646082,30.555555555555557,wmoUnit:degC,61,1,15594.542684692382,wmoUnit:m,,,,,,
Yoakum,33.17293501,-102.8278792,32.77777777777778,wmoUnit:degC,26,2,16093.44,wmoUnit:m,,,,,,
Knox,33.60614755,-99.74144313,21.11111111111111,wmoUnit:degC,78,2,,,,,,,,
McLennan,31.55234489,-97.20184883,28.88888888888889,wmoUnit:degC,72,11,16093.44,wmoUnit:m,SV,A,Severe Thunderstorm Watch,Severe,Future,2025-06-01T22:00:00-05:00
Brewster,29.81205836,-103.2518906,31.11111111111111,wmoUnit:degC,33,0,16093.44,wmoUnit:m,,,,,,
Panola,32.16222886,-94.30552858,27.77777777777778,wmoUnit:degC,41,14,16093.44,wmoUnit:m,,,,,,
Bandera,29.74724753,-99.24637282,30.555555555555557,wmoUnit:degC,62,0,16093.44,wmoUnit:m,,,,,,
Parmer,34.53014507,-102.784594,28.88888888888889,wmoUnit:degC,32,1,16093.44,wmoUnit:m,,,,,,
Rockwall,32.89786769,-96.40780584,22.77777777777778,wmoUnit:degC,79,34,16093.44,wmoUnit:m,OzoneActionDay,,,,,
Trinity,31.0885069,-95.13551682,25.0,wmoUnit:degC,79,0,16093.44,wmoUnit:m,SV,A,Severe Thunderstorm Watch,Severe,Future,2025-06-01T22:00:00-05:00
Bosque,31.90050476,-97.63437613,28.88888888888889,wmoUnit:degC,74,13,16093.44,wmoUnit:m,SV,A,Severe Thunderstorm Watch,Severe,Future,2025-06-01T22:00:00-05:00
Coke,31.88849293,-100.5298747,30.555555555555557,wmoUnit:degC,52,0,16093.44,wmoUnit:m,,,,,,
Franklin,33.17550691,-95.21841437,22.22222222222222,wmoUnit:degC,81,35,16093.44,wmoUnit:m,,,,,,
Hill,31.99079033,-97.1324142,28.333333333333332,wmoUnit:degC,63,15,16093.44,wmoUnit:m,SV,A,Severe Thunderstorm Watch,Severe,Future,2025-06-01T22:00:00-05:00
Calhoun,28.48966896,-96.64708119,30.555555555555557,wmoUnit:degC,72,3,16093.44,wmoUnit:m,,,,,,
Irion,31.30393203,-100.9824126,31.666666666666668,wmoUnit:degC,45,0,16093.44,wmoUnit:m,,,,,,
Midland,31.86921148,-102.0315032,32.22222222222222,wmoUnit:degC,34,0,16093.44,wmoUnit:m,,,,,,
Brown,31.77432313,-98.99989649,30.555555555555557,wmoUnit:degC,61,2,16093.44,wmoUnit:m,,,,,,
Wilson,29.17315896,-98.08621015,31.11111111111111,wmoUnit:degC,67,0,16093.44,wmoUnit:m,,,,,,
Oldham,35.40497586,-102.6029949,24.444444444444443,wmoUnit:degC,56,0,,,,,,,,
Freestone,31.70486443,-96.14918535,27.22222222222222,wmoUnit:degC,65,15,16093.44,wmoUnit:m,SV,A,Severe Thunderstorm Watch,Severe,Future,2025-06-01T22:00:00-05:00
Sabine,31.34321941,-93.85170439,30.0,wmoUnit:degC,43,2,16093.44,wmoUnit:m,,,,,,
Deaf Smith,34.96602014,-102.6048162,24.444444444444443,wmoUnit:degC,52,0,,,,,,,,
Angelina,31.25475875,-94.611742,29.444444444444443,wmoUnit:degC,48,13,16093.44,wmoUnit:m,,,Flood Warning,Severe,Immediate,2025-06-02T10:45:00-05:00
Kent,33.18284492,-100.7791031,33.333333333333336,wmoUnit:degC,34,3,16093.44,wmoUnit:m,,,,,,
Red River,33.62074539,-95.0501886,24.444444444444443,wmoUnit:degC,66,31,16093.44,wmoUnit:m,,,,,,
Kinney,29.35000302,-100.4178441,31.666666666666668,wmoUnit:degC,53,0,16093.44,wmoUnit:m,,,,,,
Denton,33.205574,-97.11681154,25.0,wmoUnit:degC,67,26,16093.44,wmoUnit:m,OzoneActionDay,,,,,
Sutton,30.49747152,-100.5382263,31.11111111111111,wmoUnit:degC,42,0,16093.44,wmoUnit:m,,,,,,
Guadalupe,29.58257236,-97.94850308,31.666666666666668,wmoUnit:degC,63,0,16093.44,wmoUnit:m,,,,,,
Winkler,31.85008609,-103.0484794,31.11111111111111,wmoUnit:degC,33,0,16093.44,wmoUnit:m,,,,,,
Dimmit,28.42161168,-99.760574,33.888888888888886,wmoUnit:degC,51,0,16093.44,wmoUnit:m,,,,,,
Wise,33.21585061,-97.65444124,25.0,wmoUnit:degC,69,16,16093.44,wmoUnit:m,OzoneActionDay,,,,,
Hemphill,35.83750155,-100.2704628,25.555555555555557,wmoUnit:degC,67,1,,,,,,,,
Potter,35.40128927,-101.8940484,24.444444444444443,wmoUnit:degC,62,0,,,,,,,,
Childress,34.52929257,-100.2075664,30.0,wmoUnit:degC,51,3,16093.44,wmoUnit:m,,,,,,
Willacy,26.47132899,-97.64303323,32.22222222222222,wmoUnit:degC,64,8,,,,,,,,
Bastrop,30.10353518,-97.31187705,32.22222222222222,wmoUnit:degC,56,0,16093.44,wmoUnit:m,,,,,,
Kimble,30.48676251,-99.74892716,32.22222222222222,wmoUnit:degC,47,0,16093.44,wmoUnit:m,,,,,,
Scurry,32.74720063,-100.9165071,30.555555555555557,wmoUnit:degC,40,1,16093.44,wmoUnit:m,,,,,,
Ochiltree,36.27846334,-100.815653,25.555555555555557,wmoUnit:degC,58,0,,,,,,,,
Hansford,36.27753179,-101.3545624,26.666666666666668,wmoUnit:degC,44,0,,,,,,,,
Hartley,35.83996755,-102.6028835,26.666666666666668,wmoUnit:degC,41,0,,,,,,,,
Cameron,26.13847728,-97.51499968,32.22222222222222,wmoUnit:degC,61,5,,,,,,,,
Matagorda,28.86711039,-95.98533866,26.666666666666668,wmoUnit:degC,91,9,14886.432,wmoUnit:m,,,,,,
Burnet,30.78843382,-98.18252382,30.0,wmoUnit:degC,58,0,16093.44,wmoUnit:m,,,,,,
Rains,32.87004212,-95.79347545,23.333333333333332,wmoUnit:degC,79,28,16093.44,wmoUnit:m,,,,,,
Hays,30.05782657,-98.03104087,32.77777777777778,wmoUnit:degC,62,0,16093.44,wmoUnit:m,,,,,,
Mason,30.71742293,-99.2263026,31.666666666666668,wmoUnit:degC,45,0,16093.44,wmoUnit:m,,,,,,
Ward,31.509424,-103.1024636,32.22222222222222,wmoUnit:degC,28,0,16093.44,wmoUnit:m,,,,,,
Delta,33.38623601,-95.67221685,22.22222222222222,wmoUnit:degC,90,24,16093.44,wmoUnit:m,,,,,,
Nueces,27.72621549,-97.61767326,30.555555555555557,wmoUnit:degC,65,2,16093.44,wmoUnit:m,,,,,,
Callahan,32.2977738,-99.37359692,31.11111111111111,wmoUnit:degC,55,2,16093.44,wmoUnit:m,,,,,,
Bell,31.03778267,-97.47790776,30.0,wmoUnit:degC,63,9,16093.44,wmoUnit:m,SV,A,Severe Thunderstorm Watch,Severe,Future,2025-06-01T22:00:00-05:00
Cherokee,31.83695632,-95.16515234,27.22222222222222,wmoUnit:degC,58,31,16093.44,wmoUnit:m,,,Flood Warning,Severe,Immediate,2025-06-02T10:45:00-05:00
Ellis,32.34839264,-96.79467417,27.22222222222222,wmoUnit:degC,67,24,12746.00460278313,wmoUnit:m,OzoneActionDay,,Severe Thunderstorm Warning,Severe,Immediate,2025-06-01T19:45:00-05:00
Lubbock,33.6101944,-101.8205745,33.333333333333336,wmoUnit:degC,26,2,16093.44,wmoUnit:m,,,,,,
Terrell,30.22502597,-102.0764533,31.666666666666668,wmoUnit:degC,44,0,16093.44,wmoUnit:m,,,,,,
Crockett,30.72291931,-101.4118364,31.11111111111111,wmoUnit:degC,41,0,16093.44,wmoUnit:m,,,,,,
Atascosa,28.89418432,-98.52741302,31.666666666666668,wmoUnit:degC,53,0,16093.44,wmoUnit:m,,,,,,
Ector,31.86908156,-102.5430907,31.11111111111111,wmoUnit:degC,34,0,16093.44,wmoUnit:m,,,,,,
Brazos,30.6610425,-96.3022943,25.555555555555557,wmoUnit:degC,91,0,15176.114411132843,wmoUnit:m,SV,A,Severe Thunderstorm Watch,Severe,Future,2025-06-01T22:00:00-05:00
Aransas,28.12709562,-96.99258951,28.333333333333332,wmoUnit:degC,82,2,14966.899506958067,wmoUnit:m,,,,,,
Dallas,32.76653746,-96.77781862,25.555555555555557,wmoUnit:degC,60,32,16093.44,wmoUnit:m,OzoneActionDay,,,,,
Howard,32.30610232,-101.4355097,31.666666666666668,wmoUnit:degC,37,0,16093.44,wmoUnit:m,,,,,,
Motley,34.07409017,-100.7798961,28.88888888888889,wmoUnit:degC,57,4,16093.44,wmoUnit:m,,,,,,
San Augustine,31.39427005,-94.16809762,29.444444444444443,wmoUnit:degC,43,9,16093.44,wmoUnit:m,,,,,,
Maverick,28.74260943,-100.3144638,32.77777777777778,wmoUnit:degC,54,0,16093.44,wmoUnit:m,,,,,,
Erath,32.23640361,-98.21722756,29.444444444444443,wmoUnit:degC,59,10,16093.44,wmoUnit:m,SV,A,Severe Thunderstorm Watch,Severe,Future,2025-06-01T22:00:00-05:00
Dickens,33.61663428,-100.7788138,31.11111111111111,wmoUnit:degC,39,3,16093.44,wmoUnit:m,,,,,,
Caldwell,29.83677935,-97.61983479,31.666666666666668,wmoUnit:degC,64,0,16093.44,wmoUnit:m,,,,,,
Dawson,32.74258137,-101.9476136,30.555555555555557,wmoUnit:degC,36,0,16093.44,wmoUnit:m,,,,,,
Camp,32.97321771,-94.97860185,22.77777777777778,wmoUnit:degC,81,33,16093.44,wmoUnit:m,,,,,,
Duval,27.68133382,-98.50889672,31.11111111111111,wmoUnit:degC,57,1,16093.44,wmoUnit:m,,,,,,
Hunt,33.123531,-96.08550014,21.11111111111111,wmoUnit:degC,90,30,16093.44,wmoUnit:m,OzoneActionDay,,,,,
Mills,31.49524259,-98.59552736,28.88888888888889,wmoUnit:degC,67,4,16093.44,wmoUnit:m,,,,,,
Val Verde,29.89300587,-101.15171,32.22222222222222,wmoUnit:degC,47,0,16093.44,wmoUnit:m,,,,,,
Pecos,30.78100044,-102.7235743,31.666666666666668,wmoUnit:degC,31,0,16093.44,wmoUnit:m,,,,,,
Baylor,33.61648147,-99.21351964,20.555555555555557,wmoUnit:degC,87,10,,,,,,,,
Gregg,32.48036452,-94.81723694,25.555555555555557,wmoUnit:degC,58,32,16093.44,wmoUnit:m,,,,,,
Cochran,33.60410808,-102.8285264,31.666666666666668,wmoUnit:degC,28,2,16093.44,wmoUnit:m,,,,,,
Jasper,30.74391255,-94.02495849,24.444444444444443,wmoUnit:degC,85,2,14564.563506958068,wmoUnit:m,,,,,,
Hamilton,31.70479181,-98.11066654,29.444444444444443,wmoUnit:degC,70,9,16093.44,wmoUnit:m,SV,A,Severe Thunderstorm Watch,Severe,Future,2025-06-01T22:00:00-05:00
Castro,34.53000304,-102.2617608,29.444444444444443,wmoUnit:degC,31,3,16093.44,wmoUnit:m,,,,,,
Sterling,31.82786516,-101.0500699,31.666666666666668,wmoUnit:degC,45,0,16093.44,wmoUnit:m,,,,,,
Starr,26.56212627,-98.73834895,33.888888888888886,wmoUnit:degC,52,2,,,,,,,,
Crane,31.42846287,-102.5156425,31.666666666666668,wmoUnit:degC,35,0,16093.44,wmoUnit:m,,,,,,
Morris,33.11368507,-94.73205137,23.333333333333332,wmoUnit:degC,76,27,16093.44,wmoUnit:m,,,,,,
Briscoe,34.53041048,-101.2085769,26.11111111111111,wmoUnit:degC,62,2,16093.44,wmoUnit:m,,,,,,
Tom Green,31.4044442,-100.4620678,31.11111111111111,wmoUnit:degC,55,0,16093.44,wmoUnit:m,,,,,,
Menard,30.88981785,-99.82061472,32.22222222222222,wmoUnit:degC,42,0,16093.44,wmoUnit:m,,,,,,
Parker,32.77852261,-97.80472194,25.555555555555557,wmoUnit:degC,74,15,16093.44,wmoUnit:m,OzoneActionDay,,Severe Thunderstorm Watch,Severe,Future,2025-06-01T22:00:00-05:00
Walker,30.73899492,-95.57224172,25.555555555555557,wmoUnit:degC,88,1,15868.131287475511,wmoUnit:m,SV,A,Severe Thunderstorm Watch,Severe,Future,2025-06-01T22:00:00-05:00
Brooks,27.0315669,-98.21874127,33.888888888888886,wmoUnit:degC,51,5,,,,,,,,
La Salle,28.34621032,-99.1034773,32.22222222222222,wmoUnit:degC,56,0,15723.291616699264,wmoUnit:m,,,,,,
Edwards,29.98248216,-100.3048937,30.555555555555557,wmoUnit:degC,49,0,16093.44,wmoUnit:m,,,,,,
Lee,30.31065065,-96.96568735,31.666666666666668,wmoUnit:degC,57,2,16093.44,wmoUnit:m,,,,,,
Robertson,31.02705415,-96.51272568,28.333333333333332,wmoUnit:degC,74,9,16093.44,wmoUnit:m,SV,A,Severe Thunderstorm Watch,Severe,Future,2025-06-01T22:00:00-05:00
Young,33.17670764,-98.68781396,27.77777777777778,wmoUnit:degC,63,8,16093.44,wmoUnit:m,,,,,,
Bee,28.41736675,-97.74116811,30.555555555555557,wmoUnit:degC,59,1,15980.786411132844,wmoUnit:m,,,,,,
Clay,33.78379717,-98.208958,21.11111111111111,wmoUnit:degC,87,28,,,,,,,,
San Jacinto,30.57948905,-95.16683273,24.444444444444443,wmoUnit:degC,90,2,15546.262794433578,wmoUnit:m,SV,A,Severe Thunderstorm Watch,Severe,Future,2025-06-01T22:00:00-05:00
Uvalde,29.35669829,-99.76203107,30.0,wmoUnit:degC,60,0,16093.44,wmoUnit:m,,,,,,
Haskell,33.17824805,-99.73029401,31.666666666666668,wmoUnit:degC,42,2,16093.44,wmoUnit:m,,,,,,
Somervell,32.22229511,-97.77456553,28.88888888888889,wmoUnit:degC,65,14,16093.44,wmoUnit:m,SV,A,Severe Thunderstorm Watch,Severe,Future,2025-06-01T22:00:00-05:00
Bexar,29.44884523,-98.51966309,31.666666666666668,wmoUnit:degC,63,0,16093.44,wmoUnit:m,,,,,,
Grayson,33.62684371,-96.67764864,20.555555555555557,wmoUnit:degC,87,24,16093.44,wmoUnit:m,,,,,,
Bailey,34.0684915,-102.8299069,31.666666666666668,wmoUnit:degC,27,2,16093.44,wmoUnit:m,,,,,,
Jones,32.73970429,-99.87850599,33.333333333333336,wmoUnit:degC,40,2,16093.44,wmoUnit:m,,,,,,
Jefferson,29.88425832,-94.1708778,26.11111111111111,wmoUnit:degC,79,5,13550.67660278313,wmoUnit:m,,,,,,
Rusk,32.10803224,-94.76169577,28.333333333333332,wmoUnit:degC,49,26,16093.44,wmoUnit:m,,,,,,
Glasscock,31.8694238,-101.520742,31.11111111111111,wmoUnit:degC,39,0,16093.44,wmoUnit:m,,,,,,
Gillespie,30.31800246,-98.94627245,30.0,wmoUnit:degC,58,0,16093.44,wmoUnit:m,,,,,,
Fisher,32.74305155,-100.4019503,33.888888888888886,wmoUnit:degC,35,2,16093.44,wmoUnit:m,,,,,,
Henderson,32.21188078,-95.85356847,26.666666666666668,wmoUnit:degC,62,23,16093.44,wmoUnit:m,OzoneActionDay,,,,,
Shackelford,32.7360276,-99.35403034,31.11111111111111,wmoUnit:degC,54,2,16093.44,wmoUnit:m,,,,,,
Palo Pinto,32.75316856,-98.31299522,27.22222222222222,wmoUnit:degC,69,10,16093.44,wmoUnit:m,SV,A,Severe Thunderstorm Watch,Severe,Future,2025-06-01T22:00:00-05:00
Wilbarger,34.08044953,-99.24089568,20.555555555555557,wmoUnit:degC,90,16,,,,,,,,
Floyd,34.07239775,-101.3033037,30.555555555555557,wmoUnit:degC,43,2,16093.44,wmoUnit:m,,,,,,
Orange,30.12807126,-93.89653794,25.555555555555557,wmoUnit:degC,82,5,14017.386301391645,wmoUnit:m,,,Flood Warning,Severe,Immediate,2025-06-02T10:00:00-05:00
Runnels,31.83105393,-99.97624799,31.11111111111111,wmoUnit:degC,54,1,16093.44,wmoUnit:m,,,,,,
Coleman,31.77329421,-99.45362579,30.555555555555557,wmoUnit:degC,55,1,16093.44,wmoUnit:m,,,,,,
Martin,32.30605847,-101.9512464,32.22222222222222,wmoUnit:degC,33,0,16093.44,wmoUnit:m,,,,,,
Wheeler,35.40129002,-100.2697634,25.0,wmoUnit:degC,62,2,,,,,,,,
Culberson,31.44709817,-104.5177421,28.333333333333332,wmoUnit:degC,26,0,16093.44,wmoUnit:m,,,,,,
Mitchell,32.30636024,-100.9211128,32.77777777777778,wmoUnit:degC,36,0,16093.44,wmoUnit:m,,,,,,
Hudspeth,31.45613738,-105.3869428,28.333333333333332,wmoUnit:degC,34,0,15884.225095825224,wmoUnit:m,,,,,,
Upshur,32.7362827,-94.94132011,22.22222222222222,wmoUnit:degC,84,34,16093.44,wmoUnit:m,,,,,,
Liberty,30.15153187,-94.8120925,25.555555555555557,wmoUnit:degC,85,2,15015.179397216869,wmoUnit:m,SV,A,Severe Thunderstorm Watch,Severe,Future,2025-06-01T22:00:00-05:00
Williamson,30.64834941,-97.60105467,32.77777777777778,wmoUnit:degC,58,0,16093.44,wmoUnit:m,,,,,,
Nacogdoches,31.61604108,-94.6158776,28.88888888888889,wmoUnit:degC,49,16,16093.44,wmoUnit:m,,,Flood Warning,Severe,Immediate,2025-06-02T10:30:00-05:00
Loving,31.84912973,-103.5799063,30.555555555555557,wmoUnit:degC,31,0,16093.44,wmoUnit:m,,,,,,
Jim Wells,27.73131099,-98.0898649,31.666666666666668,wmoUnit:degC,59,1,16093.44,wmoUnit:m,,,,,,
Upton,31.36853957,-102.0430005,30.555555555555557,wmoUnit:degC,40,0,16093.44,wmoUnit:m,,,,,,
Newton,30.78619977,-93.74462993,23.88888888888889,wmoUnit:degC,84,2,15948.59879443358,wmoUnit:m,,,Flood Warning,Severe,Immediate,2025-06-02T10:00:00-05:00
Lamar,33.66746186,-95.57110784,21.666666666666668,wmoUnit:degC,87,17,16093.44,wmoUnit:m,,,,,,
Polk,30.79250963,-94.82994949,24.444444444444443,wmoUnit:degC,79,1,15948.59879443358,wmoUnit:m,SV,A,Severe Thunderstorm Watch,Severe,Future,2025-06-01T22:00:00-05:00
Collin,33.18789055,-96.57248871,21.666666666666668,wmoUnit:degC,81,34,16093.44,wmoUnit:m,OzoneActionDay,,,,,
Hardeman,34.28865227,-99.7453851,19.444444444444443,wmoUnit:degC,97,3,,,,,,,,
McMullen,28.35351091,-98.56842256,32.22222222222222,wmoUnit:degC,56,0,16093.44,wmoUnit:m,,,,,,
Cottle,34.0776571,-100.2786983,29.444444444444443,wmoUnit:degC,53,5,16093.44,wmoUnit:m,,,,,,
Frio,28.86726774,-99.10826004,32.22222222222222,wmoUnit:degC,63,0,16093.44,wmoUnit:m,,,,,,
Gray,35.40130666,-100.812475,23.88888888888889,wmoUnit:degC,69,0,,,,,,,,
Dallam,36.27777107,-102.6021647,25.555555555555557,wmoUnit:degC,47,0,,,,,,,,
Kenedy,26.92409448,-97.68137783,32.22222222222222,wmoUnit:degC,66,6,,,,,,,,
Fort Bend,29.52763253,-95.77090562,26.666666666666668,wmoUnit:degC,85,1,15707.197808349552,wmoUnit:m,SV,A,Severe Thunderstorm Watch,Severe,Future,2025-06-01T22:00:00-05:00
Armstrong,34.96522076,-101.3572412,24.444444444444443,wmoUnit:degC,64,1,,,,,,,,
Collingsworth,34.96498493,-100.2700733,25.555555555555557,wmoUnit:degC,60,3,,,,,,,,
Cass,33.07750446,-94.34348771,25.0,wmoUnit:degC,64,19,16093.44,wmoUnit:m,,,,,,
Sherman,36.27765824,-101.8933822,25.555555555555557,wmoUnit:degC,45,0,,,,,,,,
Terry,33.17373729,-102.335157,33.333333333333336,wmoUnit:degC,25,2,16093.44,wmoUnit:m,,,,,,
Limestone,31.54541898,-96.58056718,27.22222222222222,wmoUnit:degC,67,12,16093.44,wmoUnit:m,SV,A,Severe Thunderstorm Watch,Severe,Future,2025-06-01T22:00:00-05:00
Real,29.83182711,-99.82215881,30.0,wmoUnit:degC,49,0,16093.44,wmoUnit:m,,,,,,
Lynn,33.17685487,-101.8160235,33.888888888888886,wmoUnit:degC,30,1,16093.44,wmoUnit:m,,,,,,
Lavaca,29.38437003,-96.93020993,30.555555555555557,wmoUnit:degC,70,3,16093.44,wmoUnit:m,,,,,,
Nolan,32.3034718,-100.4060989,32.22222222222222,wmoUnit:degC,39,1,16093.44,wmoUnit:m,,,,,,
Gaines,32.74074537,-102.6351246,31.11111111111111,wmoUnit:degC,30,0,16093.44,wmoUnit:m,,,,,,
Montgomery,30.30022409,-95.50301411,25.0,wmoUnit:degC,94,2,15562.35660278313,wmoUnit:m,SV,A,Severe Thunderstorm Watch,Severe,Future,2025-06-01T22:00:00-05:00
Concho,31.32645211,-99.86413426,30.555555555555557,wmoUnit:degC,52,1,16093.44,wmoUnit:m,,,,,,
Hardin,30.33238431,-94.39021394,24.444444444444443,wmoUnit:degC,87,4,14162.227506958066,wmoUnit:m,,,,,,
Harris,29.85967144,-95.39782106,26.666666666666668,wmoUnit:degC,88,2,14902.525808349552,wmoUnit:m,SV,A,Severe Thunderstorm Watch,Severe,Future,2025-06-01T22:00:00-05:00
Leon,31.29655719,-95.99554292,27.22222222222222,wmoUnit:degC,74,10,16093.44,wmoUnit:m,SV,A,Severe Thunderstorm Watch,Severe,Future,2025-06-01T22:00:00-05:00
Bowie,33.44572786,-94.42324298,23.88888888888889,wmoUnit:degC,74,20,16093.44,wmoUnit:m,,,,,,
Kaufman,32.59927808,-96.28779341,25.0,wmoUnit:degC,71,30,16093.44,wmoUnit:m,OzoneActionDay,,,,,
Anderson,31.81321543,-95.65251774,25.555555555555557,wmoUnit:degC,67,15,16093.44,wmoUnit:m,,,Flood Warning,Severe,Immediate,2025-06-02T10:45:00-05:00
San Saba,31.15520543,-98.81754295,31.11111111111111,wmoUnit:degC,55,1,16093.44,wmoUnit:m,,,,,,
Schleicher,30.89661056,-100.538097,31.11111111111111,wmoUnit:degC,41,0,16093.44,wmoUnit:m,,,,,,
Colorado,29.6208542,-96.52630821,26.11111111111111,wmoUnit:degC,88,1,15578.450411132842,wmoUnit:m,,,,,,
Milam,30.78625299,-96.97683495,29.444444444444443,wmoUnit:degC,75,9,16093.44,wmoUnit:m,SV,A,Severe Thunderstorm Watch,Severe,Future,2025-06-01T22:00:00-05:00
Live Oak,28.3514375,-98.12474493,32.22222222222222,wmoUnit:degC,56,0,16093.44,wmoUnit:m,,,,,,
Borden,32.7436916,-101.4317533,31.11111111111111,wmoUnit:degC,36,0,16093.44,wmoUnit:m,,,,,,
McCulloch,31.19896752,-99.34754972,31.11111111111111,wmoUnit:degC,47,1,16093.44,wmoUnit:m,,,,,,
Johnson,32.37899918,-97.36660504,27.22222222222222,wmoUnit:degC,72,17,16093.44,wmoUnit:m,OzoneActionDay,,Severe Thunderstorm Warning,Severe,Immediate,2025-06-01T19:45:00-05:00
Montague,33.67496328,-97.72466993,24.444444444444443,wmoUnit:degC,74,15,16093.44,wmoUnit:m,,,,,,
Stonewall,33.17842158,-100.255259,33.333333333333336,wmoUnit:degC,34,3,16093.44,wmoUnit:m,,,,,,
Comal,29.80816362,-98.27814516,31.11111111111111,wmoUnit:degC,65,0,16093.44,wmoUnit:m,,,,,,
Eastland,32.32739258,-98.8325713,28.88888888888889,wmoUnit:degC,61,4,16093.44,wmoUnit:m,SV,A,Severe Thunderstorm Watch,Severe,Future,2025-06-01T22:00:00-05:00
Comanche,31.9490639,-98.55841538,29.444444444444443,wmoUnit:degC,61,7,16093.44,wmoUnit:m,SV,A,Severe Thunderstorm Watch,Severe,Future,2025-06-01T22:00:00-05:00
King,33.61641863,-100.2558584,31.11111111111111,wmoUnit:degC,52,4,16093.44,wmoUnit:m,,,,,,
Washington,30.2145299,-96.40356575,25.555555555555557,wmoUnit:degC,88,0,15803.757588867158,wmoUnit:m,SV,A,Severe Thunderstorm Watch,Severe,Future,2025-06-01T22:00:00-05:00
Webb,27.76102524,-99.33170164,31.666666666666668,wmoUnit:degC,56,0,15288.768,wmoUnit:m,,,,,,
Fayette,29.87683207,-96.91968047,31.11111111111111,wmoUnit:degC,61,3,16093.44,wmoUnit:m,,,,,,
Harrison,32.54814898,-94.37155736,26.11111111111111,wmoUnit:degC,58,20,16093.44,wmoUnit:m,,,,,,
Presidio,29.99977786,-104.2405552,27.77777777777778,wmoUnit:degC,33,1,16093.44,wmoUnit:m,,,,,,
Austin,29.88711223,-96.27791829,26.11111111111111,wmoUnit:degC,88,0,15337.047890258802,wmoUnit:m,SV,A,Severe Thunderstorm Watch,Severe,Future,2025-06-01T22:00:00-05:00
Randall,34.96594288,-101.8968527,25.0,wmoUnit:degC,56,1,,,,,,,,
Hood,32.43107878,-97.83280338,27.77777777777778,wmoUnit:degC,65,14,16093.44,wmoUnit:m,OzoneActionDay,,Severe Thunderstorm Watch,Severe,Future,2025-06-01T22:00:00-05:00
Victoria,28.79640594,-96.97176602,30.555555555555557,wmoUnit:degC,68,1,16045.160109741197,wmoUnit:m,,,,,,
Hutchinson,35.84000866,-101.3547257,26.11111111111111,wmoUnit:degC,50,0,,,,,,,,
Coryell,31.39087578,-97.7991883,29.444444444444443,wmoUnit:degC,72,9,16093.44,wmoUnit:m,SV,A,Severe Thunderstorm Watch,Severe,Future,2025-06-01T22:00:00-05:00
Jackson,28.95603133,-96.57883268,27.22222222222222,wmoUnit:degC,88,4,15691.104,wmoUnit:m,,,,,,
Taylor,32.30138229,-99.89003941,30.555555555555557,wmoUnit:degC,53,1,16093.44,wmoUnit:m,,,,,,
Zapata,27.00089072,-99.16860134,34.44444444444444,wmoUnit:degC,46,2,,,,,,,,
San Patricio,28.00922186,-97.51859857,30.555555555555557,wmoUnit:degC,68,2,14789.870684692381,wmoUnit:m,,,,,,
Grimes,30.54360689,-95.98557334,26.666666666666668,wmoUnit:degC,82,2,15433.609205566421,wmoUnit:m,SV,A,Severe Thunderstorm Watch,Severe,Future,2025-06-01T22:00:00-05:00
Lamb,34.06861242,-102.3517095,30.555555555555557,wmoUnit:degC,32,2,16093.44,wmoUnit:m,,,,,,
