countyName,latitude,longitude,temperature,temperature_unit,relativeHumidity,precipitationProbability,visibility,visibility_unit,hazard_phenomenon,hazard_significance,alert_event,alert_severity,alert_urgency,alert_expires
Foard,33.97408519,-99.77871109,19.444444444444443,wmoUnit:degC,97,64,,,,,,,,
Blanco,30.26636128,-98.39974086,25.555555555555557,wmoUnit:degC,82,6,16093.44,wmoUnit:m,,,,,,
Hockley,33.60750375,-102.3430919,16.11111111111111,wmoUnit:degC,97,8,16093.44,wmoUnit:m,,,,,,
Llano,30.70566579,-98.68387398,26.666666666666668,wmoUnit:degC,77,8,16093.44,wmoUnit:m,,,,,,
Swisher,34.53064989,-101.734951,14.444444444444445,wmoUnit:degC,100,33,16093.44,wmoUnit:m,,,,,,
Titus,33.2160906,-94.96509786,21.11111111111111,wmoUnit:degC,100,80,9656.064,wmoUnit:m,FA,A,Flood Warning,Severe,Immediate,2025-05-27T09:45:00-05:00
Navarro,32.04695429,-96.47248134,26.666666666666668,wmoUnit:degC,79,3,16093.44,wmoUnit:m,FA,A,Flood Warning,Severe,Expected,2025-05-27T03:00:00-05:00
Brazoria,29.19345387,-95.45578479,27.22222222222222,wmoUnit:degC,88,0,15095.646904174775,wmoUnit:m,,,Rip Current Statement,Moderate,Expected,2025-05-26T17:45:00-05:00
Hidalgo,26.396627,-98.18088681,26.11111111111111,wmoUnit:degC,87,0,,,,,Special Weather Statement,Moderate,Expected,2025-05-26T19:00:00-05:00
Archer,33.61539176,-98.68783437,20.555555555555557,wmoUnit:degC,93,81,,,,,,,,
Refugio,28.32681413,-97.16546961,26.666666666666668,wmoUnit:degC,88,1,12279.294904174776,wmoUnit:m,,,,,,
Andrews,32.30506283,-102.6378839,17.22222222222222,wmoUnit:degC,90,0,16093.44,wmoUnit:m,,,,,,
Galveston,29.39424415,-94.96474975,26.666666666666668,wmoUnit:degC,91,0,15980.786411132844,wmoUnit:m,,,Rip Current Statement,Moderate,Expected,2025-05-26T17:45:00-05:00
De Witt,29.08201599,-97.35666976,27.22222222222222,wmoUnit:degC,82,1,16093.44,wmoUnit:m,,,,,,
Gonzales,29.45641495,-97.49279927,27.77777777777778,wmoUnit:degC,82,1,16093.44,wmoUnit:m,,,,,,
Wharton,29.2778362,-96.22197375,26.666666666666668,wmoUnit:degC,88,0,12923.031890258802,wmoUnit:m,,,,,,
Fannin,33.59396919,-96.10656755,25.0,wmoUnit:degC,85,48,11265.408,wmoUnit:m,FA,A,Flood Watch,Severe,Future,2025-05-26T13:00:00-05:00
Madison,30.96564645,-95.92818441,26.11111111111111,wmoUnit:degC,88,2,15948.59879443358,wmoUnit:m,,,,,,
Moore,35.83768863,-101.8929556,14.444444444444445,wmoUnit:degC,93,39,,,,,,,,
Tyler,30.7712607,-94.37651432,24.444444444444443,wmoUnit:degC,94,8,13824.265205566422,wmoUnit:m,,,,,,
Lipscomb,36.27778432,-100.27317,17.77777777777778,wmoUnit:degC,84,63,,,,,,,,
Burleson,30.49246139,-96.62109399,27.22222222222222,wmoUnit:degC,85,3,15916.412712524489,wmoUnit:m,,,Special Weather Statement,Moderate,Expected,2025-05-26T12:30:00-05:00
Jim Hogg,27.04340499,-98.6972921,25.0,wmoUnit:degC,89,0,,,,,Special Weather Statement,Moderate,Expected,2025-05-26T19:00:00-05:00
Throckmorton,33.17753907,-99.21236832,19.444444444444443,wmoUnit:degC,93,54,16093.44,wmoUnit:m,,,,,,
Kleberg,27.43274395,-97.72889778,26.666666666666668,wmoUnit:degC,82,1,15658.916383300735,wmoUnit:m,,,,,,
Shelby,31.79242191,-94.14495261,22.22222222222222,wmoUnit:degC,97,49,16093.44,wmoUnit:m,FA,A,Flood Watch,Severe,Future,2025-05-27T07:00:00-05:00
Garza,33.17991074,-101.2984496,17.77777777777778,wmoUnit:degC,93,12,16093.44,wmoUnit:m,,,,,,
Karnes,28.90493782,-97.85960621,27.77777777777778,wmoUnit:degC,77,1,16093.44,wmoUnit:m,,,,,,
Reeves,31.32307061,-103.693143,17.77777777777778,wmoUnit:degC,31,0,16093.44,wmoUnit:m,,,,,,
Houston,31.31764137,-95.42225367,24.444444444444443,wmoUnit:degC,97,3,16012.972493041932,wmoUnit:m,,,,,,
El Paso,31.7686226,-106.2352229,17.77777777777778,wmoUnit:degC,12,0,16093.44,wmoUnit:m,,,,,,
Carson,35.40346802,-101.3542037,15.555555555555555,wmoUnit:degC,93,41,,,,,,,,
Medina,29.35520493,-99.11008331,27.22222222222222,wmoUnit:degC,79,53,16093.44,wmoUnit:m,,,,,,
Wichita,33.98421585,-98.70153389,19.444444444444443,wmoUnit:degC,97,76,,,,,,,,
Chambers,29.73912276,-94.60891308,26.666666666666668,wmoUnit:degC,88,0,15900.318904174776,wmoUnit:m,,,,,,
Donley,34.96540246,-100.8140501,15.0,wmoUnit:degC,100,43,,,,,,,,
Hopkins,33.14933822,-95.56414173,25.555555555555557,wmoUnit:degC,79,42,16093.44,wmoUnit:m,FA,A,Flood Watch,Severe,Future,2025-05-26T13:00:00-05:00
Lampasas,31.19627791,-98.24142711,27.22222222222222,wmoUnit:degC,77,1,16093.44,wmoUnit:m,,,,,,
Falls,31.25317017,-96.93579511,26.666666666666668,wmoUnit:degC,79,0,16093.44,wmoUnit:m,FA,A,Flood Watch,Severe,Future,2025-05-26T13:00:00-05:00
Stephens,32.73584155,-98.83612016,24.444444444444443,wmoUnit:degC,76,60,7934.065643737756,wmoUnit:m,SV,A,,,,
Travis,30.33423319,-97.78194654,28.333333333333332,wmoUnit:degC,74,4,16093.44,wmoUnit:m,,,,,,
Roberts,35.8385577,-100.8135689,17.22222222222222,wmoUnit:degC,90,36,,,,,,,,
Crosby,33.61459873,-101.2998612,16.11111111111111,wmoUnit:degC,100,12,16093.44,wmoUnit:m,,,,,,
Kerr,30.06153035,-99.35016969,25.555555555555557,wmoUnit:degC,82,11,16093.44,wmoUnit:m,,,,,,
Wood,32.78634374,-95.38206498,22.22222222222222,wmoUnit:degC,93,80,9656.064,wmoUnit:m,FA,A,Flood Warning,Severe,Expected,2025-05-27T09:30:00-05:00
Jack,33.23345819,-98.1725509,22.77777777777778,wmoUnit:degC,87,64,9656.064,wmoUnit:m,,,,,,
Marion,32.79797929,-94.35725239,21.666666666666668,wmoUnit:degC,100,80,9656.064,wmoUnit:m,FA,A,Flood Warning,Severe,Expected,2025-05-27T09:45:00-05:00
Hale,34.07051782,-101.8269082,15.0,wmoUnit:degC,100,17,16093.44,wmoUnit:m,,,,,,
Jeff Davis,30.71559322,-104.1403539,14.444444444444445,wmoUnit:degC,13,0,16093.44,wmoUnit:m,,,,,,
Tarrant,32.77185236,-97.29116473,27.77777777777778,wmoUnit:degC,65,34,16093.44,wmoUnit:m,FA,A,Flood Watch,Severe,Future,2025-05-26T13:00:00-05:00
Waller,30.01093722,-95.98768942,27.22222222222222,wmoUnit:degC,85,0,15562.35660278313,wmoUnit:m,,,Special Weather Statement,Moderate,Expected,2025-05-26T12:30:00-05:00
Reagan,31.36617698,-101.5230108,20.555555555555557,wmoUnit:degC,84,2,16093.44,wmoUnit:m,,,,,,
Smith,32.37514553,-95.26909511,23.333333333333332,wmoUnit:degC,87,77,9656.064,wmoUnit:m,FA,A,Flood Warning,Severe,Expected,2025-05-27T09:30:00-05:00
Van Zandt,32.56368961,-95.8364862,25.555555555555557,wmoUnit:degC,79,19,16093.44,wmoUnit:m,FA,A,Flood Watch,Severe,Future,2025-05-26T13:00:00-05:00
Cooke,33.638465,-97.21247642,24.444444444444443,wmoUnit:degC,85,62,9656.064,wmoUnit:m,FA,A,Flood Watch,Severe,Future,2025-05-26T13:00:00-05:00
Zavala,28.86530621,-99.76102001,28.333333333333332,wmoUnit:degC,77,15,16093.44,wmoUnit:m,,,,,,
Hall,34.53074134,-100.6809876,17.22222222222222,wmoUnit:degC,100,34,16093.44,wmoUnit:m,,,,,,
Kendall,29.9446397,-98.71160511,25.555555555555557,wmoUnit:degC,88,15,16093.44,wmoUnit:m,,,,,,
Goliad,28.65708563,-97.42646082,25.555555555555557,wmoUnit:degC,91,1,15401.421588867157,wmoUnit:m,,,,,,
Yoakum,33.17293501,-102.8278792,15.555555555555555,wmoUnit:degC,100,3,16093.44,wmoUnit:m,,,,,,
Knox,33.60614755,-99.74144313,19.444444444444443,wmoUnit:degC,97,64,,,,,,,,
McLennan,31.55234489,-97.20184883,28.333333333333332,wmoUnit:degC,74,0,16093.44,wmoUnit:m,FA,A,Flood Watch,Severe,Future,2025-05-26T13:00:00-05:00
Brewster,29.81205836,-103.2518906,20.0,wmoUnit:degC,40,0,16093.44,wmoUnit:m,,,,,,
Panola,32.16222886,-94.30552858,22.77777777777778,wmoUnit:degC,97,68,9656.064,wmoUnit:m,FA,A,Flood Watch,Severe,Future,2025-05-27T07:00:00-05:00
Bandera,29.74724753,-99.24637282,25.0,wmoUnit:degC,88,46,16093.44,wmoUnit:m,,,,,,
Parmer,34.53014507,-102.784594,13.333333333333334,wmoUnit:degC,100,23,14468.002191650448,wmoUnit:m,,,,,,
Rockwall,32.89786769,-96.40780584,25.555555555555557,wmoUnit:degC,85,28,16093.44,wmoUnit:m,FA,A,Flood Warning,Severe,Expected,2025-05-27T02:00:00-05:00
Trinity,31.0885069,-95.13551682,26.11111111111111,wmoUnit:degC,85,4,15964.69260278313,wmoUnit:m,,,,,,
Bosque,31.90050476,-97.63437613,26.666666666666668,wmoUnit:degC,72,4,16093.44,wmoUnit:m,FA,A,Flood Watch,Severe,Future,2025-05-26T13:00:00-05:00
Coke,31.88849293,-100.5298747,21.11111111111111,wmoUnit:degC,81,21,16093.44,wmoUnit:m,,,,,,
Franklin,33.17550691,-95.21841437,21.666666666666668,wmoUnit:degC,97,80,9656.064,wmoUnit:m,FA,A,Flood Warning,Severe,Immediate,2025-05-27T09:45:00-05:00
Hill,31.99079033,-97.1324142,26.11111111111111,wmoUnit:degC,77,3,16093.44,wmoUnit:m,FA,A,Flood Watch,Severe,Future,2025-05-26T13:00:00-05:00
Calhoun,28.48966896,-96.64708119,27.77777777777778,wmoUnit:degC,91,2,15691.104,wmoUnit:m,,,,,,
Irion,31.30393203,-100.9824126,23.333333333333332,wmoUnit:degC,57,16,16093.44,wmoUnit:m,,,,,,
Midland,31.86921148,-102.0315032,19.444444444444443,wmoUnit:degC,87,0,16093.44,wmoUnit:m,,,,,,
Brown,31.77432313,-98.99989649,23.88888888888889,wmoUnit:degC,79,40,16093.44,wmoUnit:m,,,,,,
Wilson,29.17315896,-98.08621015,27.22222222222222,wmoUnit:degC,79,11,16093.44,wmoUnit:m,,,,,,
Oldham,35.40497586,-102.6029949,13.88888888888889,wmoUnit:degC,100,40,,,,,,,,
Freestone,31.70486443,-96.14918535,25.555555555555557,wmoUnit:degC,82,1,16093.44,wmoUnit:m,FA,A,Flood Watch,Severe,Future,2025-05-26T13:00:00-05:00
Sabine,31.34321941,-93.85170439,23.333333333333332,wmoUnit:degC,100,30,11265.408,wmoUnit:m,FA,A,Flood Watch,Severe,Future,2025-05-27T07:00:00-05:00
Deaf Smith,34.96602014,-102.6048162,13.333333333333334,wmoUnit:degC,100,39,,,,,,,,
Angelina,31.25475875,-94.611742,24.444444444444443,wmoUnit:degC,94,29,16093.44,wmoUnit:m,FA,A,Flood Watch,Severe,Future,2025-05-27T07:00:00-05:00
Kent,33.18284492,-100.7791031,17.77777777777778,wmoUnit:degC,97,20,16093.44,wmoUnit:m,,,,,,
Red River,33.62074539,-95.0501886,20.555555555555557,wmoUnit:degC,100,80,7885.785753478953,wmoUnit:m,FA,A,Flood Warning,Severe,Immediate,2025-05-27T09:45:00-05:00
Kinney,29.35000302,-100.4178441,26.666666666666668,wmoUnit:degC,77,9,16093.44,wmoUnit:m,,,,,,
Denton,33.205574,-97.11681154,27.77777777777778,wmoUnit:degC,65,50,16093.44,wmoUnit:m,FA,A,Flood Warning,Severe,Immediate,2025-05-27T03:00:00-05:00
Sutton,30.49747152,-100.5382263,23.333333333333332,wmoUnit:degC,74,15,16093.44,wmoUnit:m,,,,,,
Guadalupe,29.58257236,-97.94850308,26.666666666666668,wmoUnit:degC,85,12,16093.44,wmoUnit:m,,,,,,
Winkler,31.85008609,-103.0484794,17.77777777777778,wmoUnit:degC,75,0,16093.44,wmoUnit:m,,,,,,
Dimmit,28.42161168,-99.760574,28.88888888888889,wmoUnit:degC,70,5,16093.44,wmoUnit:m,,,,,,
Wise,33.21585061,-97.65444124,25.0,wmoUnit:degC,71,57,9656.064,wmoUnit:m,,,,,,
Hemphill,35.83750155,-100.2704628,19.444444444444443,wmoUnit:degC,70,55,,,,,,,,
Potter,35.40128927,-101.8940484,15.0,wmoUnit:degC,100,37,,,,,,,,
Childress,34.52929257,-100.2075664,17.22222222222222,wmoUnit:degC,100,37,16093.44,wmoUnit:m,,,,,,
Willacy,26.47132899,-97.64303323,26.11111111111111,wmoUnit:degC,93,1,,,,,Special Weather Statement,Moderate,Expected,2025-05-26T19:00:00-05:00
Bastrop,30.10353518,-97.31187705,27.22222222222222,wmoUnit:degC,82,2,16093.44,wmoUnit:m,,,,,,
Kimble,30.48676251,-99.74892716,24.444444444444443,wmoUnit:degC,76,18,16093.44,wmoUnit:m,,,,,,
Scurry,32.74720063,-100.9165071,17.22222222222222,wmoUnit:degC,100,11,11265.408,wmoUnit:m,,,,,,
Ochiltree,36.27846334,-100.815653,16.666666666666668,wmoUnit:degC,90,38,,,,,,,,
Hansford,36.27753179,-101.3545624,15.0,wmoUnit:degC,96,37,,,,,,,,
Hartley,35.83996755,-102.6028835,13.333333333333334,wmoUnit:degC,96,54,,,,,,,,
Cameron,26.13847728,-97.51499968,26.666666666666668,wmoUnit:degC,88,1,,,,,Special Weather Statement,Moderate,Expected,2025-05-26T19:00:00-05:00
Matagorda,28.86711039,-95.98533866,27.22222222222222,wmoUnit:degC,88,0,15755.477698608354,wmoUnit:m,,,Rip Current Statement,Moderate,Expected,2025-05-26T17:45:00-05:00
Burnet,30.78843382,-98.18252382,25.555555555555557,wmoUnit:degC,82,8,16093.44,wmoUnit:m,,,,,,
Rains,32.87004212,-95.79347545,25.555555555555557,wmoUnit:degC,79,33,16093.44,wmoUnit:m,FA,A,Flood Watch,Severe,Future,2025-05-26T13:00:00-05:00
Hays,30.05782657,-98.03104087,26.11111111111111,wmoUnit:degC,85,4,16093.44,wmoUnit:m,,,,,,
Mason,30.71742293,-99.2263026,24.444444444444443,wmoUnit:degC,79,20,16093.44,wmoUnit:m,,,,,,
Ward,31.509424,-103.1024636,18.333333333333332,wmoUnit:degC,48,0,16093.44,wmoUnit:m,,,,,,
Delta,33.38623601,-95.67221685,25.0,wmoUnit:degC,85,44,11265.408,wmoUnit:m,FA,A,Flood Watch,Severe,Future,2025-05-26T13:00:00-05:00
Nueces,27.72621549,-97.61767326,26.666666666666668,wmoUnit:degC,88,1,15932.504986084026,wmoUnit:m,,,,,,
Callahan,32.2977738,-99.37359692,19.444444444444443,wmoUnit:degC,84,44,16093.44,wmoUnit:m,,,,,,
Bell,31.03778267,-97.47790776,27.22222222222222,wmoUnit:degC,77,0,16093.44,wmoUnit:m,FA,A,Flood Watch,Severe,Future,2025-05-26T13:00:00-05:00
Cherokee,31.83695632,-95.16515234,23.333333333333332,wmoUnit:degC,93,58,9656.064,wmoUnit:m,FA,A,Flood Warning,Severe,Expected,2025-05-27T09:30:00-05:00
Ellis,32.34839264,-96.79467417,26.666666666666668,wmoUnit:degC,82,10,16093.44,wmoUnit:m,FA,A,Flood Watch,Severe,Future,2025-05-26T13:00:00-05:00
Lubbock,33.6101944,-101.8205745,16.11111111111111,wmoUnit:degC,100,9,16093.44,wmoUnit:m,,,,,,
Terrell,30.22502597,-102.0764533,22.77777777777778,wmoUnit:degC,79,0,16093.44,wmoUnit:m,,,,,,
Crockett,30.72291931,-101.4118364,25.0,wmoUnit:degC,67,12,16093.44,wmoUnit:m,,,,,,
Atascosa,28.89418432,-98.52741302,27.22222222222222,wmoUnit:degC,79,11,16093.44,wmoUnit:m,,,,,,
Ector,31.86908156,-102.5430907,19.444444444444443,wmoUnit:degC,78,0,16093.44,wmoUnit:m,,,,,,
Brazos,30.6610425,-96.3022943,26.666666666666668,wmoUnit:degC,85,2,15916.412712524489,wmoUnit:m,,,Special Weather Statement,Moderate,Expected,2025-05-26T12:30:00-05:00
Aransas,28.12709562,-96.99258951,27.77777777777778,wmoUnit:degC,91,1,10702.137753478954,wmoUnit:m,SC,Y,,,,
Dallas,32.76653746,-96.77781862,26.11111111111111,wmoUnit:degC,79,24,16093.44,wmoUnit:m,FA,A,Flood Warning,Severe,Immediate,2025-05-26T22:00:00-05:00
Howard,32.30610232,-101.4355097,18.333333333333332,wmoUnit:degC,93,2,16093.44,wmoUnit:m,,,,,,
Motley,34.07409017,-100.7798961,16.666666666666668,wmoUnit:degC,100,22,16093.44,wmoUnit:m,,,,,,
San Augustine,31.39427005,-94.16809762,22.22222222222222,wmoUnit:degC,100,32,11265.408,wmoUnit:m,FA,A,Flood Watch,Severe,Future,2025-05-27T07:00:00-05:00
Maverick,28.74260943,-100.3144638,30.0,wmoUnit:degC,63,10,16093.44,wmoUnit:m,,,,,,
Erath,32.23640361,-98.21722756,25.0,wmoUnit:degC,69,21,16093.44,wmoUnit:m,SV,A,,,,
Dickens,33.61663428,-100.7788138,16.666666666666668,wmoUnit:degC,100,19,16093.44,wmoUnit:m,,,,,,
Caldwell,29.83677935,-97.61983479,27.22222222222222,wmoUnit:degC,85,2,16093.44,wmoUnit:m,,,,,,
Dawson,32.74258137,-101.9476136,15.555555555555555,wmoUnit:degC,100,1,16093.44,wmoUnit:m,,,,,,
Camp,32.97321771,-94.97860185,21.666666666666668,wmoUnit:degC,97,80,6276.441753478953,wmoUnit:m,FA,A,Flood Watch,Severe,Future,2025-05-27T07:00:00-05:00
Duval,27.68133382,-98.50889672,25.555555555555557,wmoUnit:degC,91,1,15626.730301391646,wmoUnit:m,,,,,,
Hunt,33.123531,-96.08550014,25.555555555555557,wmoUnit:degC,88,37,16093.44,wmoUnit:m,FA,A,Flood Warning,Severe,Expected,2025-05-27T02:00:00-05:00
Mills,31.49524259,-98.59552736,26.11111111111111,wmoUnit:degC,69,5,16093.44,wmoUnit:m,,,,,,
Val Verde,29.89300587,-101.15171,25.555555555555557,wmoUnit:degC,67,6,16093.44,wmoUnit:m,,,,,,
Pecos,30.78100044,-102.7235743,20.555555555555557,wmoUnit:degC,57,0,16093.44,wmoUnit:m,,,,,,
Baylor,33.61648147,-99.21351964,18.88888888888889,wmoUnit:degC,100,75,,,,,,,,
Gregg,32.48036452,-94.81723694,22.77777777777778,wmoUnit:degC,93,78,9656.064,wmoUnit:m,FA,A,Flood Warning,Severe,Expected,2025-05-27T09:30:00-05:00
Cochran,33.60410808,-102.8285264,14.444444444444445,wmoUnit:degC,100,7,16093.44,wmoUnit:m,,,,,,
Jasper,30.74391255,-94.02495849,25.0,wmoUnit:degC,90,9,13260.994191650449,wmoUnit:m,,,Special Weather Statement,Moderate,Expected,2025-05-26T13:00:00-05:00
Hamilton,31.70479181,-98.11066654,26.666666666666668,wmoUnit:degC,74,4,16093.44,wmoUnit:m,SV,A,,,,
Castro,34.53000304,-102.2617608,14.444444444444445,wmoUnit:degC,100,28,14468.002191650448,wmoUnit:m,,,,,,
Sterling,31.82786516,-101.0500699,20.555555555555557,wmoUnit:degC,81,12,16093.44,wmoUnit:m,,,,,,
Starr,26.56212627,-98.73834895,25.555555555555557,wmoUnit:degC,86,0,,,,,Special Weather Statement,Moderate,Expected,2025-05-26T19:00:00-05:00
Crane,31.42846287,-102.5156425,21.666666666666668,wmoUnit:degC,68,0,16093.44,wmoUnit:m,,,,,,
Morris,33.11368507,-94.73205137,21.11111111111111,wmoUnit:degC,100,80,6276.441753478953,wmoUnit:m,FA,A,Flood Warning,Severe,Immediate,2025-05-27T09:45:00-05:00
Briscoe,34.53041048,-101.2085769,15.0,wmoUnit:degC,100,33,16093.44,wmoUnit:m,,,,,,
Tom Green,31.4044442,-100.4620678,24.444444444444443,wmoUnit:degC,76,22,16093.44,wmoUnit:m,,,,,,
Menard,30.88981785,-99.82061472,23.88888888888889,wmoUnit:degC,79,24,16093.44,wmoUnit:m,,,,,,
Parker,32.77852261,-97.80472194,24.444444444444443,wmoUnit:degC,82,45,16093.44,wmoUnit:m,SV,A,,,,
Walker,30.73899492,-95.57224172,26.666666666666668,wmoUnit:degC,85,2,16029.066301391646,wmoUnit:m,,,,,,
Brooks,27.0315669,-98.21874127,25.555555555555557,wmoUnit:degC,89,0,,,,,Special Weather Statement,Moderate,Expected,2025-05-26T19:00:00-05:00
La Salle,28.34621032,-99.1034773,27.22222222222222,wmoUnit:degC,79,2,16077.34619165045,wmoUnit:m,,,,,,
Edwards,29.98248216,-100.3048937,23.88888888888889,wmoUnit:degC,82,9,16093.44,wmoUnit:m,,,,,,
Lee,30.31065065,-96.96568735,26.666666666666668,wmoUnit:degC,82,2,16093.44,wmoUnit:m,,,,,,
Robertson,31.02705415,-96.51272568,27.22222222222222,wmoUnit:degC,79,2,16093.44,wmoUnit:m,FA,A,Flood Watch,Severe,Future,2025-05-26T13:00:00-05:00
Young,33.17670764,-98.68781396,23.333333333333332,wmoUnit:degC,87,69,9656.064,wmoUnit:m,,,,,,
Bee,28.41736675,-97.74116811,25.555555555555557,wmoUnit:degC,91,1,15353.141698608355,wmoUnit:m,,,,,,
Clay,33.78379717,-98.208958,21.11111111111111,wmoUnit:degC,93,85,,,,,,,,
San Jacinto,30.57948905,-95.16683273,26.11111111111111,wmoUnit:degC,88,2,15948.59879443358,wmoUnit:m,,,,,,
Uvalde,29.35669829,-99.76203107,26.11111111111111,wmoUnit:degC,82,50,16093.44,wmoUnit:m,,,,,,
Haskell,33.17824805,-99.73029401,19.444444444444443,wmoUnit:degC,93,38,16093.44,wmoUnit:m,,,,,,
Somervell,32.22229511,-97.77456553,26.11111111111111,wmoUnit:degC,79,14,16093.44,wmoUnit:m,SV,A,,,,
Bexar,29.44884523,-98.51966309,27.77777777777778,wmoUnit:degC,79,29,16093.44,wmoUnit:m,,,,,,
Grayson,33.62684371,-96.67764864,25.0,wmoUnit:degC,79,56,9656.064,wmoUnit:m,FA,A,Flood Watch,Severe,Future,2025-05-26T13:00:00-05:00
Bailey,34.0684915,-102.8299069,14.444444444444445,wmoUnit:degC,100,12,16093.44,wmoUnit:m,,,,,,
Jones,32.73970429,-99.87850599,18.333333333333332,wmoUnit:degC,97,36,16093.44,wmoUnit:m,,,,,,
Jefferson,29.88425832,-94.1708778,26.11111111111111,wmoUnit:degC,88,4,15771.571506958067,wmoUnit:m,,,Special Weather Statement,Moderate,Expected,2025-05-26T13:00:00-05:00
Rusk,32.10803224,-94.76169577,23.333333333333332,wmoUnit:degC,90,69,9656.064,wmoUnit:m,FA,A,Flood Warning,Severe,Expected,2025-05-27T09:30:00-05:00
Glasscock,31.8694238,-101.520742,18.88888888888889,wmoUnit:degC,93,1,16093.44,wmoUnit:m,,,,,,
Gillespie,30.31800246,-98.94627245,25.0,wmoUnit:degC,85,8,16093.44,wmoUnit:m,,,,,,
Fisher,32.74305155,-100.4019503,18.333333333333332,wmoUnit:degC,93,19,16093.44,wmoUnit:m,,,,,,
Henderson,32.21188078,-95.85356847,26.666666666666668,wmoUnit:degC,74,7,16093.44,wmoUnit:m,FA,A,Flood Warning,Severe,Expected,2025-05-27T03:00:00-05:00
Shackelford,32.7360276,-99.35403034,18.88888888888889,wmoUnit:degC,97,44,16093.44,wmoUnit:m,,,,,,
Palo Pinto,32.75316856,-98.31299522,24.444444444444443,wmoUnit:degC,76,51,16093.44,wmoUnit:m,SV,A,Special Weather Statement,Moderate,Expected,2025-05-26T12:30:00-05:00
Wilbarger,34.08044953,-99.24089568,19.444444444444443,wmoUnit:degC,97,65,,,,,,,,
Floyd,34.07239775,-101.3033037,15.0,wmoUnit:degC,100,18,16093.44,wmoUnit:m,,,,,,
Orange,30.12807126,-93.89653794,26.11111111111111,wmoUnit:degC,88,5,15417.51539721687,wmoUnit:m,,,Special Weather Statement,Moderate,Expected,2025-05-26T13:00:00-05:00
Runnels,31.83105393,-99.97624799,22.22222222222222,wmoUnit:degC,79,32,16093.44,wmoUnit:m,,,,,,
Coleman,31.77329421,-99.45362579,23.333333333333332,wmoUnit:degC,79,35,16093.44,wmoUnit:m,,,,,,
Martin,32.30605847,-101.9512464,18.333333333333332,wmoUnit:degC,90,0,16093.44,wmoUnit:m,,,,,,
Wheeler,35.40129002,-100.2697634,16.11111111111111,wmoUnit:degC,87,65,,,,,,,,
Culberson,31.44709817,-104.5177421,18.333333333333332,wmoUnit:degC,16,0,16093.44,wmoUnit:m,,,,,,
Mitchell,32.30636024,-100.9211128,18.88888888888889,wmoUnit:degC,93,8,16093.44,wmoUnit:m,,,,,,
Hudspeth,31.45613738,-105.3869428,16.666666666666668,wmoUnit:degC,14,0,16093.44,wmoUnit:m,,,,,,
Upshur,32.7362827,-94.94132011,22.22222222222222,wmoUnit:degC,97,80,6276.441753478953,wmoUnit:m,FA,A,Flood Watch,Severe,Future,2025-05-27T07:00:00-05:00
Liberty,30.15153187,-94.8120925,27.22222222222222,wmoUnit:degC,82,1,14757.68460278313,wmoUnit:m,,,,,,
Williamson,30.64834941,-97.60105467,27.22222222222222,wmoUnit:degC,79,6,16093.44,wmoUnit:m,,,,,,
Nacogdoches,31.61604108,-94.6158776,23.333333333333332,wmoUnit:degC,93,43,16093.44,wmoUnit:m,FA,A,Flood Watch,Severe,Future,2025-05-27T07:00:00-05:00
Loving,31.84912973,-103.5799063,17.77777777777778,wmoUnit:degC,63,0,16093.44,wmoUnit:m,,,,,,
Jim Wells,27.73131099,-98.0898649,26.11111111111111,wmoUnit:degC,88,0,15932.504986084026,wmoUnit:m,,,,,,
Upton,31.36853957,-102.0430005,22.22222222222222,wmoUnit:degC,73,0,16093.44,wmoUnit:m,,,,,,
Newton,30.78619977,-93.74462993,24.444444444444443,wmoUnit:degC,94,11,13518.488986084027,wmoUnit:m,,,Special Weather Statement,Moderate,Expected,2025-05-26T13:00:00-05:00
Lamar,33.66746186,-95.57110784,26.11111111111111,wmoUnit:degC,85,50,11265.408,wmoUnit:m,FA,A,Flood Watch,Severe,Future,2025-05-26T13:00:00-05:00
Polk,30.79250963,-94.82994949,26.11111111111111,wmoUnit:degC,85,3,15948.59879443358,wmoUnit:m,,,,,,
Collin,33.18789055,-96.57248871,26.666666666666668,wmoUnit:degC,74,43,16093.44,wmoUnit:m,FA,A,Flood Warning,Severe,Immediate,2025-05-27T03:00:00-05:00
Hardeman,34.28865227,-99.7453851,18.88888888888889,wmoUnit:degC,93,63,,,,,,,,
McMullen,28.35351091,-98.56842256,26.666666666666668,wmoUnit:degC,85,1,15932.504986084026,wmoUnit:m,,,,,,
Cottle,34.0776571,-100.2786983,17.22222222222222,wmoUnit:degC,100,31,16093.44,wmoUnit:m,,,,,,
Frio,28.86726774,-99.10826004,27.77777777777778,wmoUnit:degC,79,14,16093.44,wmoUnit:m,,,,,,
Gray,35.40130666,-100.812475,16.666666666666668,wmoUnit:degC,87,45,,,,,,,,
Dallam,36.27777107,-102.6021647,13.333333333333334,wmoUnit:degC,93,33,,,,,,,,
Kenedy,26.92409448,-97.68137783,25.0,wmoUnit:degC,95,1,,,,,Special Weather Statement,Moderate,Expected,2025-05-26T19:00:00-05:00
Fort Bend,29.52763253,-95.77090562,27.22222222222222,wmoUnit:degC,85,0,13051.779287475512,wmoUnit:m,,,,,,
Armstrong,34.96522076,-101.3572412,14.444444444444445,wmoUnit:degC,100,47,,,,,,,,
Collingsworth,34.96498493,-100.2700733,17.22222222222222,wmoUnit:degC,87,74,,,,,,,,
Cass,33.07750446,-94.34348771,21.11111111111111,wmoUnit:degC,100,80,7934.065643737756,wmoUnit:m,FA,A,Flood Warning,Severe,Expected,2025-05-27T09:45:00-05:00
Sherman,36.27765824,-101.8933822,14.444444444444445,wmoUnit:degC,93,38,,,,,,,,
Terry,33.17373729,-102.335157,16.11111111111111,wmoUnit:degC,100,3,16093.44,wmoUnit:m,,,,,,
Limestone,31.54541898,-96.58056718,26.11111111111111,wmoUnit:degC,79,1,16093.44,wmoUnit:m,FA,A,Flood Watch,Severe,Future,2025-05-26T13:00:00-05:00
Real,29.83182711,-99.82215881,24.444444444444443,wmoUnit:degC,85,18,16093.44,wmoUnit:m,,,,,,
Lynn,33.17685487,-101.8160235,16.666666666666668,wmoUnit:degC,97,5,16093.44,wmoUnit:m,,,,,,
Lavaca,29.38437003,-96.93020993,27.77777777777778,wmoUnit:degC,85,1,16093.44,wmoUnit:m,,,,,,
Nolan,32.3034718,-100.4060989,17.77777777777778,wmoUnit:degC,87,25,16093.44,wmoUnit:m,,,,,,
Gaines,32.74074537,-102.6351246,15.555555555555555,wmoUnit:degC,100,0,16093.44,wmoUnit:m,,,,,,
Montgomery,30.30022409,-95.50301411,26.666666666666668,wmoUnit:degC,88,1,16029.066301391646,wmoUnit:m,,,,,,
Concho,31.32645211,-99.86413426,25.0,wmoUnit:degC,88,26,16093.44,wmoUnit:m,,,,,,
Hardin,30.33238431,-94.39021394,25.0,wmoUnit:degC,90,9,15031.273205566422,wmoUnit:m,,,Special Weather Statement,Moderate,Expected,2025-05-26T13:00:00-05:00
Harris,29.85967144,-95.39782106,27.22222222222222,wmoUnit:degC,85,0,15996.878684692381,wmoUnit:m,,,,,,
Leon,31.29655719,-95.99554292,26.11111111111111,wmoUnit:degC,82,3,16093.44,wmoUnit:m,FA,A,Flood Watch,Severe,Future,2025-05-26T13:00:00-05:00
Bowie,33.44572786,-94.42324298,20.555555555555557,wmoUnit:degC,100,80,9479.0359451294,wmoUnit:m,FA,A,Flood Warning,Severe,Immediate,2025-05-27T09:45:00-05:00
Kaufman,32.59927808,-96.28779341,26.666666666666668,wmoUnit:degC,72,16,16093.44,wmoUnit:m,FA,A,Flood Watch,Severe,Future,2025-05-26T13:00:00-05:00
Anderson,31.81321543,-95.65251774,25.555555555555557,wmoUnit:degC,91,2,16093.44,wmoUnit:m,FA,A,Flood Warning,Severe,Expected,2025-05-27T09:30:00-05:00
San Saba,31.15520543,-98.81754295,25.0,wmoUnit:degC,88,24,16093.44,wmoUnit:m,,,,,,
Schleicher,30.89661056,-100.538097,23.333333333333332,wmoUnit:degC,51,20,16093.44,wmoUnit:m,,,,,,
Colorado,29.6208542,-96.52630821,26.666666666666668,wmoUnit:degC,91,0,15771.571506958067,wmoUnit:m,,,Special Weather Statement,Moderate,Expected,2025-05-26T12:30:00-05:00
Milam,30.78625299,-96.97683495,27.22222222222222,wmoUnit:degC,74,1,16093.44,wmoUnit:m,FA,A,Flood Watch,Severe,Future,2025-05-26T13:00:00-05:00
Live Oak,28.3514375,-98.12474493,25.555555555555557,wmoUnit:degC,94,0,15803.757588867158,wmoUnit:m,,,,,,
Borden,32.7436916,-101.4317533,16.666666666666668,wmoUnit:degC,100,5,16093.44,wmoUnit:m,,,,,,
McCulloch,31.19896752,-99.34754972,24.444444444444443,wmoUnit:degC,87,26,16093.44,wmoUnit:m,,,,,,
Johnson,32.37899918,-97.36660504,26.11111111111111,wmoUnit:degC,82,15,14451.908383300735,wmoUnit:m,FA,A,Flood Watch,Severe,Future,2025-05-26T13:00:00-05:00
Montague,33.67496328,-97.72466993,22.77777777777778,wmoUnit:degC,97,68,9656.064,wmoUnit:m,FA,A,Flood Watch,Severe,Future,2025-05-26T13:00:00-05:00
Stonewall,33.17842158,-100.255259,17.77777777777778,wmoUnit:degC,100,26,16093.44,wmoUnit:m,,,,,,
Comal,29.80816362,-98.27814516,26.11111111111111,wmoUnit:degC,85,16,16093.44,wmoUnit:m,,,,,,
Eastland,32.32739258,-98.8325713,25.0,wmoUnit:degC,67,39,16093.44,wmoUnit:m,SV,A,,,,
Comanche,31.9490639,-98.55841538,27.77777777777778,wmoUnit:degC,58,15,16093.44,wmoUnit:m,SV,A,,,,
King,33.61641863,-100.2558584,17.77777777777778,wmoUnit:degC,100,27,16093.44,wmoUnit:m,,,,,,
Washington,30.2145299,-96.40356575,26.666666666666668,wmoUnit:degC,88,1,15932.504986084026,wmoUnit:m,,,Special Weather Statement,Moderate,Expected,2025-05-26T12:30:00-05:00
Webb,27.76102524,-99.33170164,26.666666666666668,wmoUnit:degC,85,1,16093.44,wmoUnit:m,,,,,,
Fayette,29.87683207,-96.91968047,27.77777777777778,wmoUnit:degC,82,1,16093.44,wmoUnit:m,,,,,,
Harrison,32.54814898,-94.37155736,22.22222222222222,wmoUnit:degC,97,78,9656.064,wmoUnit:m,FA,A,Flood Watch,Severe,Future,2025-05-27T07:00:00-05:00
Presidio,29.99977786,-104.2405552,18.333333333333332,wmoUnit:degC,11,0,16093.44,wmoUnit:m,,,,,,
Austin,29.88711223,-96.27791829,26.666666666666668,wmoUnit:degC,88,0,15771.571506958067,wmoUnit:m,,,Special Weather Statement,Moderate,Expected,2025-05-26T12:30:00-05:00
Randall,34.96594288,-101.8968527,13.333333333333334,wmoUnit:degC,100,41,,,,,,,,
Hood,32.43107878,-97.83280338,26.11111111111111,wmoUnit:degC,74,24,16093.44,wmoUnit:m,SV,A,,,,
Victoria,28.79640594,-96.97176602,26.11111111111111,wmoUnit:degC,91,1,15723.291616699264,wmoUnit:m,,,,,,
Hutchinson,35.84000866,-101.3547257,15.555555555555555,wmoUnit:degC,100,37,,,,,,,,
Coryell,31.39087578,-97.7991883,27.77777777777778,wmoUnit:degC,79,1,16093.44,wmoUnit:m,FA,A,Flood Watch,Severe,Future,2025-05-26T13:00:00-05:00
Jackson,28.95603133,-96.57883268,27.22222222222222,wmoUnit:degC,88,0,14130.039890258802,wmoUnit:m,,,,,,
Taylor,32.30138229,-99.89003941,18.333333333333332,wmoUnit:degC,90,39,16093.44,wmoUnit:m,,,,,,
Zapata,27.00089072,-99.16860134,25.555555555555557,wmoUnit:degC,84,1,,,,,Special Weather Statement,Moderate,Expected,2025-05-26T19:00:00-05:00
San Patricio,28.00922186,-97.51859857,26.666666666666668,wmoUnit:degC,94,1,15063.459287475513,wmoUnit:m,,,,,,
Grimes,30.54360689,-95.98557334,27.22222222222222,wmoUnit:degC,82,1,16012.972493041932,wmoUnit:m,,,Special Weather Statement,Moderate,Expected,2025-05-26T12:30:00-05:00
Lamb,34.06861242,-102.3517095,15.0,wmoUnit:degC,100,15,16093.44,wmoUnit:m,,,,,,
