countyName,latitude,longitude,temperature,temperature_unit,relativeHumidity,precipitationProbability,visibility,visibility_unit,hazard_phenomenon,hazard_significance,alert_event,alert_severity,alert_urgency,alert_expires
Foard,33.97408519,-99.77871109,32.22222222222222,wmoUnit:degC,52,16,,,FA,A,Severe Thunderstorm Watch,Severe,Future,2025-05-26T03:00:00-05:00
Blanco,30.26636128,-98.39974086,31.11111111111111,wmoUnit:degC,59,7,16093.44,wmoUnit:m,,,,,,
Hockley,33.60750375,-102.3430919,33.333333333333336,wmoUnit:degC,22,27,16093.44,wmoUnit:m,SV,A,Severe Thunderstorm Watch,Severe,Future,2025-05-26T01:00:00-05:00
Llano,30.70566579,-98.68387398,32.77777777777778,wmoUnit:degC,47,3,16093.44,wmoUnit:m,,,,,,
Swisher,34.53064989,-101.734951,30.0,wmoUnit:degC,42,40,16093.44,wmoUnit:m,TO,A,Tornado Watch,Extreme,Future,2025-05-25T23:00:00-05:00
Titus,33.2160906,-94.96509786,33.333333333333336,wmoUnit:degC,60,20,16093.44,wmoUnit:m,FA,A,Flood Warning,Severe,Immediate,2025-05-26T21:30:00-05:00
Navarro,32.04695429,-96.47248134,32.22222222222222,wmoUnit:degC,64,0,16093.44,wmoUnit:m,FA,A,Flood Watch,Severe,Future,2025-05-26T05:30:00-05:00
Brazoria,29.19345387,-95.45578479,32.22222222222222,wmoUnit:degC,60,7,16093.44,wmoUnit:m,,,Rip Current Statement,Moderate,Expected,2025-05-26T16:00:00-05:00
Hidalgo,26.396627,-98.18088681,35.55555555555556,wmoUnit:degC,50,1,,,,,,,,
Archer,33.61539176,-98.68783437,33.333333333333336,wmoUnit:degC,49,7,,,FA,A,Severe Thunderstorm Watch,Severe,Future,2025-05-26T03:00:00-05:00
Refugio,28.32681413,-97.16546961,31.666666666666668,wmoUnit:degC,66,1,13067.873095825224,wmoUnit:m,,,,,,
Andrews,32.30506283,-102.6378839,33.888888888888886,wmoUnit:degC,30,0,16093.44,wmoUnit:m,,,,,,
Galveston,29.39424415,-94.96474975,29.444444444444443,wmoUnit:degC,80,12,16093.44,wmoUnit:m,,,Rip Current Statement,Moderate,Expected,2025-05-26T16:00:00-05:00
De Witt,29.08201599,-97.35666976,33.333333333333336,wmoUnit:degC,60,15,16093.44,wmoUnit:m,,,,,,
Gonzales,29.45641495,-97.49279927,33.333333333333336,wmoUnit:degC,62,16,16093.44,wmoUnit:m,,,,,,
Wharton,29.2778362,-96.22197375,32.77777777777778,wmoUnit:degC,54,9,16093.44,wmoUnit:m,,,,,,
Fannin,33.59396919,-96.10656755,30.555555555555557,wmoUnit:degC,63,9,16093.44,wmoUnit:m,FA,A,Flood Watch,Severe,Future,2025-05-26T05:30:00-05:00
Madison,30.96564645,-95.92818441,32.22222222222222,wmoUnit:degC,66,36,12134.453698608355,wmoUnit:m,,,,,,
Moore,35.83768863,-101.8929556,16.666666666666668,wmoUnit:degC,81,13,,,SV,A,Special Weather Statement,Moderate,Expected,2025-05-25T22:00:00-05:00
Tyler,30.7712607,-94.37651432,32.77777777777778,wmoUnit:degC,56,23,16093.44,wmoUnit:m,,,Flood Warning,Severe,Immediate,2025-05-26T12:00:00-05:00
Lipscomb,36.27778432,-100.27317,25.555555555555557,wmoUnit:degC,60,18,,,SV,A,Severe Thunderstorm Watch,Severe,Future,2025-05-26T01:00:00-05:00
Burleson,30.49246139,-96.62109399,33.333333333333336,wmoUnit:degC,58,31,15996.878684692381,wmoUnit:m,,,,,,
Jim Hogg,27.04340499,-98.6972921,36.111111111111114,wmoUnit:degC,42,2,,,,,,,,
Throckmorton,33.17753907,-99.21236832,32.77777777777778,wmoUnit:degC,50,11,12746.00460278313,wmoUnit:m,TO,A,Severe Thunderstorm Warning,Severe,Immediate,2025-05-25T22:15:00-05:00
Kleberg,27.43274395,-97.72889778,31.666666666666668,wmoUnit:degC,68,1,16093.44,wmoUnit:m,,,,,,
Shelby,31.79242191,-94.14495261,31.666666666666668,wmoUnit:degC,54,20,16093.44,wmoUnit:m,FA,A,Flood Watch,Severe,Future,2025-05-26T13:30:00-05:00
Garza,33.17991074,-101.2984496,33.888888888888886,wmoUnit:degC,32,28,16093.44,wmoUnit:m,TO,A,Tornado Watch,Extreme,Future,2025-05-25T23:00:00-05:00
Karnes,28.90493782,-97.85960621,33.333333333333336,wmoUnit:degC,56,8,16093.44,wmoUnit:m,,,,,,
Reeves,31.32307061,-103.693143,37.77777777777778,wmoUnit:degC,7,0,16093.44,wmoUnit:m,,,,,,
Houston,31.31764137,-95.42225367,31.666666666666668,wmoUnit:degC,77,34,14355.34860278313,wmoUnit:m,,,Flood Warning,Severe,Immediate,2025-05-26T12:00:00-05:00
El Paso,31.7686226,-106.2352229,28.88888888888889,wmoUnit:degC,8,0,16093.44,wmoUnit:m,,,,,,
Carson,35.40346802,-101.3542037,25.0,wmoUnit:degC,56,12,,,SV,A,Special Weather Statement,Moderate,Expected,2025-05-25T22:00:00-05:00
Medina,29.35520493,-99.11008331,32.77777777777778,wmoUnit:degC,54,4,16093.44,wmoUnit:m,,,,,,
Wichita,33.98421585,-98.70153389,32.77777777777778,wmoUnit:degC,47,14,,,FA,A,Severe Thunderstorm Warning,Severe,Immediate,2025-05-25T22:15:00-05:00
Chambers,29.73912276,-94.60891308,30.0,wmoUnit:degC,70,11,16093.44,wmoUnit:m,,,,,,
Donley,34.96540246,-100.8140501,25.555555555555557,wmoUnit:degC,58,12,,,SV,A,Severe Thunderstorm Watch,Severe,Future,2025-05-26T01:00:00-05:00
Hopkins,33.14933822,-95.56414173,32.22222222222222,wmoUnit:degC,54,0,16093.44,wmoUnit:m,FA,A,Flood Watch,Severe,Future,2025-05-26T05:30:00-05:00
Lampasas,31.19627791,-98.24142711,31.666666666666668,wmoUnit:degC,56,0,16093.44,wmoUnit:m,,,,,,
Falls,31.25317017,-96.93579511,33.888888888888886,wmoUnit:degC,54,0,16093.44,wmoUnit:m,,,,,,
Stephens,32.73584155,-98.83612016,32.22222222222222,wmoUnit:degC,49,0,11265.408,wmoUnit:m,,,,,,
Travis,30.33423319,-97.78194654,35.0,wmoUnit:degC,53,13,16093.44,wmoUnit:m,,,,,,
Roberts,35.8385577,-100.8135689,27.22222222222222,wmoUnit:degC,56,8,,,SV,A,Severe Thunderstorm Watch,Severe,Future,2025-05-26T01:00:00-05:00
Crosby,33.61459873,-101.2998612,31.11111111111111,wmoUnit:degC,41,34,16093.44,wmoUnit:m,TO,A,Tornado Watch,Extreme,Future,2025-05-25T23:00:00-05:00
Kerr,30.06153035,-99.35016969,31.11111111111111,wmoUnit:degC,57,3,16093.44,wmoUnit:m,,,,,,
Wood,32.78634374,-95.38206498,33.333333333333336,wmoUnit:degC,60,20,16093.44,wmoUnit:m,FA,A,Flood Watch,Severe,Future,2025-05-26T13:30:00-05:00
Jack,33.23345819,-98.1725509,31.666666666666668,wmoUnit:degC,56,0,16093.44,wmoUnit:m,,,,,,
Marion,32.79797929,-94.35725239,33.333333333333336,wmoUnit:degC,53,20,16093.44,wmoUnit:m,FA,A,Flood Watch,Severe,Future,2025-05-26T13:30:00-05:00
Hale,34.07051782,-101.8269082,32.22222222222222,wmoUnit:degC,32,37,16093.44,wmoUnit:m,TO,A,Tornado Watch,Extreme,Future,2025-05-25T23:00:00-05:00
Jeff Davis,30.71559322,-104.1403539,27.22222222222222,wmoUnit:degC,12,0,16093.44,wmoUnit:m,,,,,,
Tarrant,32.77185236,-97.29116473,33.333333333333336,wmoUnit:degC,47,0,16093.44,wmoUnit:m,FA,A,Flood Watch,Severe,Future,2025-05-26T05:30:00-05:00
Waller,30.01093722,-95.98768942,33.333333333333336,wmoUnit:degC,52,23,16093.44,wmoUnit:m,,,,,,
Reagan,31.36617698,-101.5230108,33.333333333333336,wmoUnit:degC,38,0,16093.44,wmoUnit:m,,,,,,
Smith,32.37514553,-95.26909511,33.333333333333336,wmoUnit:degC,54,20,16093.44,wmoUnit:m,FA,A,Flood Watch,Severe,Future,2025-05-26T13:30:00-05:00
Van Zandt,32.56368961,-95.8364862,31.666666666666668,wmoUnit:degC,61,0,16093.44,wmoUnit:m,FA,A,Flood Watch,Severe,Future,2025-05-26T05:30:00-05:00
Cooke,33.638465,-97.21247642,30.555555555555557,wmoUnit:degC,61,0,16093.44,wmoUnit:m,FA,A,Flood Watch,Severe,Future,2025-05-26T05:30:00-05:00
Zavala,28.86530621,-99.76102001,34.44444444444444,wmoUnit:degC,49,0,16093.44,wmoUnit:m,,,,,,
Hall,34.53074134,-100.6809876,31.666666666666668,wmoUnit:degC,48,42,16093.44,wmoUnit:m,TO,A,Tornado Watch,Extreme,Future,2025-05-25T23:00:00-05:00
Kendall,29.9446397,-98.71160511,31.11111111111111,wmoUnit:degC,63,6,16093.44,wmoUnit:m,,,,,,
Goliad,28.65708563,-97.42646082,31.11111111111111,wmoUnit:degC,63,1,15916.412712524489,wmoUnit:m,,,,,,
Yoakum,33.17293501,-102.8278792,33.333333333333336,wmoUnit:degC,18,15,16093.44,wmoUnit:m,,,,,,
Knox,33.60614755,-99.74144313,33.888888888888886,wmoUnit:degC,44,9,,,FA,A,Severe Thunderstorm Watch,Severe,Future,2025-05-26T03:00:00-05:00
McLennan,31.55234489,-97.20184883,31.11111111111111,wmoUnit:degC,63,0,16093.44,wmoUnit:m,,,,,,
Brewster,29.81205836,-103.2518906,37.22222222222222,wmoUnit:degC,14,0,16093.44,wmoUnit:m,,,,,,
Panola,32.16222886,-94.30552858,32.77777777777778,wmoUnit:degC,52,20,16093.44,wmoUnit:m,FA,A,Flood Watch,Severe,Future,2025-05-26T13:30:00-05:00
Bandera,29.74724753,-99.24637282,31.11111111111111,wmoUnit:degC,57,5,16093.44,wmoUnit:m,,,,,,
Parmer,34.53014507,-102.784594,29.444444444444443,wmoUnit:degC,32,31,16093.44,wmoUnit:m,SV,A,Severe Thunderstorm Watch,Severe,Future,2025-05-26T01:00:00-05:00
Rockwall,32.89786769,-96.40780584,32.77777777777778,wmoUnit:degC,54,0,16093.44,wmoUnit:m,FA,A,Flood Watch,Severe,Future,2025-05-26T05:30:00-05:00
Trinity,31.0885069,-95.13551682,32.77777777777778,wmoUnit:degC,58,39,16012.972493041932,wmoUnit:m,,,Flood Warning,Severe,Immediate,2025-05-26T12:00:00-05:00
Bosque,31.90050476,-97.63437613,32.77777777777778,wmoUnit:degC,50,0,16093.44,wmoUnit:m,,,,,,
Coke,31.88849293,-100.5298747,35.55555555555556,wmoUnit:degC,32,4,16093.44,wmoUnit:m,,,,,,
Franklin,33.17550691,-95.21841437,33.333333333333336,wmoUnit:degC,60,20,16093.44,wmoUnit:m,FA,A,Flood Warning,Severe,Immediate,2025-05-26T21:30:00-05:00
Hill,31.99079033,-97.1324142,31.666666666666668,wmoUnit:degC,54,0,16093.44,wmoUnit:m,FA,A,Flood Watch,Severe,Future,2025-05-26T05:30:00-05:00
Calhoun,28.48966896,-96.64708119,30.555555555555557,wmoUnit:degC,75,1,15980.786411132844,wmoUnit:m,,,,,,
Irion,31.30393203,-100.9824126,35.55555555555556,wmoUnit:degC,35,3,16093.44,wmoUnit:m,,,,,,
Midland,31.86921148,-102.0315032,32.77777777777778,wmoUnit:degC,39,0,16093.44,wmoUnit:m,,,,,,
Brown,31.77432313,-98.99989649,33.333333333333336,wmoUnit:degC,49,2,16093.44,wmoUnit:m,,,,,,
Wilson,29.17315896,-98.08621015,32.77777777777778,wmoUnit:degC,58,10,16093.44,wmoUnit:m,,,,,,
Oldham,35.40497586,-102.6029949,17.22222222222222,wmoUnit:degC,87,19,,,SV,A,Severe Thunderstorm Watch,Severe,Future,2025-05-26T01:00:00-05:00
Freestone,31.70486443,-96.14918535,31.11111111111111,wmoUnit:degC,68,13,16093.44,wmoUnit:m,,,,,,
Sabine,31.34321941,-93.85170439,33.888888888888886,wmoUnit:degC,56,20,16093.44,wmoUnit:m,FA,A,Flood Watch,Severe,Future,2025-05-26T13:30:00-05:00
Deaf Smith,34.96602014,-102.6048162,24.444444444444443,wmoUnit:degC,56,7,,,SV,A,Special Weather Statement,Moderate,Expected,2025-05-25T21:45:00-05:00
Angelina,31.25475875,-94.611742,32.77777777777778,wmoUnit:degC,58,20,16093.44,wmoUnit:m,FA,A,Flood Watch,Severe,Future,2025-05-26T13:30:00-05:00
Kent,33.18284492,-100.7791031,33.888888888888886,wmoUnit:degC,37,29,16093.44,wmoUnit:m,TO,A,Tornado Watch,Extreme,Future,2025-05-25T23:00:00-05:00
Red River,33.62074539,-95.0501886,33.333333333333336,wmoUnit:degC,60,20,16093.44,wmoUnit:m,FA,A,Flood Warning,Severe,Immediate,2025-05-26T21:30:00-05:00
Kinney,29.35000302,-100.4178441,32.77777777777778,wmoUnit:degC,49,0,16093.44,wmoUnit:m,,,Severe Thunderstorm Warning,Severe,Immediate,2025-05-25T22:15:00-05:00
Denton,33.205574,-97.11681154,32.22222222222222,wmoUnit:degC,56,0,16093.44,wmoUnit:m,FA,A,Flood Watch,Severe,Future,2025-05-26T05:30:00-05:00
Sutton,30.49747152,-100.5382263,33.888888888888886,wmoUnit:degC,39,0,16093.44,wmoUnit:m,,,,,,
Guadalupe,29.58257236,-97.94850308,33.333333333333336,wmoUnit:degC,58,14,16093.44,wmoUnit:m,,,,,,
Winkler,31.85008609,-103.0484794,34.44444444444444,wmoUnit:degC,23,0,16093.44,wmoUnit:m,,,,,,
Dimmit,28.42161168,-99.760574,35.55555555555556,wmoUnit:degC,45,0,16093.44,wmoUnit:m,,,,,,
Wise,33.21585061,-97.65444124,31.666666666666668,wmoUnit:degC,50,0,16093.44,wmoUnit:m,,,,,,
Hemphill,35.83750155,-100.2704628,25.555555555555557,wmoUnit:degC,64,6,,,SV,A,Severe Thunderstorm Watch,Severe,Future,2025-05-26T01:00:00-05:00
Potter,35.40128927,-101.8940484,23.88888888888889,wmoUnit:degC,69,16,,,SV,A,Special Weather Statement,Moderate,Expected,2025-05-25T22:00:00-05:00
Childress,34.52929257,-100.2075664,31.666666666666668,wmoUnit:degC,52,42,16093.44,wmoUnit:m,TO,A,Tornado Watch,Extreme,Future,2025-05-25T23:00:00-05:00
Willacy,26.47132899,-97.64303323,34.44444444444444,wmoUnit:degC,58,1,,,,,,,,
Bastrop,30.10353518,-97.31187705,35.0,wmoUnit:degC,53,16,16093.44,wmoUnit:m,,,,,,
Kimble,30.48676251,-99.74892716,34.44444444444444,wmoUnit:degC,40,2,16093.44,wmoUnit:m,,,,,,
Scurry,32.74720063,-100.9165071,32.77777777777778,wmoUnit:degC,41,0,16093.44,wmoUnit:m,,,Severe Thunderstorm Warning,Severe,Immediate,2025-05-25T22:00:00-05:00
Ochiltree,36.27846334,-100.815653,23.333333333333332,wmoUnit:degC,64,8,,,SV,A,Severe Thunderstorm Watch,Severe,Future,2025-05-26T01:00:00-05:00
Hansford,36.27753179,-101.3545624,18.333333333333332,wmoUnit:degC,78,14,,,SV,A,Severe Thunderstorm Watch,Severe,Future,2025-05-26T01:00:00-05:00
Hartley,35.83996755,-102.6028835,17.22222222222222,wmoUnit:degC,72,10,,,SV,A,Special Weather Statement,Moderate,Expected,2025-05-25T22:00:00-05:00
Cameron,26.13847728,-97.51499968,34.44444444444444,wmoUnit:degC,55,0,,,,,,,,
Matagorda,28.86711039,-95.98533866,31.11111111111111,wmoUnit:degC,75,4,16093.44,wmoUnit:m,,,Rip Current Statement,Moderate,Expected,2025-05-26T16:00:00-05:00
Burnet,30.78843382,-98.18252382,31.666666666666668,wmoUnit:degC,54,5,16093.44,wmoUnit:m,,,,,,
Rains,32.87004212,-95.79347545,32.22222222222222,wmoUnit:degC,58,0,16093.44,wmoUnit:m,FA,A,Flood Watch,Severe,Future,2025-05-26T05:30:00-05:00
Hays,30.05782657,-98.03104087,32.77777777777778,wmoUnit:degC,60,11,16093.44,wmoUnit:m,,,,,,
Mason,30.71742293,-99.2263026,33.333333333333336,wmoUnit:degC,41,2,16093.44,wmoUnit:m,,,,,,
Ward,31.509424,-103.1024636,36.111111111111114,wmoUnit:degC,16,0,16093.44,wmoUnit:m,,,,,,
Delta,33.38623601,-95.67221685,31.11111111111111,wmoUnit:degC,59,3,16093.44,wmoUnit:m,FA,A,Flood Watch,Severe,Future,2025-05-26T05:30:00-05:00
Nueces,27.72621549,-97.61767326,31.666666666666668,wmoUnit:degC,68,1,16093.44,wmoUnit:m,,,,,,
Callahan,32.2977738,-99.37359692,32.22222222222222,wmoUnit:degC,50,2,16093.44,wmoUnit:m,TO,A,Tornado Watch,Extreme,Future,2025-05-25T23:00:00-05:00
Bell,31.03778267,-97.47790776,33.888888888888886,wmoUnit:degC,51,0,16093.44,wmoUnit:m,,,,,,
Cherokee,31.83695632,-95.16515234,31.666666666666668,wmoUnit:degC,56,20,16093.44,wmoUnit:m,FA,A,Flood Watch,Severe,Future,2025-05-26T13:30:00-05:00
Ellis,32.34839264,-96.79467417,32.22222222222222,wmoUnit:degC,58,0,16093.44,wmoUnit:m,FA,A,Flood Watch,Severe,Future,2025-05-26T05:30:00-05:00
Lubbock,33.6101944,-101.8205745,33.333333333333336,wmoUnit:degC,29,31,16093.44,wmoUnit:m,TO,A,Tornado Watch,Extreme,Future,2025-05-25T23:00:00-05:00
Terrell,30.22502597,-102.0764533,34.44444444444444,wmoUnit:degC,37,0,16093.44,wmoUnit:m,,,,,,
Crockett,30.72291931,-101.4118364,35.0,wmoUnit:degC,30,0,16093.44,wmoUnit:m,,,,,,
Atascosa,28.89418432,-98.52741302,33.333333333333336,wmoUnit:degC,52,5,16093.44,wmoUnit:m,,,,,,
Ector,31.86908156,-102.5430907,33.888888888888886,wmoUnit:degC,31,0,16093.44,wmoUnit:m,,,,,,
Brazos,30.6610425,-96.3022943,32.22222222222222,wmoUnit:degC,58,31,16045.160109741197,wmoUnit:m,,,,,,
Aransas,28.12709562,-96.99258951,28.333333333333332,wmoUnit:degC,88,1,11683.837808349552,wmoUnit:m,,,,,,
Dallas,32.76653746,-96.77781862,32.77777777777778,wmoUnit:degC,52,0,16093.44,wmoUnit:m,FA,A,Flood Watch,Severe,Future,2025-05-26T05:30:00-05:00
Howard,32.30610232,-101.4355097,40.0,wmoUnit:degC,26,0,16093.44,wmoUnit:m,,,,,,
Motley,34.07409017,-100.7798961,31.666666666666668,wmoUnit:degC,47,40,16093.44,wmoUnit:m,TO,A,Tornado Watch,Extreme,Future,2025-05-25T23:00:00-05:00
San Augustine,31.39427005,-94.16809762,32.22222222222222,wmoUnit:degC,54,20,16093.44,wmoUnit:m,FA,A,Flood Watch,Severe,Future,2025-05-26T13:30:00-05:00
Maverick,28.74260943,-100.3144638,35.55555555555556,wmoUnit:degC,43,0,16093.44,wmoUnit:m,,,,,,
Erath,32.23640361,-98.21722756,32.22222222222222,wmoUnit:degC,45,0,16093.44,wmoUnit:m,,,,,,
Dickens,33.61663428,-100.7788138,32.77777777777778,wmoUnit:degC,40,35,16093.44,wmoUnit:m,TO,A,Tornado Watch,Extreme,Future,2025-05-25T23:00:00-05:00
Caldwell,29.83677935,-97.61983479,33.333333333333336,wmoUnit:degC,60,15,16093.44,wmoUnit:m,,,,,,
Dawson,32.74258137,-101.9476136,32.77777777777778,wmoUnit:degC,39,0,16093.44,wmoUnit:m,,,,,,
Camp,32.97321771,-94.97860185,32.77777777777778,wmoUnit:degC,56,20,16093.44,wmoUnit:m,FA,A,Flood Watch,Severe,Future,2025-05-26T13:30:00-05:00
Duval,27.68133382,-98.50889672,32.22222222222222,wmoUnit:degC,60,1,16077.34619165045,wmoUnit:m,,,,,,
Hunt,33.123531,-96.08550014,32.22222222222222,wmoUnit:degC,62,0,16093.44,wmoUnit:m,FA,A,Flood Watch,Severe,Future,2025-05-26T05:30:00-05:00
Mills,31.49524259,-98.59552736,31.11111111111111,wmoUnit:degC,54,0,16093.44,wmoUnit:m,,,,,,
Val Verde,29.89300587,-101.15171,31.11111111111111,wmoUnit:degC,52,0,16093.44,wmoUnit:m,,,Severe Thunderstorm Warning,Severe,Immediate,2025-05-25T22:15:00-05:00
Pecos,30.78100044,-102.7235743,35.0,wmoUnit:degC,22,0,16093.44,wmoUnit:m,,,,,,
Baylor,33.61648147,-99.21351964,33.333333333333336,wmoUnit:degC,46,11,,,FA,A,Severe Thunderstorm Watch,Severe,Future,2025-05-26T03:00:00-05:00
Gregg,32.48036452,-94.81723694,33.333333333333336,wmoUnit:degC,49,20,16093.44,wmoUnit:m,FA,A,Flood Watch,Severe,Future,2025-05-26T13:30:00-05:00
Cochran,33.60410808,-102.8285264,33.333333333333336,wmoUnit:degC,16,22,16093.44,wmoUnit:m,SV,A,Severe Thunderstorm Watch,Severe,Future,2025-05-26T01:00:00-05:00
Jasper,30.74391255,-94.02495849,33.333333333333336,wmoUnit:degC,53,23,16093.44,wmoUnit:m,,,,,,
Hamilton,31.70479181,-98.11066654,32.22222222222222,wmoUnit:degC,54,0,16093.44,wmoUnit:m,,,,,,
Castro,34.53000304,-102.2617608,30.0,wmoUnit:degC,36,36,16093.44,wmoUnit:m,SV,A,Severe Thunderstorm Watch,Severe,Future,2025-05-26T01:00:00-05:00
Sterling,31.82786516,-101.0500699,35.0,wmoUnit:degC,37,10,16093.44,wmoUnit:m,,,,,,
Starr,26.56212627,-98.73834895,36.111111111111114,wmoUnit:degC,46,0,,,,,,,,
Crane,31.42846287,-102.5156425,35.0,wmoUnit:degC,32,0,16093.44,wmoUnit:m,,,,,,
Morris,33.11368507,-94.73205137,32.77777777777778,wmoUnit:degC,60,20,16093.44,wmoUnit:m,FA,A,Flood Warning,Severe,Immediate,2025-05-26T21:30:00-05:00
Briscoe,34.53041048,-101.2085769,28.88888888888889,wmoUnit:degC,48,42,16093.44,wmoUnit:m,TO,A,Tornado Watch,Extreme,Future,2025-05-25T23:00:00-05:00
Tom Green,31.4044442,-100.4620678,35.55555555555556,wmoUnit:degC,35,1,16093.44,wmoUnit:m,,,,,,
Menard,30.88981785,-99.82061472,33.333333333333336,wmoUnit:degC,43,3,16093.44,wmoUnit:m,,,,,,
Parker,32.77852261,-97.80472194,31.666666666666668,wmoUnit:degC,52,0,16093.44,wmoUnit:m,,,,,,
Walker,30.73899492,-95.57224172,33.333333333333336,wmoUnit:degC,54,42,15626.730301391646,wmoUnit:m,,,,,,
Brooks,27.0315669,-98.21874127,36.666666666666664,wmoUnit:degC,44,2,,,,,,,,
La Salle,28.34621032,-99.1034773,32.77777777777778,wmoUnit:degC,58,1,16093.44,wmoUnit:m,,,,,,
Edwards,29.98248216,-100.3048937,29.444444444444443,wmoUnit:degC,57,0,16093.44,wmoUnit:m,,,Severe Thunderstorm Warning,Severe,Immediate,2025-05-25T22:15:00-05:00
Lee,30.31065065,-96.96568735,32.77777777777778,wmoUnit:degC,56,18,16093.44,wmoUnit:m,,,,,,
Robertson,31.02705415,-96.51272568,31.666666666666668,wmoUnit:degC,64,22,16093.44,wmoUnit:m,,,,,,
Young,33.17670764,-98.68781396,32.77777777777778,wmoUnit:degC,50,0,16093.44,wmoUnit:m,,,,,,
Bee,28.41736675,-97.74116811,31.666666666666668,wmoUnit:degC,61,1,15932.504986084026,wmoUnit:m,,,,,,
Clay,33.78379717,-98.208958,32.77777777777778,wmoUnit:degC,52,7,,,FA,A,Severe Thunderstorm Warning,Severe,Immediate,2025-05-25T22:15:00-05:00
San Jacinto,30.57948905,-95.16683273,32.22222222222222,wmoUnit:degC,62,22,16093.44,wmoUnit:m,,,,,,
Uvalde,29.35669829,-99.76203107,32.22222222222222,wmoUnit:degC,52,2,16093.44,wmoUnit:m,,,,,,
Haskell,33.17824805,-99.73029401,34.44444444444444,wmoUnit:degC,40,11,16093.44,wmoUnit:m,TO,A,Flash Flood Warning,Severe,Immediate,2025-05-26T00:30:00-05:00
Somervell,32.22229511,-97.77456553,33.333333333333336,wmoUnit:degC,46,0,16093.44,wmoUnit:m,,,,,,
Bexar,29.44884523,-98.51966309,33.333333333333336,wmoUnit:degC,60,8,16093.44,wmoUnit:m,,,,,,
Grayson,33.62684371,-96.67764864,30.555555555555557,wmoUnit:degC,59,0,16093.44,wmoUnit:m,FA,A,Flood Watch,Severe,Future,2025-05-26T05:30:00-05:00
Bailey,34.0684915,-102.8299069,31.666666666666668,wmoUnit:degC,22,28,16093.44,wmoUnit:m,SV,A,Flash Flood Warning,Severe,Immediate,2025-05-25T22:00:00-05:00
Jones,32.73970429,-99.87850599,35.0,wmoUnit:degC,35,4,16093.44,wmoUnit:m,TO,A,Severe Thunderstorm Warning,Severe,Immediate,2025-05-25T22:15:00-05:00
Jefferson,29.88425832,-94.1708778,30.555555555555557,wmoUnit:degC,67,10,16093.44,wmoUnit:m,,,,,,
Rusk,32.10803224,-94.76169577,33.888888888888886,wmoUnit:degC,52,20,16093.44,wmoUnit:m,FA,A,Flood Watch,Severe,Future,2025-05-26T13:30:00-05:00
Glasscock,31.8694238,-101.520742,34.44444444444444,wmoUnit:degC,35,0,16093.44,wmoUnit:m,,,,,,
Gillespie,30.31800246,-98.94627245,30.0,wmoUnit:degC,59,3,16093.44,wmoUnit:m,,,,,,
Fisher,32.74305155,-100.4019503,36.111111111111114,wmoUnit:degC,30,9,16093.44,wmoUnit:m,TO,A,Flood Advisory,Minor,Expected,2025-05-26T00:45:00-05:00
Henderson,32.21188078,-95.85356847,32.22222222222222,wmoUnit:degC,58,0,16093.44,wmoUnit:m,FA,A,Flood Watch,Severe,Future,2025-05-26T05:30:00-05:00
Shackelford,32.7360276,-99.35403034,32.77777777777778,wmoUnit:degC,47,5,16093.44,wmoUnit:m,TO,A,Severe Thunderstorm Warning,Severe,Immediate,2025-05-25T22:15:00-05:00
Palo Pinto,32.75316856,-98.31299522,32.22222222222222,wmoUnit:degC,52,0,16093.44,wmoUnit:m,,,,,,
Wilbarger,34.08044953,-99.24089568,33.333333333333336,wmoUnit:degC,47,26,,,FA,A,Severe Thunderstorm Watch,Severe,Future,2025-05-26T03:00:00-05:00
Floyd,34.07239775,-101.3033037,30.555555555555557,wmoUnit:degC,40,40,16093.44,wmoUnit:m,TO,A,Tornado Watch,Extreme,Future,2025-05-25T23:00:00-05:00
Orange,30.12807126,-93.89653794,31.11111111111111,wmoUnit:degC,63,13,16093.44,wmoUnit:m,,,Flood Warning,Severe,Immediate,2025-05-26T21:00:00-05:00
Runnels,31.83105393,-99.97624799,33.888888888888886,wmoUnit:degC,39,3,16093.44,wmoUnit:m,,,,,,
Coleman,31.77329421,-99.45362579,33.333333333333336,wmoUnit:degC,43,3,16093.44,wmoUnit:m,,,,,,
Martin,32.30605847,-101.9512464,33.888888888888886,wmoUnit:degC,37,0,16093.44,wmoUnit:m,,,,,,
Wheeler,35.40129002,-100.2697634,25.555555555555557,wmoUnit:degC,64,10,,,SV,A,Severe Thunderstorm Watch,Severe,Future,2025-05-26T01:00:00-05:00
Culberson,31.44709817,-104.5177421,31.666666666666668,wmoUnit:degC,7,0,16093.44,wmoUnit:m,,,,,,
Mitchell,32.30636024,-100.9211128,37.77777777777778,wmoUnit:degC,32,0,16093.44,wmoUnit:m,,,,,,
Hudspeth,31.45613738,-105.3869428,27.77777777777778,wmoUnit:degC,10,0,16093.44,wmoUnit:m,,,,,,
Upshur,32.7362827,-94.94132011,32.22222222222222,wmoUnit:degC,52,20,16093.44,wmoUnit:m,FA,A,Flood Watch,Severe,Future,2025-05-26T13:30:00-05:00
Liberty,30.15153187,-94.8120925,32.22222222222222,wmoUnit:degC,52,17,16093.44,wmoUnit:m,,,,,,
Williamson,30.64834941,-97.60105467,33.333333333333336,wmoUnit:degC,56,13,16093.44,wmoUnit:m,,,,,,
Nacogdoches,31.61604108,-94.6158776,32.22222222222222,wmoUnit:degC,58,20,16093.44,wmoUnit:m,FA,A,Flood Watch,Severe,Future,2025-05-26T13:30:00-05:00
Loving,31.84912973,-103.5799063,33.888888888888886,wmoUnit:degC,18,0,16093.44,wmoUnit:m,,,,,,
Jim Wells,27.73131099,-98.0898649,32.77777777777778,wmoUnit:degC,62,1,16093.44,wmoUnit:m,,,,,,
Upton,31.36853957,-102.0430005,33.333333333333336,wmoUnit:degC,38,0,16093.44,wmoUnit:m,,,,,,
Newton,30.78619977,-93.74462993,31.666666666666668,wmoUnit:degC,59,22,16093.44,wmoUnit:m,,,Flood Warning,Severe,Immediate,2025-05-26T21:00:00-05:00
Lamar,33.66746186,-95.57110784,31.666666666666668,wmoUnit:degC,61,0,16093.44,wmoUnit:m,FA,A,Flood Watch,Severe,Future,2025-05-26T05:30:00-05:00
Polk,30.79250963,-94.82994949,33.333333333333336,wmoUnit:degC,51,24,15707.197808349552,wmoUnit:m,,,Flood Warning,Severe,Immediate,2025-05-26T12:00:00-05:00
Collin,33.18789055,-96.57248871,32.22222222222222,wmoUnit:degC,54,0,16093.44,wmoUnit:m,FA,A,Flood Watch,Severe,Future,2025-05-26T05:30:00-05:00
Hardeman,34.28865227,-99.7453851,31.666666666666668,wmoUnit:degC,54,23,,,FA,A,Severe Thunderstorm Watch,Severe,Future,2025-05-26T03:00:00-05:00
McMullen,28.35351091,-98.56842256,33.333333333333336,wmoUnit:degC,58,1,16061.252383300736,wmoUnit:m,,,,,,
Cottle,34.0776571,-100.2786983,32.22222222222222,wmoUnit:degC,49,39,16093.44,wmoUnit:m,TO,A,Tornado Watch,Extreme,Future,2025-05-25T23:00:00-05:00
Frio,28.86726774,-99.10826004,33.888888888888886,wmoUnit:degC,51,1,16093.44,wmoUnit:m,,,,,,
Gray,35.40130666,-100.812475,25.555555555555557,wmoUnit:degC,64,10,,,SV,A,Special Weather Statement,Moderate,Expected,2025-05-25T22:00:00-05:00
Dallam,36.27777107,-102.6021647,15.0,wmoUnit:degC,80,28,,,SV,A,Special Weather Statement,Moderate,Expected,2025-05-25T22:00:00-05:00
Kenedy,26.92409448,-97.68137783,33.888888888888886,wmoUnit:degC,62,1,,,,,,,,
Fort Bend,29.52763253,-95.77090562,33.888888888888886,wmoUnit:degC,52,16,16093.44,wmoUnit:m,,,,,,
Armstrong,34.96522076,-101.3572412,25.555555555555557,wmoUnit:degC,58,7,,,SV,A,Special Weather Statement,Moderate,Expected,2025-05-25T22:00:00-05:00
Collingsworth,34.96498493,-100.2700733,27.22222222222222,wmoUnit:degC,56,10,,,SV,A,Severe Thunderstorm Watch,Severe,Future,2025-05-26T01:00:00-05:00
Cass,33.07750446,-94.34348771,32.77777777777778,wmoUnit:degC,56,20,16093.44,wmoUnit:m,FA,A,Special Weather Statement,Moderate,Expected,2025-05-25T21:45:00-05:00
Sherman,36.27765824,-101.8933822,14.444444444444445,wmoUnit:degC,90,18,,,SV,A,Special Weather Statement,Moderate,Expected,2025-05-25T22:00:00-05:00
Terry,33.17373729,-102.335157,33.888888888888886,wmoUnit:degC,23,19,16093.44,wmoUnit:m,,,,,,
Limestone,31.54541898,-96.58056718,31.666666666666668,wmoUnit:degC,57,15,16093.44,wmoUnit:m,,,,,,
Real,29.83182711,-99.82215881,29.444444444444443,wmoUnit:degC,59,0,16093.44,wmoUnit:m,,,,,,
Lynn,33.17685487,-101.8160235,33.333333333333336,wmoUnit:degC,31,24,16093.44,wmoUnit:m,TO,A,Tornado Watch,Extreme,Future,2025-05-25T23:00:00-05:00
Lavaca,29.38437003,-96.93020993,33.888888888888886,wmoUnit:degC,58,16,16093.44,wmoUnit:m,,,,,,
Nolan,32.3034718,-100.4060989,35.0,wmoUnit:degC,34,5,16093.44,wmoUnit:m,TO,A,Special Weather Statement,Moderate,Expected,2025-05-25T21:45:00-05:00
Gaines,32.74074537,-102.6351246,34.44444444444444,wmoUnit:degC,22,0,16093.44,wmoUnit:m,,,,,,
Montgomery,30.30022409,-95.50301411,33.888888888888886,wmoUnit:degC,58,21,16077.34619165045,wmoUnit:m,,,,,,
Concho,31.32645211,-99.86413426,33.888888888888886,wmoUnit:degC,40,4,16093.44,wmoUnit:m,,,,,,
Hardin,30.33238431,-94.39021394,31.666666666666668,wmoUnit:degC,60,17,16077.34619165045,wmoUnit:m,,,,,,
Harris,29.85967144,-95.39782106,33.333333333333336,wmoUnit:degC,51,20,16093.44,wmoUnit:m,,,,,,
Leon,31.29655719,-95.99554292,31.11111111111111,wmoUnit:degC,70,12,16093.44,wmoUnit:m,,,,,,
Bowie,33.44572786,-94.42324298,32.77777777777778,wmoUnit:degC,58,20,16093.44,wmoUnit:m,FA,A,Flood Warning,Severe,Immediate,2025-05-26T21:30:00-05:00
Kaufman,32.59927808,-96.28779341,32.22222222222222,wmoUnit:degC,60,0,16093.44,wmoUnit:m,FA,A,Flood Watch,Severe,Future,2025-05-26T05:30:00-05:00
Anderson,31.81321543,-95.65251774,30.555555555555557,wmoUnit:degC,70,31,16093.44,wmoUnit:m,,,,,,
San Saba,31.15520543,-98.81754295,32.77777777777778,wmoUnit:degC,47,3,16093.44,wmoUnit:m,,,,,,
Schleicher,30.89661056,-100.538097,34.44444444444444,wmoUnit:degC,32,0,16093.44,wmoUnit:m,,,,,,
Colorado,29.6208542,-96.52630821,33.333333333333336,wmoUnit:degC,54,20,16093.44,wmoUnit:m,,,,,,
Milam,30.78625299,-96.97683495,33.333333333333336,wmoUnit:degC,56,11,16093.44,wmoUnit:m,,,,,,
Live Oak,28.3514375,-98.12474493,33.333333333333336,wmoUnit:degC,60,1,16012.972493041932,wmoUnit:m,,,,,,
Borden,32.7436916,-101.4317533,33.888888888888886,wmoUnit:degC,36,0,16093.44,wmoUnit:m,,,,,,
McCulloch,31.19896752,-99.34754972,32.22222222222222,wmoUnit:degC,47,3,16093.44,wmoUnit:m,,,,,,
Johnson,32.37899918,-97.36660504,32.22222222222222,wmoUnit:degC,58,0,16093.44,wmoUnit:m,FA,A,Flood Watch,Severe,Future,2025-05-26T05:30:00-05:00
Montague,33.67496328,-97.72466993,31.11111111111111,wmoUnit:degC,57,0,16093.44,wmoUnit:m,FA,A,Flood Watch,Severe,Future,2025-05-26T05:30:00-05:00
Stonewall,33.17842158,-100.255259,35.0,wmoUnit:degC,39,27,16093.44,wmoUnit:m,TO,A,Flash Flood Warning,Severe,Immediate,2025-05-25T22:30:00-05:00
Comal,29.80816362,-98.27814516,32.22222222222222,wmoUnit:degC,60,11,16093.44,wmoUnit:m,,,,,,
Eastland,32.32739258,-98.8325713,31.666666666666668,wmoUnit:degC,50,0,16093.44,wmoUnit:m,,,,,,
Comanche,31.9490639,-98.55841538,33.333333333333336,wmoUnit:degC,44,0,16093.44,wmoUnit:m,,,,,,
King,33.61641863,-100.2558584,33.333333333333336,wmoUnit:degC,44,33,16093.44,wmoUnit:m,TO,A,Tornado Watch,Extreme,Future,2025-05-25T23:00:00-05:00
Washington,30.2145299,-96.40356575,32.77777777777778,wmoUnit:degC,54,32,16093.44,wmoUnit:m,,,,,,
Webb,27.76102524,-99.33170164,32.22222222222222,wmoUnit:degC,56,1,16093.44,wmoUnit:m,,,,,,
Fayette,29.87683207,-96.91968047,33.333333333333336,wmoUnit:degC,60,16,16093.44,wmoUnit:m,,,,,,
Harrison,32.54814898,-94.37155736,32.22222222222222,wmoUnit:degC,52,20,16093.44,wmoUnit:m,FA,A,Flood Watch,Severe,Future,2025-05-26T13:30:00-05:00
Presidio,29.99977786,-104.2405552,31.11111111111111,wmoUnit:degC,11,0,16093.44,wmoUnit:m,,,,,,
Austin,29.88711223,-96.27791829,33.333333333333336,wmoUnit:degC,49,22,15964.69260278313,wmoUnit:m,,,,,,
Randall,34.96594288,-101.8968527,26.666666666666668,wmoUnit:degC,49,10,,,SV,A,Special Weather Statement,Moderate,Expected,2025-05-25T21:45:00-05:00
Hood,32.43107878,-97.83280338,32.77777777777778,wmoUnit:degC,45,0,16093.44,wmoUnit:m,,,,,,
Victoria,28.79640594,-96.97176602,31.666666666666668,wmoUnit:degC,68,2,16077.34619165045,wmoUnit:m,,,,,,
Hutchinson,35.84000866,-101.3547257,22.77777777777778,wmoUnit:degC,66,8,,,SV,A,Special Weather Statement,Moderate,Expected,2025-05-25T22:00:00-05:00
Coryell,31.39087578,-97.7991883,32.77777777777778,wmoUnit:degC,54,0,16093.44,wmoUnit:m,,,,,,
Jackson,28.95603133,-96.57883268,32.22222222222222,wmoUnit:degC,64,9,16093.44,wmoUnit:m,,,,,,
Taylor,32.30138229,-99.89003941,33.333333333333336,wmoUnit:degC,41,3,16093.44,wmoUnit:m,TO,A,Tornado Watch,Extreme,Future,2025-05-25T23:00:00-05:00
Zapata,27.00089072,-99.16860134,37.77777777777778,wmoUnit:degC,38,1,,,,,,,,
San Patricio,28.00922186,-97.51859857,30.555555555555557,wmoUnit:degC,75,1,15916.412712524489,wmoUnit:m,,,,,,
Grimes,30.54360689,-95.98557334,34.44444444444444,wmoUnit:degC,56,35,15256.580383300736,wmoUnit:m,,,,,,
Lamb,34.06861242,-102.3517095,31.666666666666668,wmoUnit:degC,28,33,16093.44,wmoUnit:m,SV,A,Flash Flood Warning,Severe,Immediate,2025-05-25T22:00:00-05:00
