countyName,latitude,longitude,temperature,temperature_unit,relativeHumidity,precipitationProbability,visibility,visibility_unit,hazard_phenomenon,hazard_significance,alert_event,alert_severity,alert_urgency,alert_expires
Foard,33.97408519,-99.77871109,27.22222222222222,wmoUnit:degC,66,14,,,,,,,,
Blanco,30.26636128,-98.39974086,23.88888888888889,wmoUnit:degC,74,42,16093.44,wmoUnit:m,,,,,,
Hockley,33.60750375,-102.3430919,22.22222222222222,wmoUnit:degC,73,10,16093.44,wmoUnit:m,,,,,,
Llano,30.70566579,-98.68387398,25.555555555555557,wmoUnit:degC,53,50,16093.44,wmoUnit:m,,,,,,
Swisher,34.53064989,-101.734951,20.555555555555557,wmoUnit:degC,87,10,15803.757588867158,wmoUnit:m,,,,,,
Titus,33.2160906,-94.96509786,23.88888888888889,wmoUnit:degC,84,4,16093.44,wmoUnit:m,FA,A,Flood Watch,Severe,Future,2025-06-11T19:00:00-05:00
Navarro,32.04695429,-96.47248134,23.333333333333332,wmoUnit:degC,84,2,16093.44,wmoUnit:m,FA,A,Flood Watch,Severe,Future,2025-06-11T13:00:00-05:00
Brazoria,29.19345387,-95.45578479,27.77777777777778,wmoUnit:degC,97,0,15562.35660278313,wmoUnit:m,,,,,,
Hidalgo,26.396627,-98.18088681,30.0,wmoUnit:degC,72,0,,,,,,,,
Archer,33.61539176,-98.68783437,27.22222222222222,wmoUnit:degC,66,12,,,,,,,,
Refugio,28.32681413,-97.16546961,32.22222222222222,wmoUnit:degC,64,11,16093.44,wmoUnit:m,,,,,,
Andrews,32.30506283,-102.6378839,21.11111111111111,wmoUnit:degC,79,66,9656.064,wmoUnit:m,SV,A,,,,
Galveston,29.39424415,-94.96474975,27.77777777777778,wmoUnit:degC,97,0,15256.580383300736,wmoUnit:m,,,,,,
De Witt,29.08201599,-97.35666976,27.77777777777778,wmoUnit:degC,74,22,16093.44,wmoUnit:m,,,,,,
Gonzales,29.45641495,-97.49279927,28.333333333333332,wmoUnit:degC,53,29,16093.44,wmoUnit:m,,,,,,
Wharton,29.2778362,-96.22197375,28.333333333333332,wmoUnit:degC,80,0,15723.291616699264,wmoUnit:m,,,,,,
Fannin,33.59396919,-96.10656755,23.88888888888889,wmoUnit:degC,82,2,16093.44,wmoUnit:m,,,,,,
Madison,30.96564645,-95.92818441,23.333333333333332,wmoUnit:degC,93,0,15610.636493041933,wmoUnit:m,FA,A,Flood Watch,Severe,Future,2025-06-11T16:00:00-05:00
Moore,35.83768863,-101.8929556,23.88888888888889,wmoUnit:degC,58,0,,,,,,,,
Tyler,30.7712607,-94.37651432,23.88888888888889,wmoUnit:degC,97,7,16029.066301391646,wmoUnit:m,,,,,,
Lipscomb,36.27778432,-100.27317,23.88888888888889,wmoUnit:degC,60,0,,,,,,,,
Burleson,30.49246139,-96.62109399,26.666666666666668,wmoUnit:degC,69,0,15884.225095825224,wmoUnit:m,FA,A,Flood Watch,Severe,Future,2025-06-11T16:00:00-05:00
Jim Hogg,27.04340499,-98.6972921,29.444444444444443,wmoUnit:degC,70,0,,,,,,,,
Throckmorton,33.17753907,-99.21236832,23.88888888888889,wmoUnit:degC,84,14,,,,,,,,
Kleberg,27.43274395,-97.72889778,32.77777777777778,wmoUnit:degC,65,9,16093.44,wmoUnit:m,,,,,,
Shelby,31.79242191,-94.14495261,20.0,wmoUnit:degC,100,7,16093.44,wmoUnit:m,FA,A,Flood Watch,Severe,Future,2025-06-11T19:00:00-05:00
Garza,33.17991074,-101.2984496,21.666666666666668,wmoUnit:degC,90,17,11490.715945129401,wmoUnit:m,,,,,,
Karnes,28.90493782,-97.85960621,30.0,wmoUnit:degC,65,22,16093.44,wmoUnit:m,,,,,,
Reeves,31.32307061,-103.693143,20.0,wmoUnit:degC,80,47,16093.44,wmoUnit:m,SV,A,,,,
Houston,31.31764137,-95.42225367,22.77777777777778,wmoUnit:degC,97,0,15755.477698608354,wmoUnit:m,FA,A,Flood Watch,Severe,Future,2025-06-11T16:00:00-05:00
El Paso,31.7686226,-106.2352229,21.666666666666668,wmoUnit:degC,55,26,16093.44,wmoUnit:m,,,,,,
Carson,35.40346802,-101.3542037,22.77777777777778,wmoUnit:degC,66,3,,,,,,,,
Medina,29.35520493,-99.11008331,30.0,wmoUnit:degC,48,23,16093.44,wmoUnit:m,,,,,,
Wichita,33.98421585,-98.70153389,28.88888888888889,wmoUnit:degC,54,10,,,,,,,,
Chambers,29.73912276,-94.60891308,26.11111111111111,wmoUnit:degC,94,0,15143.926794433579,wmoUnit:m,,,Flood Warning,Severe,Immediate,2025-06-11T15:30:00-05:00
Donley,34.96540246,-100.8140501,23.333333333333332,wmoUnit:degC,71,12,,,,,,,,
Hopkins,33.14933822,-95.56414173,23.88888888888889,wmoUnit:degC,76,2,16093.44,wmoUnit:m,FA,A,Flood Watch,Severe,Future,2025-06-11T13:00:00-05:00
Lampasas,31.19627791,-98.24142711,23.333333333333332,wmoUnit:degC,82,5,16093.44,wmoUnit:m,FA,A,Flash Flood Warning,Severe,Immediate,2025-06-11T06:30:00-05:00
Falls,31.25317017,-96.93579511,23.333333333333332,wmoUnit:degC,93,7,16093.44,wmoUnit:m,FA,A,Flood Watch,Severe,Future,2025-06-11T13:00:00-05:00
Stephens,32.73584155,-98.83612016,23.333333333333332,wmoUnit:degC,79,11,14468.002191650448,wmoUnit:m,,,,,,
Travis,30.33423319,-97.78194654,24.444444444444443,wmoUnit:degC,71,44,16093.44,wmoUnit:m,,,,,,
Roberts,35.8385577,-100.8135689,23.88888888888889,wmoUnit:degC,60,0,,,,,,,,
Crosby,33.61459873,-101.2998612,21.11111111111111,wmoUnit:degC,90,14,12408.042301391646,wmoUnit:m,,,,,,
Kerr,30.06153035,-99.35016969,25.0,wmoUnit:degC,53,23,16093.44,wmoUnit:m,,,,,,
Wood,32.78634374,-95.38206498,22.77777777777778,wmoUnit:degC,90,4,16093.44,wmoUnit:m,FA,A,Flood Watch,Severe,Future,2025-06-11T19:00:00-05:00
Jack,33.23345819,-98.1725509,23.333333333333332,wmoUnit:degC,79,5,16093.44,wmoUnit:m,,,,,,
Marion,32.79797929,-94.35725239,22.77777777777778,wmoUnit:degC,97,4,16093.44,wmoUnit:m,FA,A,Flood Watch,Severe,Future,2025-06-11T19:00:00-05:00
Hale,34.07051782,-101.8269082,20.555555555555557,wmoUnit:degC,87,10,15964.69260278313,wmoUnit:m,,,,,,
Jeff Davis,30.71559322,-104.1403539,14.444444444444445,wmoUnit:degC,90,29,16093.44,wmoUnit:m,SV,A,,,,
Tarrant,32.77185236,-97.29116473,24.444444444444443,wmoUnit:degC,76,5,16093.44,wmoUnit:m,FA,A,Flood Watch,Severe,Future,2025-06-11T13:00:00-05:00
Waller,30.01093722,-95.98768942,28.333333333333332,wmoUnit:degC,77,0,14290.974904174776,wmoUnit:m,,,,,,
Reagan,31.36617698,-101.5230108,25.555555555555557,wmoUnit:degC,66,52,16093.44,wmoUnit:m,SV,A,,,,
Smith,32.37514553,-95.26909511,22.77777777777778,wmoUnit:degC,87,7,16093.44,wmoUnit:m,FA,A,Flood Watch,Severe,Future,2025-06-11T19:00:00-05:00
Van Zandt,32.56368961,-95.8364862,22.22222222222222,wmoUnit:degC,93,6,16093.44,wmoUnit:m,FA,A,Flood Watch,Severe,Future,2025-06-11T13:00:00-05:00
Cooke,33.638465,-97.21247642,25.0,wmoUnit:degC,79,9,16093.44,wmoUnit:m,,,,,,
Zavala,28.86530621,-99.76102001,31.11111111111111,wmoUnit:degC,47,17,16093.44,wmoUnit:m,SV,A,,,,
Hall,34.53074134,-100.6809876,23.88888888888889,wmoUnit:degC,74,11,15755.477698608354,wmoUnit:m,,,,,,
Kendall,29.9446397,-98.71160511,24.444444444444443,wmoUnit:degC,64,32,16093.44,wmoUnit:m,,,,,,
Goliad,28.65708563,-97.42646082,32.77777777777778,wmoUnit:degC,56,15,16093.44,wmoUnit:m,,,,,,
Yoakum,33.17293501,-102.8278792,21.11111111111111,wmoUnit:degC,73,12,15948.59879443358,wmoUnit:m,,,,,,
Knox,33.60614755,-99.74144313,26.666666666666668,wmoUnit:degC,67,17,,,,,,,,
McLennan,31.55234489,-97.20184883,23.333333333333332,wmoUnit:degC,87,4,16093.44,wmoUnit:m,FA,A,Flood Watch,Severe,Future,2025-06-11T13:00:00-05:00
Brewster,29.81205836,-103.2518906,21.666666666666668,wmoUnit:degC,76,53,16093.44,wmoUnit:m,SV,A,,,,
Panola,32.16222886,-94.30552858,21.11111111111111,wmoUnit:degC,100,8,16093.44,wmoUnit:m,FA,A,Flood Watch,Severe,Future,2025-06-11T19:00:00-05:00
Bandera,29.74724753,-99.24637282,27.77777777777778,wmoUnit:degC,52,22,16093.44,wmoUnit:m,,,,,,
Parmer,34.53014507,-102.784594,20.555555555555557,wmoUnit:degC,73,7,16061.252383300736,wmoUnit:m,,,,,,
Rockwall,32.89786769,-96.40780584,23.88888888888889,wmoUnit:degC,87,5,16093.44,wmoUnit:m,FA,A,Flood Watch,Severe,Future,2025-06-11T13:00:00-05:00
Trinity,31.0885069,-95.13551682,23.88888888888889,wmoUnit:degC,90,0,15739.383890258803,wmoUnit:m,FA,A,Flood Watch,Severe,Future,2025-06-11T16:00:00-05:00
Bosque,31.90050476,-97.63437613,22.77777777777778,wmoUnit:degC,87,7,16093.44,wmoUnit:m,FA,A,Flood Watch,Severe,Future,2025-06-11T13:00:00-05:00
Coke,31.88849293,-100.5298747,26.11111111111111,wmoUnit:degC,62,41,,,,,,,,
Franklin,33.17550691,-95.21841437,24.444444444444443,wmoUnit:degC,79,4,16093.44,wmoUnit:m,FA,A,Flood Watch,Severe,Future,2025-06-11T19:00:00-05:00
Hill,31.99079033,-97.1324142,22.77777777777778,wmoUnit:degC,87,4,16093.44,wmoUnit:m,FA,A,Flood Watch,Severe,Future,2025-06-11T13:00:00-05:00
Calhoun,28.48966896,-96.64708119,31.11111111111111,wmoUnit:degC,73,9,16093.44,wmoUnit:m,,,,,,
Irion,31.30393203,-100.9824126,26.11111111111111,wmoUnit:degC,64,75,,,,,,,,
Midland,31.86921148,-102.0315032,25.0,wmoUnit:degC,68,52,16093.44,wmoUnit:m,SV,A,,,,
Brown,31.77432313,-98.99989649,26.11111111111111,wmoUnit:degC,77,17,,,,,,,,
Wilson,29.17315896,-98.08621015,27.77777777777778,wmoUnit:degC,59,30,16093.44,wmoUnit:m,,,,,,
Oldham,35.40497586,-102.6029949,23.333333333333332,wmoUnit:degC,64,3,,,,,,,,
Freestone,31.70486443,-96.14918535,22.77777777777778,wmoUnit:degC,87,3,16093.44,wmoUnit:m,FA,A,Flood Watch,Severe,Future,2025-06-11T13:00:00-05:00
Sabine,31.34321941,-93.85170439,22.22222222222222,wmoUnit:degC,97,8,16093.44,wmoUnit:m,,,,,,
Deaf Smith,34.96602014,-102.6048162,22.77777777777778,wmoUnit:degC,62,9,,,,,,,,
Angelina,31.25475875,-94.611742,22.22222222222222,wmoUnit:degC,93,7,16093.44,wmoUnit:m,FA,A,Flood Watch,Severe,Future,2025-06-11T19:00:00-05:00
Kent,33.18284492,-100.7791031,22.22222222222222,wmoUnit:degC,87,18,15160.02060278313,wmoUnit:m,,,,,,
Red River,33.62074539,-95.0501886,24.444444444444443,wmoUnit:degC,76,4,16093.44,wmoUnit:m,,,Flood Warning,Severe,Immediate,2025-06-11T21:00:00-05:00
Kinney,29.35000302,-100.4178441,32.77777777777778,wmoUnit:degC,38,12,16093.44,wmoUnit:m,SV,A,,,,
Denton,33.205574,-97.11681154,25.555555555555557,wmoUnit:degC,71,4,16093.44,wmoUnit:m,,,,,,
Sutton,30.49747152,-100.5382263,27.77777777777778,wmoUnit:degC,56,79,,,,,,,,
Guadalupe,29.58257236,-97.94850308,27.22222222222222,wmoUnit:degC,54,32,16093.44,wmoUnit:m,,,,,,
Winkler,31.85008609,-103.0484794,21.666666666666668,wmoUnit:degC,78,70,7885.785753478953,wmoUnit:m,SV,A,,,,
Dimmit,28.42161168,-99.760574,30.555555555555557,wmoUnit:degC,72,18,14548.469698608355,wmoUnit:m,SV,A,,,,
Wise,33.21585061,-97.65444124,23.88888888888889,wmoUnit:degC,74,8,16093.44,wmoUnit:m,,,,,,
Hemphill,35.83750155,-100.2704628,22.77777777777778,wmoUnit:degC,66,0,,,,,,,,
Potter,35.40128927,-101.8940484,23.333333333333332,wmoUnit:degC,62,4,,,,,,,,
Childress,34.52929257,-100.2075664,23.333333333333332,wmoUnit:degC,62,11,16093.44,wmoUnit:m,,,,,,
Willacy,26.47132899,-97.64303323,27.77777777777778,wmoUnit:degC,88,0,,,,,,,,
Bastrop,30.10353518,-97.31187705,25.555555555555557,wmoUnit:degC,67,37,16093.44,wmoUnit:m,,,,,,
Kimble,30.48676251,-99.74892716,27.77777777777778,wmoUnit:degC,65,28,,,,,,,,
Scurry,32.74720063,-100.9165071,21.11111111111111,wmoUnit:degC,84,8,16093.44,wmoUnit:m,,,,,,
Ochiltree,36.27846334,-100.815653,22.77777777777778,wmoUnit:degC,68,0,,,,,,,,
Hansford,36.27753179,-101.3545624,22.77777777777778,wmoUnit:degC,59,0,,,,,,,,
Hartley,35.83996755,-102.6028835,23.333333333333332,wmoUnit:degC,62,0,,,,,,,,
Cameron,26.13847728,-97.51499968,28.333333333333332,wmoUnit:degC,84,0,,,,,,,,
Matagorda,28.86711039,-95.98533866,27.77777777777778,wmoUnit:degC,94,0,15691.104,wmoUnit:m,,,,,,
Burnet,30.78843382,-98.18252382,22.77777777777778,wmoUnit:degC,66,57,9656.064,wmoUnit:m,,,,,,
Rains,32.87004212,-95.79347545,23.88888888888889,wmoUnit:degC,87,5,16093.44,wmoUnit:m,FA,A,Flood Watch,Severe,Future,2025-06-11T13:00:00-05:00
Hays,30.05782657,-98.03104087,23.88888888888889,wmoUnit:degC,62,34,16093.44,wmoUnit:m,,,,,,
Mason,30.71742293,-99.2263026,27.22222222222222,wmoUnit:degC,69,18,,,,,,,,
Ward,31.509424,-103.1024636,20.555555555555557,wmoUnit:degC,80,61,9656.064,wmoUnit:m,SV,A,,,,
Delta,33.38623601,-95.67221685,24.444444444444443,wmoUnit:degC,79,1,16093.44,wmoUnit:m,FA,A,Flood Watch,Severe,Future,2025-06-11T13:00:00-05:00
Nueces,27.72621549,-97.61767326,33.333333333333336,wmoUnit:degC,60,10,16093.44,wmoUnit:m,,,,,,
Callahan,32.2977738,-99.37359692,25.0,wmoUnit:degC,79,24,,,,,,,,
Bell,31.03778267,-97.47790776,24.444444444444443,wmoUnit:degC,79,3,16093.44,wmoUnit:m,FA,A,Flood Watch,Severe,Future,2025-06-11T13:00:00-05:00
Cherokee,31.83695632,-95.16515234,21.11111111111111,wmoUnit:degC,100,7,16093.44,wmoUnit:m,FA,A,Flood Watch,Severe,Future,2025-06-11T19:00:00-05:00
Ellis,32.34839264,-96.79467417,23.88888888888889,wmoUnit:degC,84,4,16093.44,wmoUnit:m,FA,A,Flood Watch,Severe,Future,2025-06-11T13:00:00-05:00
Lubbock,33.6101944,-101.8205745,22.22222222222222,wmoUnit:degC,73,12,15320.955616699264,wmoUnit:m,,,,,,
Terrell,30.22502597,-102.0764533,24.444444444444443,wmoUnit:degC,75,79,9656.064,wmoUnit:m,SV,A,,,,
Crockett,30.72291931,-101.4118364,26.666666666666668,wmoUnit:degC,58,79,,,,,,,,
Atascosa,28.89418432,-98.52741302,31.11111111111111,wmoUnit:degC,45,30,16093.44,wmoUnit:m,,,,,,
Ector,31.86908156,-102.5430907,24.444444444444443,wmoUnit:degC,66,69,9656.064,wmoUnit:m,SV,A,,,,
Brazos,30.6610425,-96.3022943,23.88888888888889,wmoUnit:degC,87,0,15948.59879443358,wmoUnit:m,FA,A,Flood Watch,Severe,Future,2025-06-11T16:00:00-05:00
Aransas,28.12709562,-96.99258951,30.0,wmoUnit:degC,79,10,16093.44,wmoUnit:m,,,,,,
Dallas,32.76653746,-96.77781862,24.444444444444443,wmoUnit:degC,79,3,16093.44,wmoUnit:m,FA,A,Flood Watch,Severe,Future,2025-06-11T13:00:00-05:00
Howard,32.30610232,-101.4355097,23.88888888888889,wmoUnit:degC,63,19,16093.44,wmoUnit:m,SV,A,,,,
Motley,34.07409017,-100.7798961,22.22222222222222,wmoUnit:degC,84,11,15111.740712524488,wmoUnit:m,,,,,,
San Augustine,31.39427005,-94.16809762,21.11111111111111,wmoUnit:degC,97,7,16093.44,wmoUnit:m,,,,,,
Maverick,28.74260943,-100.3144638,31.666666666666668,wmoUnit:degC,45,13,16093.44,wmoUnit:m,SV,A,,,,
Erath,32.23640361,-98.21722756,23.333333333333332,wmoUnit:degC,84,11,16093.44,wmoUnit:m,FA,A,Flood Watch,Severe,Future,2025-06-11T13:00:00-05:00
Dickens,33.61663428,-100.7788138,22.77777777777778,wmoUnit:degC,81,15,14596.749588867156,wmoUnit:m,,,,,,
Caldwell,29.83677935,-97.61983479,27.22222222222222,wmoUnit:degC,62,32,16093.44,wmoUnit:m,,,,,,
Dawson,32.74258137,-101.9476136,22.77777777777778,wmoUnit:degC,73,22,16093.44,wmoUnit:m,SV,A,,,,
Camp,32.97321771,-94.97860185,23.333333333333332,wmoUnit:degC,87,4,16093.44,wmoUnit:m,FA,A,Flood Watch,Severe,Future,2025-06-11T19:00:00-05:00
Duval,27.68133382,-98.50889672,36.111111111111114,wmoUnit:degC,46,12,16093.44,wmoUnit:m,,,,,,
Hunt,33.123531,-96.08550014,24.444444444444443,wmoUnit:degC,90,4,16093.44,wmoUnit:m,FA,A,Flood Watch,Severe,Future,2025-06-11T13:00:00-05:00
Mills,31.49524259,-98.59552736,23.333333333333332,wmoUnit:degC,84,3,16093.44,wmoUnit:m,FA,A,Flash Flood Warning,Severe,Immediate,2025-06-11T06:30:00-05:00
Val Verde,29.89300587,-101.15171,27.77777777777778,wmoUnit:degC,42,23,16093.44,wmoUnit:m,SV,A,,,,
Pecos,30.78100044,-102.7235743,18.333333333333332,wmoUnit:degC,88,58,9559.503452087469,wmoUnit:m,SV,A,,,,
Baylor,33.61648147,-99.21351964,26.666666666666668,wmoUnit:degC,65,16,,,,,,,,
Gregg,32.48036452,-94.81723694,22.77777777777778,wmoUnit:degC,90,7,16093.44,wmoUnit:m,FA,A,Flood Watch,Severe,Future,2025-06-11T19:00:00-05:00
Cochran,33.60410808,-102.8285264,21.666666666666668,wmoUnit:degC,71,8,16093.44,wmoUnit:m,,,,,,
Jasper,30.74391255,-94.02495849,24.444444444444443,wmoUnit:degC,97,8,16029.066301391646,wmoUnit:m,,,,,,
Hamilton,31.70479181,-98.11066654,22.77777777777778,wmoUnit:degC,87,5,16093.44,wmoUnit:m,FA,A,Flash Flood Warning,Severe,Immediate,2025-06-11T06:30:00-05:00
Castro,34.53000304,-102.2617608,20.0,wmoUnit:degC,84,8,16045.160109741197,wmoUnit:m,,,,,,
Sterling,31.82786516,-101.0500699,26.11111111111111,wmoUnit:degC,62,57,,,,,,,,
Starr,26.56212627,-98.73834895,30.0,wmoUnit:degC,67,0,,,,,,,,
Crane,31.42846287,-102.5156425,22.22222222222222,wmoUnit:degC,74,68,9656.064,wmoUnit:m,SV,A,,,,
Morris,33.11368507,-94.73205137,23.333333333333332,wmoUnit:degC,90,4,16093.44,wmoUnit:m,FA,A,Flood Watch,Severe,Future,2025-06-11T19:00:00-05:00
Briscoe,34.53041048,-101.2085769,20.0,wmoUnit:degC,90,11,15417.51539721687,wmoUnit:m,,,,,,
Tom Green,31.4044442,-100.4620678,26.666666666666668,wmoUnit:degC,67,51,,,,,,,,
Menard,30.88981785,-99.82061472,26.11111111111111,wmoUnit:degC,74,36,,,,,,,,
Parker,32.77852261,-97.80472194,22.77777777777778,wmoUnit:degC,79,5,16093.44,wmoUnit:m,FA,A,Flood Watch,Severe,Future,2025-06-11T13:00:00-05:00
Walker,30.73899492,-95.57224172,24.444444444444443,wmoUnit:degC,85,0,15111.740712524488,wmoUnit:m,FA,A,Flood Watch,Severe,Future,2025-06-11T16:00:00-05:00
Brooks,27.0315669,-98.21874127,28.88888888888889,wmoUnit:degC,74,0,,,,,,,,
La Salle,28.34621032,-99.1034773,37.77777777777778,wmoUnit:degC,40,18,16093.44,wmoUnit:m,,,,,,
Edwards,29.98248216,-100.3048937,26.11111111111111,wmoUnit:degC,62,21,16093.44,wmoUnit:m,SV,A,,,,
Lee,30.31065065,-96.96568735,25.555555555555557,wmoUnit:degC,67,39,16093.44,wmoUnit:m,,,,,,
Robertson,31.02705415,-96.51272568,23.333333333333332,wmoUnit:degC,87,10,16093.44,wmoUnit:m,FA,A,Flood Watch,Severe,Future,2025-06-11T13:00:00-05:00
Young,33.17670764,-98.68781396,23.333333333333332,wmoUnit:degC,82,13,16093.44,wmoUnit:m,,,,,,
Bee,28.41736675,-97.74116811,33.888888888888886,wmoUnit:degC,52,13,16093.44,wmoUnit:m,,,,,,
Clay,33.78379717,-98.208958,27.77777777777778,wmoUnit:degC,60,9,,,,,,,,
San Jacinto,30.57948905,-95.16683273,24.444444444444443,wmoUnit:degC,85,0,15530.168986084027,wmoUnit:m,,,,,,
Uvalde,29.35669829,-99.76203107,31.11111111111111,wmoUnit:degC,45,12,16093.44,wmoUnit:m,SV,A,,,,
Haskell,33.17824805,-99.73029401,23.88888888888889,wmoUnit:degC,82,22,,,,,,,,
Somervell,32.22229511,-97.77456553,23.333333333333332,wmoUnit:degC,84,7,16093.44,wmoUnit:m,FA,A,Flood Watch,Severe,Future,2025-06-11T13:00:00-05:00
Bexar,29.44884523,-98.51966309,26.666666666666668,wmoUnit:degC,51,31,16093.44,wmoUnit:m,,,,,,
Grayson,33.62684371,-96.67764864,25.0,wmoUnit:degC,67,6,16093.44,wmoUnit:m,,,,,,
Bailey,34.0684915,-102.8299069,21.666666666666668,wmoUnit:degC,76,7,16061.252383300736,wmoUnit:m,,,,,,
Jones,32.73970429,-99.87850599,25.555555555555557,wmoUnit:degC,74,27,,,,,,,,
Jefferson,29.88425832,-94.1708778,25.0,wmoUnit:degC,94,10,16012.972493041932,wmoUnit:m,,,,,,
Rusk,32.10803224,-94.76169577,21.666666666666668,wmoUnit:degC,90,7,16093.44,wmoUnit:m,FA,A,Flood Watch,Severe,Future,2025-06-11T19:00:00-05:00
Glasscock,31.8694238,-101.520742,24.444444444444443,wmoUnit:degC,72,32,16093.44,wmoUnit:m,SV,A,,,,
Gillespie,30.31800246,-98.94627245,24.444444444444443,wmoUnit:degC,66,30,16093.44,wmoUnit:m,,,,,,
Fisher,32.74305155,-100.4019503,26.11111111111111,wmoUnit:degC,67,36,,,,,,,,
Henderson,32.21188078,-95.85356847,22.22222222222222,wmoUnit:degC,93,7,16093.44,wmoUnit:m,FA,A,Flood Watch,Severe,Future,2025-06-11T13:00:00-05:00
Shackelford,32.7360276,-99.35403034,25.0,wmoUnit:degC,79,16,,,,,,,,
Palo Pinto,32.75316856,-98.31299522,23.333333333333332,wmoUnit:degC,79,12,16093.44,wmoUnit:m,,,,,,
Wilbarger,34.08044953,-99.24089568,27.77777777777778,wmoUnit:degC,59,12,,,,,,,,
Floyd,34.07239775,-101.3033037,20.0,wmoUnit:degC,87,10,15256.580383300736,wmoUnit:m,,,,,,
Orange,30.12807126,-93.89653794,25.0,wmoUnit:degC,90,13,15932.504986084026,wmoUnit:m,,,,,,
Runnels,31.83105393,-99.97624799,26.11111111111111,wmoUnit:degC,67,36,,,,,,,,
Coleman,31.77329421,-99.45362579,26.11111111111111,wmoUnit:degC,72,17,,,,,,,,
Martin,32.30605847,-101.9512464,21.666666666666668,wmoUnit:degC,75,35,16093.44,wmoUnit:m,SV,A,,,,
Wheeler,35.40129002,-100.2697634,23.88888888888889,wmoUnit:degC,56,1,,,,,,,,
Culberson,31.44709817,-104.5177421,18.333333333333332,wmoUnit:degC,71,37,16093.44,wmoUnit:m,SV,A,,,,
Mitchell,32.30636024,-100.9211128,26.11111111111111,wmoUnit:degC,58,16,16093.44,wmoUnit:m,,,,,,
Hudspeth,31.45613738,-105.3869428,17.77777777777778,wmoUnit:degC,70,43,16093.44,wmoUnit:m,,,,,,
Upshur,32.7362827,-94.94132011,22.77777777777778,wmoUnit:degC,84,4,16093.44,wmoUnit:m,FA,A,Flood Watch,Severe,Future,2025-06-11T19:00:00-05:00
Liberty,30.15153187,-94.8120925,25.0,wmoUnit:degC,82,0,14548.469698608355,wmoUnit:m,,,Flood Warning,Severe,Immediate,2025-06-11T15:30:00-05:00
Williamson,30.64834941,-97.60105467,23.88888888888889,wmoUnit:degC,76,55,16093.44,wmoUnit:m,,,,,,
Nacogdoches,31.61604108,-94.6158776,21.666666666666668,wmoUnit:degC,97,7,16093.44,wmoUnit:m,FA,A,Flood Watch,Severe,Future,2025-06-11T19:00:00-05:00
Loving,31.84912973,-103.5799063,18.88888888888889,wmoUnit:degC,100,57,9656.064,wmoUnit:m,SV,A,,,,
Jim Wells,27.73131099,-98.0898649,34.44444444444444,wmoUnit:degC,54,11,16093.44,wmoUnit:m,,,,,,
Upton,31.36853957,-102.0430005,22.22222222222222,wmoUnit:degC,80,67,9656.064,wmoUnit:m,SV,A,,,,
Newton,30.78619977,-93.74462993,23.88888888888889,wmoUnit:degC,97,7,15610.636493041933,wmoUnit:m,,,,,,
Lamar,33.66746186,-95.57110784,25.0,wmoUnit:degC,79,1,16093.44,wmoUnit:m,,,,,,
Polk,30.79250963,-94.82994949,24.444444444444443,wmoUnit:degC,85,0,15063.459287475513,wmoUnit:m,,,Flood Warning,Severe,Immediate,2025-06-11T21:00:00-05:00
Collin,33.18789055,-96.57248871,25.0,wmoUnit:degC,79,4,16093.44,wmoUnit:m,,,,,,
Hardeman,34.28865227,-99.7453851,27.22222222222222,wmoUnit:degC,63,12,,,,,,,,
McMullen,28.35351091,-98.56842256,36.666666666666664,wmoUnit:degC,45,18,16093.44,wmoUnit:m,,,,,,
Cottle,34.0776571,-100.2786983,23.333333333333332,wmoUnit:degC,71,11,16077.34619165045,wmoUnit:m,,,,,,
Frio,28.86726774,-99.10826004,31.11111111111111,wmoUnit:degC,47,23,16093.44,wmoUnit:m,,,,,,
Gray,35.40130666,-100.812475,23.333333333333332,wmoUnit:degC,66,2,,,,,,,,
Dallam,36.27777107,-102.6021647,22.22222222222222,wmoUnit:degC,61,1,,,,,,,,
Kenedy,26.92409448,-97.68137783,27.22222222222222,wmoUnit:degC,92,0,,,,,,,,
Fort Bend,29.52763253,-95.77090562,29.444444444444443,wmoUnit:degC,70,0,15739.383890258803,wmoUnit:m,,,,,,
Armstrong,34.96522076,-101.3572412,22.22222222222222,wmoUnit:degC,66,13,,,,,,,,
Collingsworth,34.96498493,-100.2700733,25.555555555555557,wmoUnit:degC,50,5,,,,,,,,
Cass,33.07750446,-94.34348771,23.333333333333332,wmoUnit:degC,90,4,16093.44,wmoUnit:m,FA,A,Flood Watch,Severe,Future,2025-06-11T19:00:00-05:00
Sherman,36.27765824,-101.8933822,23.333333333333332,wmoUnit:degC,53,0,,,,,,,,
Terry,33.17373729,-102.335157,21.666666666666668,wmoUnit:degC,76,14,11860.865095825224,wmoUnit:m,,,,,,
Limestone,31.54541898,-96.58056718,22.77777777777778,wmoUnit:degC,87,4,16093.44,wmoUnit:m,FA,A,Flood Watch,Severe,Future,2025-06-11T13:00:00-05:00
Real,29.83182711,-99.82215881,26.666666666666668,wmoUnit:degC,49,14,16093.44,wmoUnit:m,SV,A,,,,
Lynn,33.17685487,-101.8160235,20.555555555555557,wmoUnit:degC,81,16,7563.916493041933,wmoUnit:m,,,,,,
Lavaca,29.38437003,-96.93020993,30.0,wmoUnit:degC,67,21,16093.44,wmoUnit:m,,,,,,
Nolan,32.3034718,-100.4060989,25.0,wmoUnit:degC,64,47,,,,,,,,
Gaines,32.74074537,-102.6351246,23.333333333333332,wmoUnit:degC,66,54,16093.44,wmoUnit:m,SV,A,,,,
Montgomery,30.30022409,-95.50301411,27.22222222222222,wmoUnit:degC,77,0,15755.477698608354,wmoUnit:m,,,,,,
Concho,31.32645211,-99.86413426,26.11111111111111,wmoUnit:degC,74,30,,,,,,,,
Hardin,30.33238431,-94.39021394,25.0,wmoUnit:degC,90,10,15385.32931530762,wmoUnit:m,,,,,,
Harris,29.85967144,-95.39782106,27.77777777777778,wmoUnit:degC,74,0,15497.982904174776,wmoUnit:m,,,,,,
Leon,31.29655719,-95.99554292,23.333333333333332,wmoUnit:degC,87,9,16093.44,wmoUnit:m,FA,A,Flood Watch,Severe,Future,2025-06-11T13:00:00-05:00
Bowie,33.44572786,-94.42324298,24.444444444444443,wmoUnit:degC,85,4,16093.44,wmoUnit:m,FA,A,Flood Watch,Severe,Future,2025-06-11T19:00:00-05:00
Kaufman,32.59927808,-96.28779341,23.333333333333332,wmoUnit:degC,90,4,16093.44,wmoUnit:m,FA,A,Flood Watch,Severe,Future,2025-06-11T13:00:00-05:00
Anderson,31.81321543,-95.65251774,21.666666666666668,wmoUnit:degC,100,7,16093.44,wmoUnit:m,FA,A,Flood Watch,Severe,Future,2025-06-11T13:00:00-05:00
San Saba,31.15520543,-98.81754295,25.555555555555557,wmoUnit:degC,79,17,,,,,,,,
Schleicher,30.89661056,-100.538097,26.11111111111111,wmoUnit:degC,62,74,,,,,,,,
Colorado,29.6208542,-96.52630821,28.333333333333332,wmoUnit:degC,72,0,15626.730301391646,wmoUnit:m,,,,,,
Milam,30.78625299,-96.97683495,24.444444444444443,wmoUnit:degC,85,9,16093.44,wmoUnit:m,FA,A,Flood Watch,Severe,Future,2025-06-11T13:00:00-05:00
Live Oak,28.3514375,-98.12474493,35.55555555555556,wmoUnit:degC,49,19,16093.44,wmoUnit:m,,,,,,
Borden,32.7436916,-101.4317533,22.77777777777778,wmoUnit:degC,71,11,16093.44,wmoUnit:m,SV,A,,,,
McCulloch,31.19896752,-99.34754972,25.555555555555557,wmoUnit:degC,76,20,,,,,,,,
Johnson,32.37899918,-97.36660504,23.88888888888889,wmoUnit:degC,84,6,16093.44,wmoUnit:m,FA,A,Flood Watch,Severe,Future,2025-06-11T13:00:00-05:00
Montague,33.67496328,-97.72466993,23.88888888888889,wmoUnit:degC,90,4,16093.44,wmoUnit:m,,,,,,
Stonewall,33.17842158,-100.255259,22.77777777777778,wmoUnit:degC,87,18,15160.02060278313,wmoUnit:m,,,,,,
Comal,29.80816362,-98.27814516,24.444444444444443,wmoUnit:degC,56,35,16093.44,wmoUnit:m,,,,,,
Eastland,32.32739258,-98.8325713,22.22222222222222,wmoUnit:degC,84,19,14468.002191650448,wmoUnit:m,,,,,,
Comanche,31.9490639,-98.55841538,22.22222222222222,wmoUnit:degC,93,16,16093.44,wmoUnit:m,FA,A,Flood Watch,Severe,Future,2025-06-11T13:00:00-05:00
King,33.61641863,-100.2558584,22.22222222222222,wmoUnit:degC,87,17,16093.44,wmoUnit:m,,,,,,
Washington,30.2145299,-96.40356575,26.666666666666668,wmoUnit:degC,74,0,15047.367013915973,wmoUnit:m,FA,A,Flood Watch,Severe,Future,2025-06-11T16:00:00-05:00
Webb,27.76102524,-99.33170164,37.22222222222222,wmoUnit:degC,38,14,16093.44,wmoUnit:m,,,Flood Advisory,Minor,Expected,2025-06-11T07:00:00-05:00
Fayette,29.87683207,-96.91968047,26.11111111111111,wmoUnit:degC,80,27,16093.44,wmoUnit:m,,,,,,
Harrison,32.54814898,-94.37155736,22.22222222222222,wmoUnit:degC,100,7,16093.44,wmoUnit:m,FA,A,Flood Watch,Severe,Future,2025-06-11T19:00:00-05:00
Presidio,29.99977786,-104.2405552,21.666666666666668,wmoUnit:degC,53,27,16093.44,wmoUnit:m,SV,A,,,,
Austin,29.88711223,-96.27791829,27.22222222222222,wmoUnit:degC,79,0,15320.955616699264,wmoUnit:m,,,,,,
Randall,34.96594288,-101.8968527,22.77777777777778,wmoUnit:degC,66,11,,,,,,,,
Hood,32.43107878,-97.83280338,23.88888888888889,wmoUnit:degC,79,5,16093.44,wmoUnit:m,FA,A,Flood Watch,Severe,Future,2025-06-11T13:00:00-05:00
Victoria,28.79640594,-96.97176602,32.22222222222222,wmoUnit:degC,63,13,16093.44,wmoUnit:m,,,,,,
Hutchinson,35.84000866,-101.3547257,24.444444444444443,wmoUnit:degC,60,0,,,,,,,,
Coryell,31.39087578,-97.7991883,23.333333333333332,wmoUnit:degC,87,6,16093.44,wmoUnit:m,FA,A,Flash Flood Warning,Severe,Immediate,2025-06-11T06:30:00-05:00
Jackson,28.95603133,-96.57883268,28.333333333333332,wmoUnit:degC,85,0,15739.383890258803,wmoUnit:m,,,,,,
Taylor,32.30138229,-99.89003941,25.0,wmoUnit:degC,71,34,,,,,,,,
Zapata,27.00089072,-99.16860134,31.11111111111111,wmoUnit:degC,63,2,,,,,Flood Advisory,Minor,Expected,2025-06-11T05:15:00-05:00
San Patricio,28.00922186,-97.51859857,33.333333333333336,wmoUnit:degC,65,10,16093.44,wmoUnit:m,,,,,,
Grimes,30.54360689,-95.98557334,25.555555555555557,wmoUnit:degC,88,0,15964.69260278313,wmoUnit:m,FA,A,Flood Watch,Severe,Future,2025-06-11T16:00:00-05:00
Lamb,34.06861242,-102.3517095,21.11111111111111,wmoUnit:degC,78,8,16093.44,wmoUnit:m,,,,,,
