countyName,latitude,longitude,temperature,temperature_unit,relativeHumidity,precipitationProbability,visibility,visibility_unit,hazard_phenomenon,hazard_significance,alert_event,alert_severity,alert_urgency,alert_expires
Foard,33.97408519,-99.77871109,30.0,wmoUnit:degC,25,0,,,,,,,,
Blanco,30.26636128,-98.39974086,26.666666666666668,wmoUnit:degC,77,5,16093.44,wmoUnit:m,,,,,,
Hockley,33.60750375,-102.3430919,18.88888888888889,wmoUnit:degC,27,0,16093.44,wmoUnit:m,,,,,,
Llano,30.70566579,-98.68387398,25.555555555555557,wmoUnit:degC,85,7,16093.44,wmoUnit:m,,,,,,
Swisher,34.53064989,-101.734951,18.333333333333332,wmoUnit:degC,35,0,16093.44,wmoUnit:m,,,,,,
Titus,33.2160906,-94.96509786,23.88888888888889,wmoUnit:degC,100,28,11265.408,wmoUnit:m,,,,,,
Navarro,32.04695429,-96.47248134,25.0,wmoUnit:degC,76,25,15304.861808349551,wmoUnit:m,,,,,,
Brazoria,29.19345387,-95.45578479,26.666666666666668,wmoUnit:degC,85,0,16093.44,wmoUnit:m,,,Rip Current Statement,Moderate,Expected,2025-05-17T10:00:00-05:00
Hidalgo,26.396627,-98.18088681,26.666666666666668,wmoUnit:degC,89,0,,,,,,,,
Archer,33.61539176,-98.68783437,29.444444444444443,wmoUnit:degC,33,0,,,,,,,,
Refugio,28.32681413,-97.16546961,26.11111111111111,wmoUnit:degC,91,0,10010.119342346272,wmoUnit:m,,,,,,
Andrews,32.30506283,-102.6378839,23.333333333333332,wmoUnit:degC,14,0,16093.44,wmoUnit:m,,,,,,
Galveston,29.39424415,-94.96474975,26.666666666666668,wmoUnit:degC,85,0,16093.44,wmoUnit:m,,,Rip Current Statement,Moderate,Expected,2025-05-17T10:00:00-05:00
De Witt,29.08201599,-97.35666976,26.666666666666668,wmoUnit:degC,83,0,11265.408,wmoUnit:m,,,,,,
Gonzales,29.45641495,-97.49279927,26.666666666666668,wmoUnit:degC,86,1,14564.563506958068,wmoUnit:m,,,,,,
Wharton,29.2778362,-96.22197375,26.666666666666668,wmoUnit:degC,82,1,16093.44,wmoUnit:m,,,,,,
Fannin,33.59396919,-96.10656755,22.77777777777778,wmoUnit:degC,93,24,13293.181808349551,wmoUnit:m,,,,,,
Madison,30.96564645,-95.92818441,27.22222222222222,wmoUnit:degC,72,21,16093.44,wmoUnit:m,,,,,,
Moore,35.83768863,-101.8929556,14.444444444444445,wmoUnit:degC,51,0,,,,,,,,
Tyler,30.7712607,-94.37651432,25.0,wmoUnit:degC,90,2,9559.503452087469,wmoUnit:m,,,Flood Warning,Severe,Immediate,2025-05-17T22:45:00-05:00
Lipscomb,36.27778432,-100.27317,18.88888888888889,wmoUnit:degC,40,0,,,,,,,,
Burleson,30.49246139,-96.62109399,28.333333333333332,wmoUnit:degC,70,21,16093.44,wmoUnit:m,,,,,,
Jim Hogg,27.04340499,-98.6972921,26.666666666666668,wmoUnit:degC,86,1,,,,,,,,
Throckmorton,33.17753907,-99.21236832,21.11111111111111,wmoUnit:degC,66,0,16093.44,wmoUnit:m,,,,,,
Kleberg,27.43274395,-97.72889778,27.22222222222222,wmoUnit:degC,91,0,13325.367890258804,wmoUnit:m,,,,,,
Shelby,31.79242191,-94.14495261,25.0,wmoUnit:degC,85,22,16093.44,wmoUnit:m,,,,,,
Garza,33.17991074,-101.2984496,18.88888888888889,wmoUnit:degC,45,0,16093.44,wmoUnit:m,,,,,,
Karnes,28.90493782,-97.85960621,26.666666666666668,wmoUnit:degC,85,1,14548.469698608355,wmoUnit:m,,,,,,
Reeves,31.32307061,-103.693143,24.444444444444443,wmoUnit:degC,10,0,16093.44,wmoUnit:m,FW,A,Fire Weather Watch,Severe,Future,2025-05-17T13:45:00-05:00
Houston,31.31764137,-95.42225367,26.666666666666668,wmoUnit:degC,79,21,16093.44,wmoUnit:m,,,Flood Warning,Severe,Immediate,2025-05-17T22:45:00-05:00
El Paso,31.7686226,-106.2352229,25.0,wmoUnit:degC,9,0,16093.44,wmoUnit:m,FW,W,Red Flag Warning,Severe,Expected,2025-05-17T20:00:00-06:00
Carson,35.40346802,-101.3542037,18.88888888888889,wmoUnit:degC,43,0,,,,,,,,
Medina,29.35520493,-99.11008331,28.88888888888889,wmoUnit:degC,77,7,16093.44,wmoUnit:m,,,,,,
Wichita,33.98421585,-98.70153389,28.88888888888889,wmoUnit:degC,31,0,,,,,,,,
Chambers,29.73912276,-94.60891308,27.22222222222222,wmoUnit:degC,85,1,16093.44,wmoUnit:m,,,Flood Warning,Severe,Immediate,2025-05-17T16:00:00-05:00
Donley,34.96540246,-100.8140501,19.444444444444443,wmoUnit:degC,47,0,,,,,,,,
Hopkins,33.14933822,-95.56414173,25.555555555555557,wmoUnit:degC,91,42,11265.408,wmoUnit:m,,,,,,
Lampasas,31.19627791,-98.24142711,25.0,wmoUnit:degC,82,16,15481.889095825225,wmoUnit:m,,,,,,
Falls,31.25317017,-96.93579511,28.333333333333332,wmoUnit:degC,74,43,16093.44,wmoUnit:m,,,,,,
Stephens,32.73584155,-98.83612016,23.88888888888889,wmoUnit:degC,54,0,16093.44,wmoUnit:m,,,,,,
Travis,30.33423319,-97.78194654,27.77777777777778,wmoUnit:degC,79,10,16093.44,wmoUnit:m,,,,,,
Roberts,35.8385577,-100.8135689,16.666666666666668,wmoUnit:degC,52,0,,,,,,,,
Crosby,33.61459873,-101.2998612,20.0,wmoUnit:degC,39,0,16093.44,wmoUnit:m,,,,,,
Kerr,30.06153035,-99.35016969,26.666666666666668,wmoUnit:degC,61,6,16093.44,wmoUnit:m,,,,,,
Wood,32.78634374,-95.38206498,26.666666666666668,wmoUnit:degC,82,30,14548.469698608355,wmoUnit:m,,,Flood Warning,Severe,Immediate,2025-05-17T22:45:00-05:00
Jack,33.23345819,-98.1725509,20.555555555555557,wmoUnit:degC,76,0,16093.44,wmoUnit:m,,,,,,
Marion,32.79797929,-94.35725239,26.11111111111111,wmoUnit:degC,91,30,12746.00460278313,wmoUnit:m,,,,,,
Hale,34.07051782,-101.8269082,17.77777777777778,wmoUnit:degC,35,0,16093.44,wmoUnit:m,,,,,,
Jeff Davis,30.71559322,-104.1403539,17.77777777777778,wmoUnit:degC,13,0,16093.44,wmoUnit:m,FW,A,Fire Weather Watch,Severe,Future,2025-05-17T13:45:00-05:00
Tarrant,32.77185236,-97.29116473,23.88888888888889,wmoUnit:degC,79,10,15353.141698608355,wmoUnit:m,,,,,,
Waller,30.01093722,-95.98768942,28.333333333333332,wmoUnit:degC,70,1,16093.44,wmoUnit:m,,,,,,
Reagan,31.36617698,-101.5230108,23.88888888888889,wmoUnit:degC,15,0,16093.44,wmoUnit:m,,,,,,
Smith,32.37514553,-95.26909511,27.22222222222222,wmoUnit:degC,85,30,16093.44,wmoUnit:m,,,Flood Warning,Severe,Immediate,2025-05-17T22:45:00-05:00
Van Zandt,32.56368961,-95.8364862,25.0,wmoUnit:degC,85,37,13164.434411132843,wmoUnit:m,,,,,,
Cooke,33.638465,-97.21247642,20.555555555555557,wmoUnit:degC,76,4,16029.066301391646,wmoUnit:m,,,,,,
Zavala,28.86530621,-99.76102001,30.0,wmoUnit:degC,74,10,16093.44,wmoUnit:m,,,,,,
Hall,34.53074134,-100.6809876,18.88888888888889,wmoUnit:degC,47,0,16093.44,wmoUnit:m,,,,,,
Kendall,29.9446397,-98.71160511,25.555555555555557,wmoUnit:degC,82,6,16093.44,wmoUnit:m,,,,,,
Goliad,28.65708563,-97.42646082,25.555555555555557,wmoUnit:degC,91,0,14065.666191650449,wmoUnit:m,,,,,,
Yoakum,33.17293501,-102.8278792,20.555555555555557,wmoUnit:degC,21,0,16093.44,wmoUnit:m,,,,,,
Knox,33.60614755,-99.74144313,30.0,wmoUnit:degC,24,0,,,,,,,,
McLennan,31.55234489,-97.20184883,27.77777777777778,wmoUnit:degC,74,39,16093.44,wmoUnit:m,,,,,,
Brewster,29.81205836,-103.2518906,27.77777777777778,wmoUnit:degC,10,0,16093.44,wmoUnit:m,,,Fire Weather Watch,Severe,Future,2025-05-17T13:45:00-05:00
Panola,32.16222886,-94.30552858,26.666666666666668,wmoUnit:degC,82,30,16093.44,wmoUnit:m,,,,,,
Bandera,29.74724753,-99.24637282,26.11111111111111,wmoUnit:degC,74,7,16093.44,wmoUnit:m,,,,,,
Parmer,34.53014507,-102.784594,12.777777777777779,wmoUnit:degC,51,0,16093.44,wmoUnit:m,,,,,,
Rockwall,32.89786769,-96.40780584,25.555555555555557,wmoUnit:degC,85,30,11265.408,wmoUnit:m,,,,,,
Trinity,31.0885069,-95.13551682,26.666666666666668,wmoUnit:degC,79,4,16093.44,wmoUnit:m,,,Flood Warning,Severe,Immediate,2025-05-17T22:45:00-05:00
Bosque,31.90050476,-97.63437613,24.444444444444443,wmoUnit:degC,90,18,16093.44,wmoUnit:m,,,,,,
Coke,31.88849293,-100.5298747,21.666666666666668,wmoUnit:degC,42,0,16093.44,wmoUnit:m,,,,,,
Franklin,33.17550691,-95.21841437,23.88888888888889,wmoUnit:degC,97,28,11265.408,wmoUnit:m,,,,,,
Hill,31.99079033,-97.1324142,25.0,wmoUnit:degC,97,26,16077.34619165045,wmoUnit:m,,,,,,
Calhoun,28.48966896,-96.64708119,26.666666666666668,wmoUnit:degC,97,0,13550.67660278313,wmoUnit:m,,,,,,
Irion,31.30393203,-100.9824126,23.333333333333332,wmoUnit:degC,50,1,16093.44,wmoUnit:m,,,,,,
Midland,31.86921148,-102.0315032,25.0,wmoUnit:degC,14,0,16093.44,wmoUnit:m,,,,,,
Brown,31.77432313,-98.99989649,23.88888888888889,wmoUnit:degC,64,3,16093.44,wmoUnit:m,,,,,,
Wilson,29.17315896,-98.08621015,27.77777777777778,wmoUnit:degC,83,3,16093.44,wmoUnit:m,,,,,,
Oldham,35.40497586,-102.6029949,18.88888888888889,wmoUnit:degC,47,0,,,,,,,,
Freestone,31.70486443,-96.14918535,26.666666666666668,wmoUnit:degC,77,28,16029.066301391646,wmoUnit:m,,,,,,
Sabine,31.34321941,-93.85170439,25.555555555555557,wmoUnit:degC,91,11,11265.408,wmoUnit:m,,,,,,
Deaf Smith,34.96602014,-102.6048162,19.444444444444443,wmoUnit:degC,37,0,,,,,,,,
Angelina,31.25475875,-94.611742,26.11111111111111,wmoUnit:degC,91,13,16093.44,wmoUnit:m,,,Flood Warning,Severe,Immediate,2025-05-17T22:45:00-05:00
Kent,33.18284492,-100.7791031,18.88888888888889,wmoUnit:degC,50,0,16093.44,wmoUnit:m,,,,,,
Red River,33.62074539,-95.0501886,24.444444444444443,wmoUnit:degC,97,20,11265.408,wmoUnit:m,,,,,,
Kinney,29.35000302,-100.4178441,30.0,wmoUnit:degC,42,8,16093.44,wmoUnit:m,,,,,,
Denton,33.205574,-97.11681154,24.444444444444443,wmoUnit:degC,66,9,15047.367013915973,wmoUnit:m,,,,,,
Sutton,30.49747152,-100.5382263,23.88888888888889,wmoUnit:degC,54,2,16093.44,wmoUnit:m,,,,,,
Guadalupe,29.58257236,-97.94850308,27.22222222222222,wmoUnit:degC,84,2,16093.44,wmoUnit:m,,,,,,
Winkler,31.85008609,-103.0484794,23.88888888888889,wmoUnit:degC,13,0,16093.44,wmoUnit:m,,,,,,
Dimmit,28.42161168,-99.760574,30.0,wmoUnit:degC,68,5,16093.44,wmoUnit:m,,,,,,
Wise,33.21585061,-97.65444124,20.0,wmoUnit:degC,84,2,16077.34619165045,wmoUnit:m,,,,,,
Hemphill,35.83750155,-100.2704628,20.0,wmoUnit:degC,42,0,,,,,,,,
Potter,35.40128927,-101.8940484,21.666666666666668,wmoUnit:degC,36,0,,,,,,,,
Childress,34.52929257,-100.2075664,19.444444444444443,wmoUnit:degC,47,0,16093.44,wmoUnit:m,,,,,,
Willacy,26.47132899,-97.64303323,26.11111111111111,wmoUnit:degC,94,0,,,,,,,,
Bastrop,30.10353518,-97.31187705,26.666666666666668,wmoUnit:degC,88,7,16093.44,wmoUnit:m,,,,,,
Kimble,30.48676251,-99.74892716,25.0,wmoUnit:degC,56,3,16093.44,wmoUnit:m,,,,,,
Scurry,32.74720063,-100.9165071,22.22222222222222,wmoUnit:degC,30,0,16093.44,wmoUnit:m,,,,,,
Ochiltree,36.27846334,-100.815653,16.11111111111111,wmoUnit:degC,53,0,,,,,,,,
Hansford,36.27753179,-101.3545624,17.22222222222222,wmoUnit:degC,35,0,,,,,,,,
Hartley,35.83996755,-102.6028835,17.77777777777778,wmoUnit:degC,33,0,,,,,,,,
Cameron,26.13847728,-97.51499968,26.666666666666668,wmoUnit:degC,92,0,,,,,,,,
Matagorda,28.86711039,-95.98533866,27.77777777777778,wmoUnit:degC,85,0,16093.44,wmoUnit:m,,,Rip Current Statement,Moderate,Expected,2025-05-17T10:00:00-05:00
Burnet,30.78843382,-98.18252382,23.333333333333332,wmoUnit:degC,95,13,16093.44,wmoUnit:m,,,,,,
Rains,32.87004212,-95.79347545,25.0,wmoUnit:degC,94,46,11458.529095825224,wmoUnit:m,,,,,,
Hays,30.05782657,-98.03104087,27.22222222222222,wmoUnit:degC,84,6,16093.44,wmoUnit:m,,,,,,
Mason,30.71742293,-99.2263026,24.444444444444443,wmoUnit:degC,76,4,16093.44,wmoUnit:m,,,,,,
Ward,31.509424,-103.1024636,25.555555555555557,wmoUnit:degC,11,0,16093.44,wmoUnit:m,,,,,,
Delta,33.38623601,-95.67221685,25.0,wmoUnit:degC,94,33,11265.408,wmoUnit:m,,,,,,
Nueces,27.72621549,-97.61767326,27.22222222222222,wmoUnit:degC,88,0,14661.123287475511,wmoUnit:m,,,,,,
Callahan,32.2977738,-99.37359692,23.333333333333332,wmoUnit:degC,44,0,16093.44,wmoUnit:m,,,,,,
Bell,31.03778267,-97.47790776,27.22222222222222,wmoUnit:degC,74,36,16045.160109741197,wmoUnit:m,,,,,,
Cherokee,31.83695632,-95.16515234,26.11111111111111,wmoUnit:degC,88,28,16093.44,wmoUnit:m,,,Flood Warning,Severe,Immediate,2025-05-17T22:45:00-05:00
Ellis,32.34839264,-96.79467417,22.77777777777778,wmoUnit:degC,100,19,14645.031013915974,wmoUnit:m,,,,,,
Lubbock,33.6101944,-101.8205745,20.555555555555557,wmoUnit:degC,25,0,16093.44,wmoUnit:m,,,,,,
Terrell,30.22502597,-102.0764533,26.666666666666668,wmoUnit:degC,15,0,16093.44,wmoUnit:m,,,,,,
Crockett,30.72291931,-101.4118364,23.333333333333332,wmoUnit:degC,38,2,16093.44,wmoUnit:m,,,,,,
Atascosa,28.89418432,-98.52741302,27.22222222222222,wmoUnit:degC,87,4,16093.44,wmoUnit:m,,,,,,
Ector,31.86908156,-102.5430907,25.0,wmoUnit:degC,13,0,16093.44,wmoUnit:m,,,,,,
Brazos,30.6610425,-96.3022943,28.333333333333332,wmoUnit:degC,72,21,16093.44,wmoUnit:m,,,,,,
Aransas,28.12709562,-96.99258951,26.666666666666668,wmoUnit:degC,97,0,8497.336657653728,wmoUnit:m,,,,,,
Dallas,32.76653746,-96.77781862,23.88888888888889,wmoUnit:degC,94,18,12053.986191650449,wmoUnit:m,,,,,,
Howard,32.30610232,-101.4355097,25.0,wmoUnit:degC,18,0,16093.44,wmoUnit:m,,,,,,
Motley,34.07409017,-100.7798961,17.22222222222222,wmoUnit:degC,58,0,16093.44,wmoUnit:m,,,,,,
San Augustine,31.39427005,-94.16809762,26.11111111111111,wmoUnit:degC,88,14,12778.191452087469,wmoUnit:m,,,,,,
Maverick,28.74260943,-100.3144638,31.11111111111111,wmoUnit:degC,54,18,16093.44,wmoUnit:m,,,,,,
Erath,32.23640361,-98.21722756,24.444444444444443,wmoUnit:degC,66,4,16093.44,wmoUnit:m,,,,,,
Dickens,33.61663428,-100.7788138,16.666666666666668,wmoUnit:degC,60,0,16093.44,wmoUnit:m,,,,,,
Caldwell,29.83677935,-97.61983479,26.666666666666668,wmoUnit:degC,89,5,16093.44,wmoUnit:m,,,,,,
Dawson,32.74258137,-101.9476136,22.77777777777778,wmoUnit:degC,17,0,16093.44,wmoUnit:m,,,,,,
Camp,32.97321771,-94.97860185,25.0,wmoUnit:degC,90,30,11265.408,wmoUnit:m,,,,,,
Duval,27.68133382,-98.50889672,27.77777777777778,wmoUnit:degC,82,2,14628.93720556642,wmoUnit:m,,,,,,
Hunt,33.123531,-96.08550014,24.444444444444443,wmoUnit:degC,97,34,11265.408,wmoUnit:m,,,,,,
Mills,31.49524259,-98.59552736,23.88888888888889,wmoUnit:degC,76,6,16077.34619165045,wmoUnit:m,,,,,,
Val Verde,29.89300587,-101.15171,27.22222222222222,wmoUnit:degC,27,1,16093.44,wmoUnit:m,,,,,,
Pecos,30.78100044,-102.7235743,25.0,wmoUnit:degC,13,0,16093.44,wmoUnit:m,,,,,,
Baylor,33.61648147,-99.21351964,29.444444444444443,wmoUnit:degC,28,0,,,,,,,,
Gregg,32.48036452,-94.81723694,27.22222222222222,wmoUnit:degC,79,30,16093.44,wmoUnit:m,,,Flood Warning,Severe,Immediate,2025-05-17T22:45:00-05:00
Cochran,33.60410808,-102.8285264,17.22222222222222,wmoUnit:degC,28,0,16093.44,wmoUnit:m,,,,,,
Jasper,30.74391255,-94.02495849,25.555555555555557,wmoUnit:degC,91,3,9543.409643737756,wmoUnit:m,,,,,,
Hamilton,31.70479181,-98.11066654,23.88888888888889,wmoUnit:degC,82,12,16093.44,wmoUnit:m,,,,,,
Castro,34.53000304,-102.2617608,16.11111111111111,wmoUnit:degC,42,0,16093.44,wmoUnit:m,,,,,,
Sterling,31.82786516,-101.0500699,21.666666666666668,wmoUnit:degC,32,0,16093.44,wmoUnit:m,,,,,,
Starr,26.56212627,-98.73834895,26.666666666666668,wmoUnit:degC,87,1,,,,,,,,
Crane,31.42846287,-102.5156425,26.666666666666668,wmoUnit:degC,13,0,16093.44,wmoUnit:m,,,,,,
Morris,33.11368507,-94.73205137,25.555555555555557,wmoUnit:degC,94,30,11265.408,wmoUnit:m,,,,,,
Briscoe,34.53041048,-101.2085769,18.333333333333332,wmoUnit:degC,45,0,16093.44,wmoUnit:m,,,,,,
Tom Green,31.4044442,-100.4620678,23.333333333333332,wmoUnit:degC,44,0,16093.44,wmoUnit:m,,,,,,
Menard,30.88981785,-99.82061472,23.333333333333332,wmoUnit:degC,66,2,16093.44,wmoUnit:m,,,,,,
Parker,32.77852261,-97.80472194,23.333333333333332,wmoUnit:degC,74,4,16077.34619165045,wmoUnit:m,,,,,,
Walker,30.73899492,-95.57224172,27.77777777777778,wmoUnit:degC,72,5,16093.44,wmoUnit:m,,,Flood Warning,Severe,Immediate,2025-05-17T16:00:00-05:00
Brooks,27.0315669,-98.21874127,26.666666666666668,wmoUnit:degC,87,1,,,,,,,,
La Salle,28.34621032,-99.1034773,31.666666666666668,wmoUnit:degC,64,3,16061.252383300736,wmoUnit:m,,,,,,
Edwards,29.98248216,-100.3048937,26.666666666666668,wmoUnit:degC,30,3,16093.44,wmoUnit:m,,,,,,
Lee,30.31065065,-96.96568735,26.11111111111111,wmoUnit:degC,83,14,16093.44,wmoUnit:m,,,,,,
Robertson,31.02705415,-96.51272568,27.22222222222222,wmoUnit:degC,79,35,16093.44,wmoUnit:m,,,,,,
Young,33.17670764,-98.68781396,22.77777777777778,wmoUnit:degC,66,0,16093.44,wmoUnit:m,,,,,,
Bee,28.41736675,-97.74116811,26.11111111111111,wmoUnit:degC,88,0,14451.908383300735,wmoUnit:m,,,,,,
Clay,33.78379717,-98.208958,28.88888888888889,wmoUnit:degC,37,0,,,,,,,,
San Jacinto,30.57948905,-95.16683273,25.555555555555557,wmoUnit:degC,85,1,16093.44,wmoUnit:m,,,Flood Warning,Severe,Immediate,2025-05-17T16:00:00-05:00
Uvalde,29.35669829,-99.76203107,27.77777777777778,wmoUnit:degC,68,9,16093.44,wmoUnit:m,,,,,,
Haskell,33.17824805,-99.73029401,21.666666666666668,wmoUnit:degC,55,0,16093.44,wmoUnit:m,,,,,,
Somervell,32.22229511,-97.77456553,23.88888888888889,wmoUnit:degC,90,9,16093.44,wmoUnit:m,,,,,,
Bexar,29.44884523,-98.51966309,28.88888888888889,wmoUnit:degC,80,3,16093.44,wmoUnit:m,,,,,,
Grayson,33.62684371,-96.67764864,22.77777777777778,wmoUnit:degC,79,13,15272.674191650449,wmoUnit:m,,,,,,
Bailey,34.0684915,-102.8299069,16.666666666666668,wmoUnit:degC,34,0,16093.44,wmoUnit:m,,,,,,
Jones,32.73970429,-99.87850599,22.77777777777778,wmoUnit:degC,46,0,16093.44,wmoUnit:m,,,,,,
Jefferson,29.88425832,-94.1708778,25.555555555555557,wmoUnit:degC,94,1,16093.44,wmoUnit:m,,,,,,
Rusk,32.10803224,-94.76169577,26.666666666666668,wmoUnit:degC,82,30,16093.44,wmoUnit:m,,,,,,
Glasscock,31.8694238,-101.520742,23.88888888888889,wmoUnit:degC,15,0,16093.44,wmoUnit:m,,,,,,
Gillespie,30.31800246,-98.94627245,25.555555555555557,wmoUnit:degC,79,6,16093.44,wmoUnit:m,,,,,,
Fisher,32.74305155,-100.4019503,21.666666666666668,wmoUnit:degC,46,0,16093.44,wmoUnit:m,,,,,,
Henderson,32.21188078,-95.85356847,24.444444444444443,wmoUnit:degC,85,26,14902.525808349552,wmoUnit:m,,,,,,
Shackelford,32.7360276,-99.35403034,23.333333333333332,wmoUnit:degC,51,0,16093.44,wmoUnit:m,,,,,,
Palo Pinto,32.75316856,-98.31299522,23.333333333333332,wmoUnit:degC,59,1,16093.44,wmoUnit:m,,,,,,
Wilbarger,34.08044953,-99.24089568,28.88888888888889,wmoUnit:degC,29,0,,,,,,,,
Floyd,34.07239775,-101.3033037,14.444444444444445,wmoUnit:degC,67,0,16093.44,wmoUnit:m,,,,,,
Orange,30.12807126,-93.89653794,25.555555555555557,wmoUnit:degC,91,1,16093.44,wmoUnit:m,,,Flood Warning,Severe,Immediate,2025-05-17T22:30:00-05:00
Runnels,31.83105393,-99.97624799,22.77777777777778,wmoUnit:degC,49,0,16093.44,wmoUnit:m,,,,,,
Coleman,31.77329421,-99.45362579,24.444444444444443,wmoUnit:degC,46,0,16093.44,wmoUnit:m,,,,,,
Martin,32.30605847,-101.9512464,25.0,wmoUnit:degC,15,0,16093.44,wmoUnit:m,,,,,,
Wheeler,35.40129002,-100.2697634,21.666666666666668,wmoUnit:degC,38,0,,,,,,,,
Culberson,31.44709817,-104.5177421,21.11111111111111,wmoUnit:degC,10,0,16093.44,wmoUnit:m,FW,A,High Wind Watch,Severe,Future,2025-05-17T12:15:00-06:00
Mitchell,32.30636024,-100.9211128,24.444444444444443,wmoUnit:degC,27,0,16093.44,wmoUnit:m,,,,,,
Hudspeth,31.45613738,-105.3869428,19.444444444444443,wmoUnit:degC,13,0,16093.44,wmoUnit:m,FW,W,Red Flag Warning,Severe,Expected,2025-05-17T20:00:00-06:00
Upshur,32.7362827,-94.94132011,26.11111111111111,wmoUnit:degC,85,30,11265.408,wmoUnit:m,,,Flood Warning,Severe,Immediate,2025-05-17T22:45:00-05:00
Liberty,30.15153187,-94.8120925,26.11111111111111,wmoUnit:degC,85,1,16093.44,wmoUnit:m,,,Flood Warning,Severe,Immediate,2025-05-17T16:00:00-05:00
Williamson,30.64834941,-97.60105467,26.11111111111111,wmoUnit:degC,86,16,16093.44,wmoUnit:m,,,,,,
Nacogdoches,31.61604108,-94.6158776,26.11111111111111,wmoUnit:degC,88,20,16093.44,wmoUnit:m,,,Flood Warning,Severe,Immediate,2025-05-17T22:45:00-05:00
Loving,31.84912973,-103.5799063,25.0,wmoUnit:degC,12,0,16093.44,wmoUnit:m,FW,A,,,,
Jim Wells,27.73131099,-98.0898649,26.666666666666668,wmoUnit:degC,91,1,14081.76,wmoUnit:m,,,,,,
Upton,31.36853957,-102.0430005,26.11111111111111,wmoUnit:degC,12,0,16093.44,wmoUnit:m,,,,,,
Newton,30.78619977,-93.74462993,25.0,wmoUnit:degC,94,2,9559.503452087469,wmoUnit:m,,,Flood Warning,Severe,Immediate,2025-05-17T22:30:00-05:00
Lamar,33.66746186,-95.57110784,24.444444444444443,wmoUnit:degC,87,27,11265.408,wmoUnit:m,,,,,,
Polk,30.79250963,-94.82994949,26.666666666666668,wmoUnit:degC,79,2,16093.44,wmoUnit:m,,,Flood Warning,Severe,Immediate,2025-05-17T22:45:00-05:00
Collin,33.18789055,-96.57248871,26.11111111111111,wmoUnit:degC,82,22,11297.594849304178,wmoUnit:m,,,,,,
Hardeman,34.28865227,-99.7453851,28.88888888888889,wmoUnit:degC,26,0,,,,,,,,
McMullen,28.35351091,-98.56842256,28.88888888888889,wmoUnit:degC,77,3,15304.861808349551,wmoUnit:m,,,,,,
Cottle,34.0776571,-100.2786983,19.444444444444443,wmoUnit:degC,47,0,16093.44,wmoUnit:m,,,,,,
Frio,28.86726774,-99.10826004,30.0,wmoUnit:degC,80,6,16093.44,wmoUnit:m,,,,,,
Gray,35.40130666,-100.812475,20.0,wmoUnit:degC,37,0,,,,,,,,
Dallam,36.27777107,-102.6021647,16.11111111111111,wmoUnit:degC,39,0,,,,,,,,
Kenedy,26.92409448,-97.68137783,25.555555555555557,wmoUnit:degC,95,0,,,,,,,,
Fort Bend,29.52763253,-95.77090562,27.22222222222222,wmoUnit:degC,77,1,16093.44,wmoUnit:m,,,,,,
Armstrong,34.96522076,-101.3572412,20.0,wmoUnit:degC,33,0,,,,,,,,
Collingsworth,34.96498493,-100.2700733,23.88888888888889,wmoUnit:degC,31,0,,,,,,,,
Cass,33.07750446,-94.34348771,26.11111111111111,wmoUnit:degC,88,30,11265.408,wmoUnit:m,,,,,,
Sherman,36.27765824,-101.8933822,15.0,wmoUnit:degC,45,0,,,,,,,,
Terry,33.17373729,-102.335157,18.88888888888889,wmoUnit:degC,30,0,16093.44,wmoUnit:m,,,,,,
Limestone,31.54541898,-96.58056718,26.666666666666668,wmoUnit:degC,79,28,16093.44,wmoUnit:m,,,,,,
Real,29.83182711,-99.82215881,26.666666666666668,wmoUnit:degC,52,8,16093.44,wmoUnit:m,,,,,,
Lynn,33.17685487,-101.8160235,20.0,wmoUnit:degC,25,0,16093.44,wmoUnit:m,,,,,,
Lavaca,29.38437003,-96.93020993,26.11111111111111,wmoUnit:degC,90,0,11265.408,wmoUnit:m,,,,,,
Nolan,32.3034718,-100.4060989,21.666666666666668,wmoUnit:degC,44,0,16093.44,wmoUnit:m,,,,,,
Gaines,32.74074537,-102.6351246,21.11111111111111,wmoUnit:degC,17,0,16093.44,wmoUnit:m,,,,,,
Montgomery,30.30022409,-95.50301411,28.333333333333332,wmoUnit:degC,70,1,16093.44,wmoUnit:m,,,,,,
Concho,31.32645211,-99.86413426,25.0,wmoUnit:degC,42,2,16093.44,wmoUnit:m,,,,,,
Hardin,30.33238431,-94.39021394,25.555555555555557,wmoUnit:degC,91,3,12746.00460278313,wmoUnit:m,,,,,,
Harris,29.85967144,-95.39782106,28.333333333333332,wmoUnit:degC,72,1,16093.44,wmoUnit:m,,,,,,
Leon,31.29655719,-95.99554292,28.333333333333332,wmoUnit:degC,72,31,16093.44,wmoUnit:m,,,,,,
Bowie,33.44572786,-94.42324298,25.0,wmoUnit:degC,97,27,11265.408,wmoUnit:m,,,,,,
Kaufman,32.59927808,-96.28779341,25.555555555555557,wmoUnit:degC,88,32,11265.408,wmoUnit:m,,,,,,
Anderson,31.81321543,-95.65251774,26.666666666666668,wmoUnit:degC,85,38,15980.786411132844,wmoUnit:m,,,Flood Warning,Severe,Immediate,2025-05-17T22:45:00-05:00
San Saba,31.15520543,-98.81754295,24.444444444444443,wmoUnit:degC,71,5,16093.44,wmoUnit:m,,,,,,
Schleicher,30.89661056,-100.538097,23.88888888888889,wmoUnit:degC,56,0,16093.44,wmoUnit:m,,,,,,
Colorado,29.6208542,-96.52630821,26.11111111111111,wmoUnit:degC,85,1,16093.44,wmoUnit:m,,,,,,
Milam,30.78625299,-96.97683495,28.333333333333332,wmoUnit:degC,74,29,16061.252383300736,wmoUnit:m,,,,,,
Live Oak,28.3514375,-98.12474493,27.22222222222222,wmoUnit:degC,85,0,13727.703890258803,wmoUnit:m,,,,,,
Borden,32.7436916,-101.4317533,23.333333333333332,wmoUnit:degC,22,0,16093.44,wmoUnit:m,,,,,,
McCulloch,31.19896752,-99.34754972,25.0,wmoUnit:degC,69,4,16093.44,wmoUnit:m,,,,,,
Johnson,32.37899918,-97.36660504,22.77777777777778,wmoUnit:degC,84,11,15900.318904174776,wmoUnit:m,,,,,,
Montague,33.67496328,-97.72466993,22.22222222222222,wmoUnit:degC,68,0,16093.44,wmoUnit:m,,,,,,
Stonewall,33.17842158,-100.255259,16.666666666666668,wmoUnit:degC,67,0,16093.44,wmoUnit:m,,,,,,
Comal,29.80816362,-98.27814516,26.11111111111111,wmoUnit:degC,85,4,16093.44,wmoUnit:m,,,,,,
Eastland,32.32739258,-98.8325713,21.666666666666668,wmoUnit:degC,64,1,16093.44,wmoUnit:m,,,,,,
Comanche,31.9490639,-98.55841538,23.88888888888889,wmoUnit:degC,69,3,16093.44,wmoUnit:m,,,,,,
King,33.61641863,-100.2558584,14.444444444444445,wmoUnit:degC,83,0,16093.44,wmoUnit:m,,,,,,
Washington,30.2145299,-96.40356575,27.77777777777778,wmoUnit:degC,74,4,16093.44,wmoUnit:m,,,,,,
Webb,27.76102524,-99.33170164,31.11111111111111,wmoUnit:degC,57,3,16093.44,wmoUnit:m,,,,,,
Fayette,29.87683207,-96.91968047,26.11111111111111,wmoUnit:degC,90,5,16093.44,wmoUnit:m,,,,,,
Harrison,32.54814898,-94.37155736,26.11111111111111,wmoUnit:degC,94,30,16093.44,wmoUnit:m,,,,,,
Presidio,29.99977786,-104.2405552,21.666666666666668,wmoUnit:degC,12,0,16093.44,wmoUnit:m,,,Fire Weather Watch,Severe,Future,2025-05-17T13:45:00-05:00
Austin,29.88711223,-96.27791829,27.77777777777778,wmoUnit:degC,74,2,16093.44,wmoUnit:m,,,,,,
Randall,34.96594288,-101.8968527,19.444444444444443,wmoUnit:degC,40,0,,,,,,,,
Hood,32.43107878,-97.83280338,22.77777777777778,wmoUnit:degC,93,6,16093.44,wmoUnit:m,,,,,,
Victoria,28.79640594,-96.97176602,26.11111111111111,wmoUnit:degC,91,0,14097.853808349551,wmoUnit:m,,,,,,
Hutchinson,35.84000866,-101.3547257,21.666666666666668,wmoUnit:degC,24,0,,,,,,,,
Coryell,31.39087578,-97.7991883,27.22222222222222,wmoUnit:degC,85,28,16061.252383300736,wmoUnit:m,,,,,,
Jackson,28.95603133,-96.57883268,26.666666666666668,wmoUnit:degC,85,1,16093.44,wmoUnit:m,,,,,,
Taylor,32.30138229,-99.89003941,23.88888888888889,wmoUnit:degC,41,0,16093.44,wmoUnit:m,,,,,,
Zapata,27.00089072,-99.16860134,27.77777777777778,wmoUnit:degC,79,1,,,,,,,,
San Patricio,28.00922186,-97.51859857,26.666666666666668,wmoUnit:degC,94,0,13808.171397216869,wmoUnit:m,,,,,,
Grimes,30.54360689,-95.98557334,28.333333333333332,wmoUnit:degC,70,6,16093.44,wmoUnit:m,,,,,,
Lamb,34.06861242,-102.3517095,17.77777777777778,wmoUnit:degC,33,0,16093.44,wmoUnit:m,,,,,,
