countyName,latitude,longitude,temperature,temperature_unit,relativeHumidity,precipitationProbability,visibility,visibility_unit,hazard_phenomenon,hazard_significance,alert_event,alert_severity,alert_urgency,alert_expires
Foard,33.97408519,-99.77871109,22.22222222222222,wmoUnit:degC,89,2,,,,,,,,
Blanco,30.26636128,-98.39974086,25.0,wmoUnit:degC,85,19,11265.408,wmoUnit:m,,,,,,
Hockley,33.60750375,-102.3430919,22.77777777777778,wmoUnit:degC,20,0,16093.44,wmoUnit:m,,,,,,
Llano,30.70566579,-98.68387398,25.0,wmoUnit:degC,91,36,16093.44,wmoUnit:m,,,,,,
Swisher,34.53064989,-101.734951,21.666666666666668,wmoUnit:degC,29,0,16093.44,wmoUnit:m,,,,,,
Titus,33.2160906,-94.96509786,25.555555555555557,wmoUnit:degC,88,18,16093.44,wmoUnit:m,,,,,,
Navarro,32.04695429,-96.47248134,24.444444444444443,wmoUnit:degC,90,21,11265.408,wmoUnit:m,,,,,,
Brazoria,29.19345387,-95.45578479,26.666666666666668,wmoUnit:degC,88,0,15256.580383300736,wmoUnit:m,,,Rip Current Statement,Moderate,Expected,2025-05-20T15:30:00-05:00
Hidalgo,26.396627,-98.18088681,29.444444444444443,wmoUnit:degC,74,2,,,,,Special Weather Statement,Moderate,Expected,2025-05-19T19:00:00-05:00
Archer,33.61539176,-98.68783437,24.444444444444443,wmoUnit:degC,87,18,,,,,,,,
Refugio,28.32681413,-97.16546961,27.77777777777778,wmoUnit:degC,79,1,11265.408,wmoUnit:m,,,,,,
Andrews,32.30506283,-102.6378839,21.666666666666668,wmoUnit:degC,26,0,16093.44,wmoUnit:m,FW,W,Red Flag Warning,Severe,Expected,2025-05-19T22:00:00-05:00
Galveston,29.39424415,-94.96474975,26.11111111111111,wmoUnit:degC,69,0,12456.322191650448,wmoUnit:m,,,Rip Current Statement,Moderate,Expected,2025-05-20T15:30:00-05:00
De Witt,29.08201599,-97.35666976,27.22222222222222,wmoUnit:degC,80,6,12794.284493041932,wmoUnit:m,,,,,,
Gonzales,29.45641495,-97.49279927,27.77777777777778,wmoUnit:degC,80,7,16093.44,wmoUnit:m,,,,,,
Wharton,29.2778362,-96.22197375,27.22222222222222,wmoUnit:degC,79,0,15224.394301391645,wmoUnit:m,,,,,,
Fannin,33.59396919,-96.10656755,23.88888888888889,wmoUnit:degC,94,26,12794.284493041932,wmoUnit:m,TO,A,Tornado Watch,Extreme,Future,2025-05-19T21:00:00-05:00
Madison,30.96564645,-95.92818441,26.666666666666668,wmoUnit:degC,82,5,15900.318904174776,wmoUnit:m,,,,,,
Moore,35.83768863,-101.8929556,15.555555555555555,wmoUnit:degC,41,0,,,,,,,,
Tyler,30.7712607,-94.37651432,24.444444444444443,wmoUnit:degC,92,3,12794.284493041932,wmoUnit:m,,,Flood Warning,Severe,Immediate,2025-05-20T08:30:00-05:00
Lipscomb,36.27778432,-100.27317,18.333333333333332,wmoUnit:degC,43,0,,,,,,,,
Burleson,30.49246139,-96.62109399,26.666666666666668,wmoUnit:degC,82,8,15578.450411132842,wmoUnit:m,,,,,,
Jim Hogg,27.04340499,-98.6972921,28.88888888888889,wmoUnit:degC,74,3,,,,,,,,
Throckmorton,33.17753907,-99.21236832,25.0,wmoUnit:degC,85,14,16093.44,wmoUnit:m,,,,,,
Kleberg,27.43274395,-97.72889778,28.333333333333332,wmoUnit:degC,82,2,14146.133698608355,wmoUnit:m,,,,,,
Shelby,31.79242191,-94.14495261,25.0,wmoUnit:degC,85,5,16093.44,wmoUnit:m,,,,,,
Garza,33.17991074,-101.2984496,26.11111111111111,wmoUnit:degC,20,0,16061.252383300736,wmoUnit:m,,,,,,
Karnes,28.90493782,-97.85960621,27.22222222222222,wmoUnit:degC,77,7,14468.002191650448,wmoUnit:m,,,,,,
Reeves,31.32307061,-103.693143,23.88888888888889,wmoUnit:degC,18,0,16093.44,wmoUnit:m,FW,W,Red Flag Warning,Severe,Expected,2025-05-19T22:00:00-05:00
Houston,31.31764137,-95.42225367,26.666666666666668,wmoUnit:degC,94,3,15594.542684692382,wmoUnit:m,,,Flood Warning,Severe,Immediate,2025-05-20T08:30:00-05:00
El Paso,31.7686226,-106.2352229,14.444444444444445,wmoUnit:degC,29,0,16093.44,wmoUnit:m,FW,W,Red Flag Warning,Severe,Expected,2025-05-19T21:00:00-06:00
Carson,35.40346802,-101.3542037,17.22222222222222,wmoUnit:degC,41,0,,,,,,,,
Medina,29.35520493,-99.11008331,26.11111111111111,wmoUnit:degC,83,14,16093.44,wmoUnit:m,,,,,,
Wichita,33.98421585,-98.70153389,23.88888888888889,wmoUnit:degC,87,11,,,,,,,,
Chambers,29.73912276,-94.60891308,27.22222222222222,wmoUnit:degC,79,0,13985.198684692381,wmoUnit:m,,,Flood Warning,Severe,Immediate,2025-05-20T04:30:00-05:00
Donley,34.96540246,-100.8140501,20.555555555555557,wmoUnit:degC,35,0,,,,,,,,
Hopkins,33.14933822,-95.56414173,24.444444444444443,wmoUnit:degC,90,17,14468.002191650448,wmoUnit:m,,,,,,
Lampasas,31.19627791,-98.24142711,23.88888888888889,wmoUnit:degC,87,27,14468.002191650448,wmoUnit:m,,,,,,
Falls,31.25317017,-96.93579511,25.555555555555557,wmoUnit:degC,88,10,11265.408,wmoUnit:m,,,,,,
Stephens,32.73584155,-98.83612016,23.88888888888889,wmoUnit:degC,87,16,11265.408,wmoUnit:m,TO,A,Tornado Watch,Extreme,Future,2025-05-19T21:00:00-05:00
Travis,30.33423319,-97.78194654,26.666666666666668,wmoUnit:degC,83,12,14468.002191650448,wmoUnit:m,,,,,,
Roberts,35.8385577,-100.8135689,19.444444444444443,wmoUnit:degC,34,0,,,,,,,,
Crosby,33.61459873,-101.2998612,22.77777777777778,wmoUnit:degC,28,0,16093.44,wmoUnit:m,,,,,,
Kerr,30.06153035,-99.35016969,23.88888888888889,wmoUnit:degC,88,15,14468.002191650448,wmoUnit:m,,,,,,
Wood,32.78634374,-95.38206498,25.555555555555557,wmoUnit:degC,85,18,16093.44,wmoUnit:m,,,,,,
Jack,33.23345819,-98.1725509,23.333333333333332,wmoUnit:degC,87,27,16093.44,wmoUnit:m,TO,A,Tornado Watch,Extreme,Future,2025-05-19T21:00:00-05:00
Marion,32.79797929,-94.35725239,25.555555555555557,wmoUnit:degC,91,7,16093.44,wmoUnit:m,,,,,,
Hale,34.07051782,-101.8269082,22.22222222222222,wmoUnit:degC,26,0,16093.44,wmoUnit:m,,,,,,
Jeff Davis,30.71559322,-104.1403539,17.22222222222222,wmoUnit:degC,22,0,16093.44,wmoUnit:m,FW,W,Red Flag Warning,Severe,Expected,2025-05-19T22:00:00-05:00
Tarrant,32.77185236,-97.29116473,25.0,wmoUnit:degC,85,29,16093.44,wmoUnit:m,,,,,,
Waller,30.01093722,-95.98768942,27.22222222222222,wmoUnit:degC,82,1,13051.779287475512,wmoUnit:m,,,,,,
Reagan,31.36617698,-101.5230108,25.555555555555557,wmoUnit:degC,20,0,16093.44,wmoUnit:m,,,,,,
Smith,32.37514553,-95.26909511,25.555555555555557,wmoUnit:degC,85,12,16093.44,wmoUnit:m,,,,,,
Van Zandt,32.56368961,-95.8364862,25.0,wmoUnit:degC,90,11,11265.408,wmoUnit:m,,,,,,
Cooke,33.638465,-97.21247642,23.88888888888889,wmoUnit:degC,87,34,16093.44,wmoUnit:m,TO,A,Tornado Watch,Extreme,Future,2025-05-19T21:00:00-05:00
Zavala,28.86530621,-99.76102001,26.11111111111111,wmoUnit:degC,95,18,16093.44,wmoUnit:m,,,,,,
Hall,34.53074134,-100.6809876,25.0,wmoUnit:degC,30,0,16093.44,wmoUnit:m,,,,,,
Kendall,29.9446397,-98.71160511,24.444444444444443,wmoUnit:degC,87,14,16093.44,wmoUnit:m,,,,,,
Goliad,28.65708563,-97.42646082,27.77777777777778,wmoUnit:degC,77,3,14532.375890258803,wmoUnit:m,,,,,,
Yoakum,33.17293501,-102.8278792,22.22222222222222,wmoUnit:degC,24,0,16093.44,wmoUnit:m,,,,,,
Knox,33.60614755,-99.74144313,23.333333333333332,wmoUnit:degC,77,4,,,,,,,,
McLennan,31.55234489,-97.20184883,25.0,wmoUnit:degC,88,11,14468.002191650448,wmoUnit:m,,,,,,
Brewster,29.81205836,-103.2518906,26.666666666666668,wmoUnit:degC,9,0,16093.44,wmoUnit:m,FW,W,Red Flag Warning,Severe,Expected,2025-05-19T22:00:00-05:00
Panola,32.16222886,-94.30552858,25.0,wmoUnit:degC,87,6,16093.44,wmoUnit:m,,,,,,
Bandera,29.74724753,-99.24637282,23.88888888888889,wmoUnit:degC,89,15,16093.44,wmoUnit:m,,,,,,
Parmer,34.53014507,-102.784594,20.0,wmoUnit:degC,29,0,16093.44,wmoUnit:m,,,,,,
Rockwall,32.89786769,-96.40780584,24.444444444444443,wmoUnit:degC,90,28,16093.44,wmoUnit:m,,,,,,
Trinity,31.0885069,-95.13551682,26.666666666666668,wmoUnit:degC,82,3,15819.85139721687,wmoUnit:m,,,Flood Warning,Severe,Immediate,2025-05-20T04:30:00-05:00
Bosque,31.90050476,-97.63437613,24.444444444444443,wmoUnit:degC,90,30,12794.284493041932,wmoUnit:m,,,,,,
Coke,31.88849293,-100.5298747,26.666666666666668,wmoUnit:degC,72,4,16093.44,wmoUnit:m,,,,,,
Franklin,33.17550691,-95.21841437,25.555555555555557,wmoUnit:degC,88,21,16093.44,wmoUnit:m,,,,,,
Hill,31.99079033,-97.1324142,24.444444444444443,wmoUnit:degC,90,20,14468.002191650448,wmoUnit:m,,,,,,
Calhoun,28.48966896,-96.64708119,28.333333333333332,wmoUnit:degC,82,0,14274.881095825223,wmoUnit:m,,,,,,
Irion,31.30393203,-100.9824126,27.22222222222222,wmoUnit:degC,54,2,16093.44,wmoUnit:m,,,,,,
Midland,31.86921148,-102.0315032,25.0,wmoUnit:degC,16,0,16093.44,wmoUnit:m,FW,W,Red Flag Warning,Severe,Expected,2025-05-19T22:00:00-05:00
Brown,31.77432313,-98.99989649,23.88888888888889,wmoUnit:degC,87,23,16093.44,wmoUnit:m,,,,,,
Wilson,29.17315896,-98.08621015,27.22222222222222,wmoUnit:degC,76,7,16093.44,wmoUnit:m,,,,,,
Oldham,35.40497586,-102.6029949,17.22222222222222,wmoUnit:degC,44,0,,,,,,,,
Freestone,31.70486443,-96.14918535,24.444444444444443,wmoUnit:degC,94,12,11265.408,wmoUnit:m,,,,,,
Sabine,31.34321941,-93.85170439,25.555555555555557,wmoUnit:degC,91,3,16093.44,wmoUnit:m,,,,,,
Deaf Smith,34.96602014,-102.6048162,16.11111111111111,wmoUnit:degC,42,0,,,,,,,,
Angelina,31.25475875,-94.611742,25.555555555555557,wmoUnit:degC,91,5,16093.44,wmoUnit:m,,,Flood Warning,Severe,Immediate,2025-05-20T08:30:00-05:00
Kent,33.18284492,-100.7791031,26.11111111111111,wmoUnit:degC,25,0,15497.982904174776,wmoUnit:m,,,,,,
Red River,33.62074539,-95.0501886,25.0,wmoUnit:degC,90,22,16093.44,wmoUnit:m,,,,,,
Kinney,29.35000302,-100.4178441,25.0,wmoUnit:degC,87,18,16093.44,wmoUnit:m,,,,,,
Denton,33.205574,-97.11681154,25.0,wmoUnit:degC,85,26,16093.44,wmoUnit:m,TO,A,Tornado Watch,Extreme,Future,2025-05-19T21:00:00-05:00
Sutton,30.49747152,-100.5382263,23.88888888888889,wmoUnit:degC,84,15,16093.44,wmoUnit:m,,,,,,
Guadalupe,29.58257236,-97.94850308,27.22222222222222,wmoUnit:degC,80,8,16093.44,wmoUnit:m,,,,,,
Winkler,31.85008609,-103.0484794,22.22222222222222,wmoUnit:degC,18,0,16093.44,wmoUnit:m,FW,W,Red Flag Warning,Severe,Expected,2025-05-19T22:00:00-05:00
Dimmit,28.42161168,-99.760574,26.666666666666668,wmoUnit:degC,85,18,11265.408,wmoUnit:m,,,,,,
Wise,33.21585061,-97.65444124,23.333333333333332,wmoUnit:degC,90,32,16093.44,wmoUnit:m,TO,A,Tornado Watch,Extreme,Future,2025-05-19T21:00:00-05:00
Hemphill,35.83750155,-100.2704628,20.0,wmoUnit:degC,57,0,,,,,,,,
Potter,35.40128927,-101.8940484,17.22222222222222,wmoUnit:degC,43,0,,,,,,,,
Childress,34.52929257,-100.2075664,23.88888888888889,wmoUnit:degC,37,0,16093.44,wmoUnit:m,,,,,,
Willacy,26.47132899,-97.64303323,29.444444444444443,wmoUnit:degC,78,4,,,,,,,,
Bastrop,30.10353518,-97.31187705,27.22222222222222,wmoUnit:degC,79,8,16093.44,wmoUnit:m,,,,,,
Kimble,30.48676251,-99.74892716,26.11111111111111,wmoUnit:degC,82,16,14468.002191650448,wmoUnit:m,,,,,,
Scurry,32.74720063,-100.9165071,23.88888888888889,wmoUnit:degC,24,0,16093.44,wmoUnit:m,,,,,,
Ochiltree,36.27846334,-100.815653,19.444444444444443,wmoUnit:degC,34,0,,,,,,,,
Hansford,36.27753179,-101.3545624,17.22222222222222,wmoUnit:degC,38,0,,,,,,,,
Hartley,35.83996755,-102.6028835,15.555555555555555,wmoUnit:degC,41,0,,,,,,,,
Cameron,26.13847728,-97.51499968,29.444444444444443,wmoUnit:degC,73,3,,,,,,,,
Matagorda,28.86711039,-95.98533866,27.77777777777778,wmoUnit:degC,85,0,14210.50739721687,wmoUnit:m,,,Rip Current Statement,Moderate,Expected,2025-05-20T15:30:00-05:00
Burnet,30.78843382,-98.18252382,23.88888888888889,wmoUnit:degC,94,36,16093.44,wmoUnit:m,,,,,,
Rains,32.87004212,-95.79347545,24.444444444444443,wmoUnit:degC,90,16,14468.002191650448,wmoUnit:m,,,,,,
Hays,30.05782657,-98.03104087,25.555555555555557,wmoUnit:degC,86,11,16093.44,wmoUnit:m,,,,,,
Mason,30.71742293,-99.2263026,25.0,wmoUnit:degC,88,18,16093.44,wmoUnit:m,,,,,,
Ward,31.509424,-103.1024636,23.333333333333332,wmoUnit:degC,17,0,16093.44,wmoUnit:m,FW,W,Red Flag Warning,Severe,Expected,2025-05-19T22:00:00-05:00
Delta,33.38623601,-95.67221685,23.88888888888889,wmoUnit:degC,94,18,12794.284493041932,wmoUnit:m,,,,,,
Nueces,27.72621549,-97.61767326,27.77777777777778,wmoUnit:degC,82,1,15353.141698608355,wmoUnit:m,,,,,,
Callahan,32.2977738,-99.37359692,24.444444444444443,wmoUnit:degC,85,17,16093.44,wmoUnit:m,,,,,,
Bell,31.03778267,-97.47790776,25.555555555555557,wmoUnit:degC,88,15,14468.002191650448,wmoUnit:m,,,,,,
Cherokee,31.83695632,-95.16515234,25.555555555555557,wmoUnit:degC,85,7,16093.44,wmoUnit:m,,,Flood Warning,Severe,Immediate,2025-05-20T08:30:00-05:00
Ellis,32.34839264,-96.79467417,24.444444444444443,wmoUnit:degC,90,23,11265.408,wmoUnit:m,,,,,,
Lubbock,33.6101944,-101.8205745,23.333333333333332,wmoUnit:degC,23,0,16093.44,wmoUnit:m,,,,,,
Terrell,30.22502597,-102.0764533,26.666666666666668,wmoUnit:degC,49,0,16093.44,wmoUnit:m,,,,,,
Crockett,30.72291931,-101.4118364,26.11111111111111,wmoUnit:degC,67,3,16093.44,wmoUnit:m,,,,,,
Atascosa,28.89418432,-98.52741302,26.666666666666668,wmoUnit:degC,81,8,16093.44,wmoUnit:m,,,,,,
Ector,31.86908156,-102.5430907,22.77777777777778,wmoUnit:degC,16,0,16093.44,wmoUnit:m,FW,W,Red Flag Warning,Severe,Expected,2025-05-19T22:00:00-05:00
Brazos,30.6610425,-96.3022943,26.666666666666668,wmoUnit:degC,82,7,15755.477698608354,wmoUnit:m,,,,,,
Aransas,28.12709562,-96.99258951,26.666666666666668,wmoUnit:degC,91,0,9591.690301391645,wmoUnit:m,SC,Y,,,,
Dallas,32.76653746,-96.77781862,24.444444444444443,wmoUnit:degC,90,31,16093.44,wmoUnit:m,,,,,,
Howard,32.30610232,-101.4355097,28.333333333333332,wmoUnit:degC,13,0,16093.44,wmoUnit:m,WI,Y,Wind Advisory,Moderate,Expected,2025-05-19T21:00:00-06:00
Motley,34.07409017,-100.7798961,24.444444444444443,wmoUnit:degC,31,0,15626.730301391646,wmoUnit:m,,,,,,
San Augustine,31.39427005,-94.16809762,25.0,wmoUnit:degC,87,4,16093.44,wmoUnit:m,,,,,,
Maverick,28.74260943,-100.3144638,26.11111111111111,wmoUnit:degC,90,19,14468.002191650448,wmoUnit:m,,,,,,
Erath,32.23640361,-98.21722756,22.77777777777778,wmoUnit:degC,93,41,14468.002191650448,wmoUnit:m,,,,,,
Dickens,33.61663428,-100.7788138,26.11111111111111,wmoUnit:degC,24,0,15353.141698608355,wmoUnit:m,,,,,,
Caldwell,29.83677935,-97.61983479,27.22222222222222,wmoUnit:degC,82,8,16093.44,wmoUnit:m,,,,,,
Dawson,32.74258137,-101.9476136,22.22222222222222,wmoUnit:degC,21,0,16093.44,wmoUnit:m,FW,W,Red Flag Warning,Severe,Expected,2025-05-19T22:00:00-05:00
Camp,32.97321771,-94.97860185,25.555555555555557,wmoUnit:degC,85,16,16093.44,wmoUnit:m,,,,,,
Duval,27.68133382,-98.50889672,27.22222222222222,wmoUnit:degC,82,1,15079.553095825224,wmoUnit:m,,,,,,
Hunt,33.123531,-96.08550014,24.444444444444443,wmoUnit:degC,90,24,16093.44,wmoUnit:m,,,,,,
Mills,31.49524259,-98.59552736,23.88888888888889,wmoUnit:degC,90,33,12794.284493041932,wmoUnit:m,,,,,,
Val Verde,29.89300587,-101.15171,25.0,wmoUnit:degC,80,16,16093.44,wmoUnit:m,,,,,,
Pecos,30.78100044,-102.7235743,25.555555555555557,wmoUnit:degC,15,0,16093.44,wmoUnit:m,FW,W,Red Flag Warning,Severe,Expected,2025-05-19T22:00:00-05:00
Baylor,33.61648147,-99.21351964,23.333333333333332,wmoUnit:degC,88,10,,,,,,,,
Gregg,32.48036452,-94.81723694,26.11111111111111,wmoUnit:degC,82,9,16093.44,wmoUnit:m,,,,,,
Cochran,33.60410808,-102.8285264,21.666666666666668,wmoUnit:degC,23,0,16093.44,wmoUnit:m,,,,,,
Jasper,30.74391255,-94.02495849,24.444444444444443,wmoUnit:degC,92,1,11136.66060278313,wmoUnit:m,,,,,,
Hamilton,31.70479181,-98.11066654,23.88888888888889,wmoUnit:degC,90,34,11265.408,wmoUnit:m,,,,,,
Castro,34.53000304,-102.2617608,20.0,wmoUnit:degC,29,0,16093.44,wmoUnit:m,,,,,,
Sterling,31.82786516,-101.0500699,25.555555555555557,wmoUnit:degC,48,0,16093.44,wmoUnit:m,,,,,,
Starr,26.56212627,-98.73834895,29.444444444444443,wmoUnit:degC,75,2,,,,,Special Weather Statement,Moderate,Expected,2025-05-19T19:00:00-05:00
Crane,31.42846287,-102.5156425,25.555555555555557,wmoUnit:degC,15,0,16093.44,wmoUnit:m,FW,W,Red Flag Warning,Severe,Expected,2025-05-19T22:00:00-05:00
Morris,33.11368507,-94.73205137,25.0,wmoUnit:degC,90,13,16093.44,wmoUnit:m,,,,,,
Briscoe,34.53041048,-101.2085769,22.22222222222222,wmoUnit:degC,31,0,16093.44,wmoUnit:m,,,,,,
Tom Green,31.4044442,-100.4620678,26.666666666666668,wmoUnit:degC,77,7,16093.44,wmoUnit:m,,,,,,
Menard,30.88981785,-99.82061472,24.444444444444443,wmoUnit:degC,87,15,16093.44,wmoUnit:m,,,,,,
Parker,32.77852261,-97.80472194,23.333333333333332,wmoUnit:degC,90,44,16093.44,wmoUnit:m,TO,A,Tornado Watch,Extreme,Future,2025-05-19T21:00:00-05:00
Walker,30.73899492,-95.57224172,27.22222222222222,wmoUnit:degC,77,2,15964.69260278313,wmoUnit:m,,,Flood Warning,Severe,Immediate,2025-05-20T04:30:00-05:00
Brooks,27.0315669,-98.21874127,29.444444444444443,wmoUnit:degC,75,4,,,,,Special Weather Statement,Moderate,Expected,2025-05-19T19:00:00-05:00
La Salle,28.34621032,-99.1034773,27.22222222222222,wmoUnit:degC,82,3,15980.786411132844,wmoUnit:m,,,,,,
Edwards,29.98248216,-100.3048937,23.88888888888889,wmoUnit:degC,82,17,11265.408,wmoUnit:m,,,,,,
Lee,30.31065065,-96.96568735,26.666666666666668,wmoUnit:degC,79,9,16093.44,wmoUnit:m,,,,,,
Robertson,31.02705415,-96.51272568,25.0,wmoUnit:degC,88,11,11265.408,wmoUnit:m,,,,,,
Young,33.17670764,-98.68781396,23.88888888888889,wmoUnit:degC,87,21,12794.284493041932,wmoUnit:m,TO,A,Tornado Watch,Extreme,Future,2025-05-19T21:00:00-05:00
Bee,28.41736675,-97.74116811,27.22222222222222,wmoUnit:degC,85,4,15337.047890258802,wmoUnit:m,,,,,,
Clay,33.78379717,-98.208958,24.444444444444443,wmoUnit:degC,85,23,,,TO,A,Severe Thunderstorm Warning,Severe,Immediate,2025-05-19T16:30:00-05:00
San Jacinto,30.57948905,-95.16683273,26.11111111111111,wmoUnit:degC,82,0,16061.252383300736,wmoUnit:m,,,Flood Warning,Severe,Immediate,2025-05-20T04:30:00-05:00
Uvalde,29.35669829,-99.76203107,25.555555555555557,wmoUnit:degC,92,18,16093.44,wmoUnit:m,,,,,,
Haskell,33.17824805,-99.73029401,25.555555555555557,wmoUnit:degC,76,7,16093.44,wmoUnit:m,,,,,,
Somervell,32.22229511,-97.77456553,24.444444444444443,wmoUnit:degC,85,43,14468.002191650448,wmoUnit:m,,,,,,
Bexar,29.44884523,-98.51966309,26.666666666666668,wmoUnit:degC,80,9,16093.44,wmoUnit:m,,,,,,
Grayson,33.62684371,-96.67764864,23.88888888888889,wmoUnit:degC,87,30,12794.284493041932,wmoUnit:m,TO,A,Tornado Watch,Extreme,Future,2025-05-19T21:00:00-05:00
Bailey,34.0684915,-102.8299069,20.0,wmoUnit:degC,29,0,16093.44,wmoUnit:m,,,,,,
Jones,32.73970429,-99.87850599,26.11111111111111,wmoUnit:degC,74,6,16093.44,wmoUnit:m,,,,,,
Jefferson,29.88425832,-94.1708778,25.555555555555557,wmoUnit:degC,86,1,11136.66060278313,wmoUnit:m,,,,,,
Rusk,32.10803224,-94.76169577,26.11111111111111,wmoUnit:degC,85,7,16093.44,wmoUnit:m,,,,,,
Glasscock,31.8694238,-101.520742,25.555555555555557,wmoUnit:degC,21,0,16093.44,wmoUnit:m,WI,Y,Wind Advisory,Moderate,Expected,2025-05-19T21:00:00-06:00
Gillespie,30.31800246,-98.94627245,23.88888888888889,wmoUnit:degC,91,21,16093.44,wmoUnit:m,,,,,,
Fisher,32.74305155,-100.4019503,26.666666666666668,wmoUnit:degC,67,1,16093.44,wmoUnit:m,,,,,,
Henderson,32.21188078,-95.85356847,24.444444444444443,wmoUnit:degC,90,10,16093.44,wmoUnit:m,,,,,,
Shackelford,32.7360276,-99.35403034,25.0,wmoUnit:degC,88,14,16093.44,wmoUnit:m,,,,,,
Palo Pinto,32.75316856,-98.31299522,23.333333333333332,wmoUnit:degC,90,29,16093.44,wmoUnit:m,TO,A,Tornado Watch,Extreme,Future,2025-05-19T21:00:00-05:00
Wilbarger,34.08044953,-99.24089568,22.77777777777778,wmoUnit:degC,86,6,,,,,,,,
Floyd,34.07239775,-101.3033037,23.333333333333332,wmoUnit:degC,27,0,16077.34619165045,wmoUnit:m,,,,,,
Orange,30.12807126,-93.89653794,25.555555555555557,wmoUnit:degC,89,1,11136.66060278313,wmoUnit:m,,,Flood Warning,Severe,Immediate,2025-05-20T10:00:00-05:00
Runnels,31.83105393,-99.97624799,26.666666666666668,wmoUnit:degC,77,9,16093.44,wmoUnit:m,,,,,,
Coleman,31.77329421,-99.45362579,25.555555555555557,wmoUnit:degC,79,17,16093.44,wmoUnit:m,,,,,,
Martin,32.30605847,-101.9512464,22.22222222222222,wmoUnit:degC,19,0,16093.44,wmoUnit:m,FW,W,Red Flag Warning,Severe,Expected,2025-05-19T22:00:00-05:00
Wheeler,35.40129002,-100.2697634,20.0,wmoUnit:degC,65,0,,,,,,,,
Culberson,31.44709817,-104.5177421,19.444444444444443,wmoUnit:degC,22,0,16093.44,wmoUnit:m,FW,W,Red Flag Warning,Severe,Expected,2025-05-19T22:00:00-05:00
Mitchell,32.30636024,-100.9211128,28.333333333333332,wmoUnit:degC,33,0,16093.44,wmoUnit:m,,,,,,
Hudspeth,31.45613738,-105.3869428,13.88888888888889,wmoUnit:degC,33,0,16093.44,wmoUnit:m,FW,W,Red Flag Warning,Severe,Expected,2025-05-19T21:00:00-06:00
Upshur,32.7362827,-94.94132011,25.555555555555557,wmoUnit:degC,85,13,16093.44,wmoUnit:m,,,,,,
Liberty,30.15153187,-94.8120925,26.666666666666668,wmoUnit:degC,77,0,16093.44,wmoUnit:m,,,Flood Warning,Severe,Immediate,2025-05-20T04:30:00-05:00
Williamson,30.64834941,-97.60105467,26.666666666666668,wmoUnit:degC,84,14,16093.44,wmoUnit:m,,,,,,
Nacogdoches,31.61604108,-94.6158776,25.0,wmoUnit:degC,90,5,16093.44,wmoUnit:m,,,Flood Warning,Severe,Immediate,2025-05-20T08:30:00-05:00
Loving,31.84912973,-103.5799063,22.77777777777778,wmoUnit:degC,22,0,16093.44,wmoUnit:m,FW,W,Red Flag Warning,Severe,Expected,2025-05-19T22:00:00-05:00
Jim Wells,27.73131099,-98.0898649,27.22222222222222,wmoUnit:degC,88,2,15353.141698608355,wmoUnit:m,,,,,,
Upton,31.36853957,-102.0430005,25.0,wmoUnit:degC,14,0,16093.44,wmoUnit:m,FW,W,Red Flag Warning,Severe,Expected,2025-05-19T22:00:00-05:00
Newton,30.78619977,-93.74462993,23.88888888888889,wmoUnit:degC,95,1,11136.66060278313,wmoUnit:m,,,Flood Warning,Severe,Immediate,2025-05-20T10:00:00-05:00
Lamar,33.66746186,-95.57110784,23.333333333333332,wmoUnit:degC,93,12,12794.284493041932,wmoUnit:m,TO,A,Tornado Watch,Extreme,Future,2025-05-19T21:00:00-05:00
Polk,30.79250963,-94.82994949,26.666666666666668,wmoUnit:degC,82,1,16093.44,wmoUnit:m,,,Flood Warning,Severe,Immediate,2025-05-20T04:30:00-05:00
Collin,33.18789055,-96.57248871,24.444444444444443,wmoUnit:degC,87,25,16093.44,wmoUnit:m,TO,A,Tornado Watch,Extreme,Future,2025-05-19T21:00:00-05:00
Hardeman,34.28865227,-99.7453851,21.11111111111111,wmoUnit:degC,96,2,,,,,,,,
McMullen,28.35351091,-98.56842256,27.77777777777778,wmoUnit:degC,79,4,15771.571506958067,wmoUnit:m,,,,,,
Cottle,34.0776571,-100.2786983,24.444444444444443,wmoUnit:degC,32,0,15304.861808349551,wmoUnit:m,,,,,,
Frio,28.86726774,-99.10826004,26.11111111111111,wmoUnit:degC,80,13,16093.44,wmoUnit:m,,,,,,
Gray,35.40130666,-100.812475,20.555555555555557,wmoUnit:degC,37,0,,,,,,,,
Dallam,36.27777107,-102.6021647,15.0,wmoUnit:degC,42,0,,,,,,,,
Kenedy,26.92409448,-97.68137783,28.88888888888889,wmoUnit:degC,79,4,,,,,Special Weather Statement,Moderate,Expected,2025-05-19T19:00:00-05:00
Fort Bend,29.52763253,-95.77090562,27.22222222222222,wmoUnit:degC,85,0,14966.899506958067,wmoUnit:m,,,,,,
Armstrong,34.96522076,-101.3572412,18.333333333333332,wmoUnit:degC,38,0,,,,,,,,
Collingsworth,34.96498493,-100.2700733,20.0,wmoUnit:degC,70,0,,,,,,,,
Cass,33.07750446,-94.34348771,24.444444444444443,wmoUnit:degC,94,8,16093.44,wmoUnit:m,,,,,,
Sherman,36.27765824,-101.8933822,15.0,wmoUnit:degC,44,0,,,,,,,,
Terry,33.17373729,-102.335157,23.333333333333332,wmoUnit:degC,20,0,14773.778411132842,wmoUnit:m,,,,,,
Limestone,31.54541898,-96.58056718,24.444444444444443,wmoUnit:degC,90,12,16093.44,wmoUnit:m,,,,,,
Real,29.83182711,-99.82215881,22.77777777777778,wmoUnit:degC,89,17,11265.408,wmoUnit:m,,,,,,
Lynn,33.17685487,-101.8160235,24.444444444444443,wmoUnit:degC,22,0,16029.066301391646,wmoUnit:m,,,,,,
Lavaca,29.38437003,-96.93020993,27.22222222222222,wmoUnit:degC,83,5,14468.002191650448,wmoUnit:m,,,,,,
Nolan,32.3034718,-100.4060989,25.0,wmoUnit:degC,82,4,16093.44,wmoUnit:m,,,,,,
Gaines,32.74074537,-102.6351246,21.11111111111111,wmoUnit:degC,24,0,16093.44,wmoUnit:m,FW,W,Red Flag Warning,Severe,Expected,2025-05-19T22:00:00-05:00
Montgomery,30.30022409,-95.50301411,27.77777777777778,wmoUnit:degC,79,0,16061.252383300736,wmoUnit:m,,,,,,
Concho,31.32645211,-99.86413426,26.11111111111111,wmoUnit:degC,79,15,16093.44,wmoUnit:m,,,,,,
Hardin,30.33238431,-94.39021394,25.0,wmoUnit:degC,89,1,11136.66060278313,wmoUnit:m,,,,,,
Harris,29.85967144,-95.39782106,27.22222222222222,wmoUnit:degC,82,0,16093.44,wmoUnit:m,,,,,,
Leon,31.29655719,-95.99554292,25.555555555555557,wmoUnit:degC,91,8,11265.408,wmoUnit:m,,,,,,
Bowie,33.44572786,-94.42324298,25.0,wmoUnit:degC,94,12,16093.44,wmoUnit:m,,,,,,
Kaufman,32.59927808,-96.28779341,24.444444444444443,wmoUnit:degC,90,23,14468.002191650448,wmoUnit:m,,,,,,
Anderson,31.81321543,-95.65251774,24.444444444444443,wmoUnit:degC,94,8,11265.408,wmoUnit:m,,,Flood Warning,Severe,Immediate,2025-05-20T08:30:00-05:00
San Saba,31.15520543,-98.81754295,24.444444444444443,wmoUnit:degC,87,23,16093.44,wmoUnit:m,,,,,,
Schleicher,30.89661056,-100.538097,25.555555555555557,wmoUnit:degC,79,11,16093.44,wmoUnit:m,,,,,,
Colorado,29.6208542,-96.52630821,27.22222222222222,wmoUnit:degC,79,1,15562.35660278313,wmoUnit:m,,,,,,
Milam,30.78625299,-96.97683495,26.666666666666668,wmoUnit:degC,85,8,16093.44,wmoUnit:m,,,,,,
Live Oak,28.3514375,-98.12474493,27.77777777777778,wmoUnit:degC,82,5,15562.35660278313,wmoUnit:m,,,,,,
Borden,32.7436916,-101.4317533,25.0,wmoUnit:degC,19,0,16093.44,wmoUnit:m,WI,Y,Wind Advisory,Moderate,Expected,2025-05-19T21:00:00-06:00
McCulloch,31.19896752,-99.34754972,23.88888888888889,wmoUnit:degC,87,20,16093.44,wmoUnit:m,,,,,,
Johnson,32.37899918,-97.36660504,24.444444444444443,wmoUnit:degC,90,31,14468.002191650448,wmoUnit:m,,,,,,
Montague,33.67496328,-97.72466993,23.333333333333332,wmoUnit:degC,87,29,16093.44,wmoUnit:m,TO,A,Severe Thunderstorm Warning,Severe,Immediate,2025-05-19T16:30:00-05:00
Stonewall,33.17842158,-100.255259,26.11111111111111,wmoUnit:degC,28,0,14982.993315307618,wmoUnit:m,,,,,,
Comal,29.80816362,-98.27814516,25.0,wmoUnit:degC,87,11,16093.44,wmoUnit:m,,,,,,
Eastland,32.32739258,-98.8325713,23.88888888888889,wmoUnit:degC,84,26,11265.408,wmoUnit:m,,,,,,
Comanche,31.9490639,-98.55841538,24.444444444444443,wmoUnit:degC,85,35,14468.002191650448,wmoUnit:m,,,,,,
King,33.61641863,-100.2558584,25.555555555555557,wmoUnit:degC,33,0,14435.816109741198,wmoUnit:m,,,,,,
Washington,30.2145299,-96.40356575,26.11111111111111,wmoUnit:degC,82,5,15964.69260278313,wmoUnit:m,,,,,,
Webb,27.76102524,-99.33170164,28.333333333333332,wmoUnit:degC,77,2,16061.252383300736,wmoUnit:m,,,,,,
Fayette,29.87683207,-96.91968047,27.77777777777778,wmoUnit:degC,79,7,16093.44,wmoUnit:m,,,,,,
Harrison,32.54814898,-94.37155736,25.0,wmoUnit:degC,90,7,16093.44,wmoUnit:m,,,,,,
Presidio,29.99977786,-104.2405552,19.444444444444443,wmoUnit:degC,15,0,16093.44,wmoUnit:m,FW,W,Red Flag Warning,Severe,Expected,2025-05-19T22:00:00-05:00
Austin,29.88711223,-96.27791829,27.22222222222222,wmoUnit:degC,82,1,14612.84339721687,wmoUnit:m,,,,,,
Randall,34.96594288,-101.8968527,17.22222222222222,wmoUnit:degC,46,0,,,,,,,,
Hood,32.43107878,-97.83280338,23.88888888888889,wmoUnit:degC,87,48,14468.002191650448,wmoUnit:m,,,,,,
Victoria,28.79640594,-96.97176602,27.77777777777778,wmoUnit:degC,82,1,14789.870684692381,wmoUnit:m,,,,,,
Hutchinson,35.84000866,-101.3547257,17.22222222222222,wmoUnit:degC,39,0,,,,,,,,
Coryell,31.39087578,-97.7991883,25.0,wmoUnit:degC,90,23,14468.002191650448,wmoUnit:m,,,,,,
Jackson,28.95603133,-96.57883268,27.22222222222222,wmoUnit:degC,85,0,15143.926794433579,wmoUnit:m,,,,,,
Taylor,32.30138229,-99.89003941,25.0,wmoUnit:degC,82,8,16093.44,wmoUnit:m,,,,,,
Zapata,27.00089072,-99.16860134,29.444444444444443,wmoUnit:degC,69,0,,,,,,,,
San Patricio,28.00922186,-97.51859857,28.333333333333332,wmoUnit:degC,85,1,14017.386301391645,wmoUnit:m,,,,,,
Grimes,30.54360689,-95.98557334,26.666666666666668,wmoUnit:degC,85,3,16093.44,wmoUnit:m,,,,,,
Lamb,34.06861242,-102.3517095,21.11111111111111,wmoUnit:degC,26,0,16093.44,wmoUnit:m,,,,,,
