countyName,latitude,longitude,temperature,temperature_unit,relativeHumidity,precipitationProbability,visibility,visibility_unit,hazard_phenomenon,hazard_significance,alert_event,alert_severity,alert_urgency,alert_expires
Foard,33.97408519,-99.77871109,35.0,wmoUnit:degC,46,3,,,,,,,,
Blanco,30.26636128,-98.39974086,31.666666666666668,wmoUnit:degC,64,20,,,,,,,,
Hockley,33.60750375,-102.3430919,35.55555555555556,wmoUnit:degC,28,10,16093.44,wmoUnit:m,,,,,,
Llano,30.70566579,-98.68387398,33.333333333333336,wmoUnit:degC,54,10,,,,,,,,
Swisher,34.53064989,-101.734951,32.77777777777778,wmoUnit:degC,38,8,16093.44,wmoUnit:m,,,,,,
Titus,33.2160906,-94.96509786,30.555555555555557,wmoUnit:degC,72,31,16093.44,wmoUnit:m,,,Flood Warning,Severe,Immediate,2025-06-15T22:00:00-05:00
Navarro,32.04695429,-96.47248134,27.22222222222222,wmoUnit:degC,85,13,16093.44,wmoUnit:m,,,Flood Warning,Severe,Immediate,2025-06-15T14:30:00-05:00
Brazoria,29.19345387,-95.45578479,26.11111111111111,wmoUnit:degC,94,14,15852.039013915974,wmoUnit:m,,,Flood Warning,Severe,Immediate,2025-06-15T15:15:00-05:00
Hidalgo,26.396627,-98.18088681,36.666666666666664,wmoUnit:degC,46,10,,,,,,,,
Archer,33.61539176,-98.68783437,33.888888888888886,wmoUnit:degC,54,5,,,,,,,,
Refugio,28.32681413,-97.16546961,31.666666666666668,wmoUnit:degC,68,19,16093.44,wmoUnit:m,,,Flood Warning,Severe,Immediate,2025-06-15T11:00:00-05:00
Andrews,32.30506283,-102.6378839,32.22222222222222,wmoUnit:degC,42,2,16093.44,wmoUnit:m,,,,,,
Galveston,29.39424415,-94.96474975,28.88888888888889,wmoUnit:degC,80,14,16029.066301391646,wmoUnit:m,,,,,,
De Witt,29.08201599,-97.35666976,30.555555555555557,wmoUnit:degC,77,56,,,,,,,,
Gonzales,29.45641495,-97.49279927,31.666666666666668,wmoUnit:degC,73,55,,,,,,,,
Wharton,29.2778362,-96.22197375,23.333333333333332,wmoUnit:degC,97,67,14982.993315307618,wmoUnit:m,,,Flood Warning,Severe,Immediate,2025-06-15T15:15:00-05:00
Fannin,33.59396919,-96.10656755,27.22222222222222,wmoUnit:degC,85,18,16093.44,wmoUnit:m,,,,,,
Madison,30.96564645,-95.92818441,28.88888888888889,wmoUnit:degC,82,24,15868.131287475511,wmoUnit:m,,,Flood Warning,Severe,Immediate,2025-06-15T15:15:00-05:00
Moore,35.83768863,-101.8929556,32.22222222222222,wmoUnit:degC,35,0,,,,,,,,
Tyler,30.7712607,-94.37651432,29.444444444444443,wmoUnit:degC,76,65,16093.44,wmoUnit:m,,,,,,
Lipscomb,36.27778432,-100.27317,31.666666666666668,wmoUnit:degC,45,1,,,,,,,,
Burleson,30.49246139,-96.62109399,27.22222222222222,wmoUnit:degC,79,38,15594.542684692382,wmoUnit:m,,,,,,
Jim Hogg,27.04340499,-98.6972921,35.55555555555556,wmoUnit:degC,45,9,,,,,,,,
Throckmorton,33.17753907,-99.21236832,32.77777777777778,wmoUnit:degC,56,5,16093.44,wmoUnit:m,,,,,,
Kleberg,27.43274395,-97.72889778,33.333333333333336,wmoUnit:degC,64,13,16093.44,wmoUnit:m,,,,,,
Shelby,31.79242191,-94.14495261,28.88888888888889,wmoUnit:degC,72,55,16093.44,wmoUnit:m,,,,,,
Garza,33.17991074,-101.2984496,36.111111111111114,wmoUnit:degC,34,6,16093.44,wmoUnit:m,,,,,,
Karnes,28.90493782,-97.85960621,31.666666666666668,wmoUnit:degC,68,48,,,,,Flood Warning,Severe,Immediate,2025-06-15T10:00:00-05:00
Reeves,31.32307061,-103.693143,35.0,wmoUnit:degC,30,0,16093.44,wmoUnit:m,,,,,,
Houston,31.31764137,-95.42225367,28.333333333333332,wmoUnit:degC,94,15,15996.878684692381,wmoUnit:m,,,Flood Warning,Severe,Immediate,2025-06-15T21:15:00-05:00
El Paso,31.7686226,-106.2352229,39.44444444444444,wmoUnit:degC,8,0,16093.44,wmoUnit:m,HT,Y,Heat Advisory,Moderate,Expected,2025-06-15T06:00:00-06:00
Carson,35.40346802,-101.3542037,32.77777777777778,wmoUnit:degC,38,0,,,,,,,,
Medina,29.35520493,-99.11008331,32.22222222222222,wmoUnit:degC,62,14,,,,,,,,
Wichita,33.98421585,-98.70153389,33.888888888888886,wmoUnit:degC,49,5,,,,,,,,
Chambers,29.73912276,-94.60891308,30.555555555555557,wmoUnit:degC,75,17,16093.44,wmoUnit:m,,,Flood Warning,Severe,Immediate,2025-06-15T15:00:00-05:00
Donley,34.96540246,-100.8140501,32.77777777777778,wmoUnit:degC,41,5,,,,,,,,
Hopkins,33.14933822,-95.56414173,27.22222222222222,wmoUnit:degC,85,14,16093.44,wmoUnit:m,,,,,,
Lampasas,31.19627791,-98.24142711,28.333333333333332,wmoUnit:degC,77,2,16093.44,wmoUnit:m,,,,,,
Falls,31.25317017,-96.93579511,27.22222222222222,wmoUnit:degC,88,17,16093.44,wmoUnit:m,,,,,,
Stephens,32.73584155,-98.83612016,28.88888888888889,wmoUnit:degC,74,3,16093.44,wmoUnit:m,,,,,,
Travis,30.33423319,-97.78194654,32.22222222222222,wmoUnit:degC,68,27,,,,,,,,
Roberts,35.8385577,-100.8135689,32.77777777777778,wmoUnit:degC,42,1,,,,,,,,
Crosby,33.61459873,-101.2998612,32.77777777777778,wmoUnit:degC,42,6,16093.44,wmoUnit:m,,,,,,
Kerr,30.06153035,-99.35016969,31.666666666666668,wmoUnit:degC,61,4,,,,,,,,
Wood,32.78634374,-95.38206498,30.555555555555557,wmoUnit:degC,72,29,16093.44,wmoUnit:m,,,Flood Warning,Severe,Immediate,2025-06-15T21:30:00-05:00
Jack,33.23345819,-98.1725509,28.333333333333332,wmoUnit:degC,80,9,16093.44,wmoUnit:m,,,,,,
Marion,32.79797929,-94.35725239,30.0,wmoUnit:degC,77,38,16093.44,wmoUnit:m,,,Flood Warning,Severe,Immediate,2025-06-15T22:00:00-05:00
Hale,34.07051782,-101.8269082,33.888888888888886,wmoUnit:degC,36,7,16093.44,wmoUnit:m,,,,,,
Jeff Davis,30.71559322,-104.1403539,29.444444444444443,wmoUnit:degC,26,1,16093.44,wmoUnit:m,,,,,,
Tarrant,32.77185236,-97.29116473,29.444444444444443,wmoUnit:degC,72,7,16093.44,wmoUnit:m,,,,,,
Waller,30.01093722,-95.98768942,29.444444444444443,wmoUnit:degC,72,28,15562.35660278313,wmoUnit:m,,,,,,
Reagan,31.36617698,-101.5230108,30.555555555555557,wmoUnit:degC,57,4,16093.44,wmoUnit:m,,,,,,
Smith,32.37514553,-95.26909511,31.11111111111111,wmoUnit:degC,68,36,16093.44,wmoUnit:m,,,Flood Warning,Severe,Immediate,2025-06-15T21:30:00-05:00
Van Zandt,32.56368961,-95.8364862,27.77777777777778,wmoUnit:degC,77,13,16093.44,wmoUnit:m,,,,,,
Cooke,33.638465,-97.21247642,27.22222222222222,wmoUnit:degC,82,14,16093.44,wmoUnit:m,,,,,,
Zavala,28.86530621,-99.76102001,32.77777777777778,wmoUnit:degC,62,4,,,,,,,,
Hall,34.53074134,-100.6809876,35.55555555555556,wmoUnit:degC,39,8,16093.44,wmoUnit:m,,,,,,
Kendall,29.9446397,-98.71160511,31.11111111111111,wmoUnit:degC,68,20,,,,,,,,
Goliad,28.65708563,-97.42646082,31.11111111111111,wmoUnit:degC,66,28,16093.44,wmoUnit:m,,,,,,
Yoakum,33.17293501,-102.8278792,35.55555555555556,wmoUnit:degC,25,10,16093.44,wmoUnit:m,,,,,,
Knox,33.60614755,-99.74144313,35.0,wmoUnit:degC,43,3,,,,,,,,
McLennan,31.55234489,-97.20184883,27.22222222222222,wmoUnit:degC,85,9,16093.44,wmoUnit:m,,,,,,
Brewster,29.81205836,-103.2518906,32.77777777777778,wmoUnit:degC,37,1,16093.44,wmoUnit:m,,,,,,
Panola,32.16222886,-94.30552858,29.444444444444443,wmoUnit:degC,72,48,16093.44,wmoUnit:m,,,,,,
Bandera,29.74724753,-99.24637282,31.11111111111111,wmoUnit:degC,63,8,,,,,,,,
Parmer,34.53014507,-102.784594,34.44444444444444,wmoUnit:degC,32,9,16093.44,wmoUnit:m,,,,,,
Rockwall,32.89786769,-96.40780584,27.77777777777778,wmoUnit:degC,85,10,16093.44,wmoUnit:m,,,,,,
Trinity,31.0885069,-95.13551682,29.444444444444443,wmoUnit:degC,77,15,15868.131287475511,wmoUnit:m,,,Flood Warning,Severe,Immediate,2025-06-15T21:15:00-05:00
Bosque,31.90050476,-97.63437613,28.88888888888889,wmoUnit:degC,80,3,16093.44,wmoUnit:m,,,,,,
Coke,31.88849293,-100.5298747,33.333333333333336,wmoUnit:degC,46,1,16093.44,wmoUnit:m,,,,,,
Franklin,33.17550691,-95.21841437,30.555555555555557,wmoUnit:degC,72,28,16093.44,wmoUnit:m,,,Flood Warning,Severe,Immediate,2025-06-15T22:00:00-05:00
Hill,31.99079033,-97.1324142,27.77777777777778,wmoUnit:degC,94,6,16093.44,wmoUnit:m,,,,,,
Calhoun,28.48966896,-96.64708119,31.11111111111111,wmoUnit:degC,72,22,16093.44,wmoUnit:m,,,Flood Warning,Severe,Immediate,2025-06-15T11:00:00-05:00
Irion,31.30393203,-100.9824126,33.888888888888886,wmoUnit:degC,46,1,16093.44,wmoUnit:m,,,,,,
Midland,31.86921148,-102.0315032,32.22222222222222,wmoUnit:degC,49,4,16093.44,wmoUnit:m,,,,,,
Brown,31.77432313,-98.99989649,32.77777777777778,wmoUnit:degC,58,3,16093.44,wmoUnit:m,,,,,,
Wilson,29.17315896,-98.08621015,31.666666666666668,wmoUnit:degC,68,43,,,,,Flood Warning,Severe,Immediate,2025-06-15T10:00:00-05:00
Oldham,35.40497586,-102.6029949,33.333333333333336,wmoUnit:degC,37,0,,,,,,,,
Freestone,31.70486443,-96.14918535,27.77777777777778,wmoUnit:degC,79,18,16093.44,wmoUnit:m,,,Flood Warning,Severe,Immediate,2025-06-15T14:30:00-05:00
Sabine,31.34321941,-93.85170439,29.444444444444443,wmoUnit:degC,77,63,16093.44,wmoUnit:m,,,,,,
Deaf Smith,34.96602014,-102.6048162,32.22222222222222,wmoUnit:degC,39,0,,,,,,,,
Angelina,31.25475875,-94.611742,29.444444444444443,wmoUnit:degC,80,52,16093.44,wmoUnit:m,,,Flood Warning,Severe,Immediate,2025-06-15T21:15:00-05:00
Kent,33.18284492,-100.7791031,35.55555555555556,wmoUnit:degC,38,5,16093.44,wmoUnit:m,,,,,,
Red River,33.62074539,-95.0501886,30.555555555555557,wmoUnit:degC,75,30,16093.44,wmoUnit:m,,,Flood Warning,Severe,Immediate,2025-06-15T22:00:00-05:00
Kinney,29.35000302,-100.4178441,32.77777777777778,wmoUnit:degC,56,1,,,,,,,,
Denton,33.205574,-97.11681154,28.88888888888889,wmoUnit:degC,72,10,16093.44,wmoUnit:m,,,,,,
Sutton,30.49747152,-100.5382263,32.77777777777778,wmoUnit:degC,47,0,16093.44,wmoUnit:m,,,,,,
Guadalupe,29.58257236,-97.94850308,32.77777777777778,wmoUnit:degC,64,41,,,,,,,,
Winkler,31.85008609,-103.0484794,32.77777777777778,wmoUnit:degC,41,1,16093.44,wmoUnit:m,,,,,,
Dimmit,28.42161168,-99.760574,34.44444444444444,wmoUnit:degC,53,3,,,,,,,,
Wise,33.21585061,-97.65444124,28.88888888888889,wmoUnit:degC,74,9,16093.44,wmoUnit:m,,,,,,
Hemphill,35.83750155,-100.2704628,31.666666666666668,wmoUnit:degC,45,2,,,,,,,,
Potter,35.40128927,-101.8940484,33.888888888888886,wmoUnit:degC,36,0,,,,,,,,
Childress,34.52929257,-100.2075664,36.111111111111114,wmoUnit:degC,38,8,16093.44,wmoUnit:m,,,,,,
Willacy,26.47132899,-97.64303323,33.888888888888886,wmoUnit:degC,64,9,,,,,,,,
Bastrop,30.10353518,-97.31187705,31.666666666666668,wmoUnit:degC,68,42,,,,,,,,
Kimble,30.48676251,-99.74892716,32.77777777777778,wmoUnit:degC,52,2,16093.44,wmoUnit:m,,,,,,
Scurry,32.74720063,-100.9165071,29.444444444444443,wmoUnit:degC,61,4,16093.44,wmoUnit:m,,,,,,
Ochiltree,36.27846334,-100.815653,31.666666666666668,wmoUnit:degC,45,1,,,,,,,,
Hansford,36.27753179,-101.3545624,33.333333333333336,wmoUnit:degC,37,2,,,,,,,,
Hartley,35.83996755,-102.6028835,32.77777777777778,wmoUnit:degC,34,0,,,,,,,,
Cameron,26.13847728,-97.51499968,34.44444444444444,wmoUnit:degC,55,6,,,,,,,,
Matagorda,28.86711039,-95.98533866,25.555555555555557,wmoUnit:degC,91,72,15320.955616699264,wmoUnit:m,,,,,,
Burnet,30.78843382,-98.18252382,30.555555555555557,wmoUnit:degC,65,17,,,,,,,,
Rains,32.87004212,-95.79347545,27.22222222222222,wmoUnit:degC,85,13,16093.44,wmoUnit:m,,,,,,
Hays,30.05782657,-98.03104087,31.666666666666668,wmoUnit:degC,68,28,,,,,,,,
Mason,30.71742293,-99.2263026,31.666666666666668,wmoUnit:degC,56,3,16093.44,wmoUnit:m,,,,,,
Ward,31.509424,-103.1024636,33.333333333333336,wmoUnit:degC,40,1,16093.44,wmoUnit:m,,,,,,
Delta,33.38623601,-95.67221685,27.22222222222222,wmoUnit:degC,85,16,16093.44,wmoUnit:m,,,,,,
Nueces,27.72621549,-97.61767326,33.333333333333336,wmoUnit:degC,62,14,16093.44,wmoUnit:m,,,,,,
Callahan,32.2977738,-99.37359692,32.77777777777778,wmoUnit:degC,56,2,16093.44,wmoUnit:m,,,,,,
Bell,31.03778267,-97.47790776,28.88888888888889,wmoUnit:degC,77,11,16093.44,wmoUnit:m,,,,,,
Cherokee,31.83695632,-95.16515234,28.88888888888889,wmoUnit:degC,74,45,16093.44,wmoUnit:m,,,Flood Warning,Severe,Immediate,2025-06-15T21:15:00-05:00
Ellis,32.34839264,-96.79467417,27.77777777777778,wmoUnit:degC,85,8,16093.44,wmoUnit:m,,,,,,
Lubbock,33.6101944,-101.8205745,35.0,wmoUnit:degC,33,8,16093.44,wmoUnit:m,,,,,,
Terrell,30.22502597,-102.0764533,31.666666666666668,wmoUnit:degC,54,1,16093.44,wmoUnit:m,,,,,,
Crockett,30.72291931,-101.4118364,32.77777777777778,wmoUnit:degC,44,0,16093.44,wmoUnit:m,,,,,,
Atascosa,28.89418432,-98.52741302,33.333333333333336,wmoUnit:degC,54,26,,,,,,,,
Ector,31.86908156,-102.5430907,31.666666666666668,wmoUnit:degC,47,1,16093.44,wmoUnit:m,,,,,,
Brazos,30.6610425,-96.3022943,28.88888888888889,wmoUnit:degC,74,30,15642.824109741197,wmoUnit:m,,,Flood Warning,Severe,Immediate,2025-06-15T15:15:00-05:00
Aransas,28.12709562,-96.99258951,30.0,wmoUnit:degC,82,15,16093.44,wmoUnit:m,,,,,,
Dallas,32.76653746,-96.77781862,28.333333333333332,wmoUnit:degC,77,7,16093.44,wmoUnit:m,,,,,,
Howard,32.30610232,-101.4355097,31.11111111111111,wmoUnit:degC,52,4,16093.44,wmoUnit:m,,,,,,
Motley,34.07409017,-100.7798961,34.44444444444444,wmoUnit:degC,41,6,16093.44,wmoUnit:m,,,,,,
San Augustine,31.39427005,-94.16809762,28.88888888888889,wmoUnit:degC,77,58,16093.44,wmoUnit:m,,,,,,
Maverick,28.74260943,-100.3144638,34.44444444444444,wmoUnit:degC,51,0,,,,,,,,
Erath,32.23640361,-98.21722756,28.333333333333332,wmoUnit:degC,74,5,16093.44,wmoUnit:m,,,,,,
Dickens,33.61663428,-100.7788138,33.888888888888886,wmoUnit:degC,43,6,16093.44,wmoUnit:m,,,,,,
Caldwell,29.83677935,-97.61983479,32.22222222222222,wmoUnit:degC,66,42,,,,,,,,
Dawson,32.74258137,-101.9476136,30.0,wmoUnit:degC,53,3,16093.44,wmoUnit:m,,,,,,
Camp,32.97321771,-94.97860185,30.555555555555557,wmoUnit:degC,68,33,16093.44,wmoUnit:m,,,,,,
Duval,27.68133382,-98.50889672,35.55555555555556,wmoUnit:degC,46,12,16093.44,wmoUnit:m,,,,,,
Hunt,33.123531,-96.08550014,27.77777777777778,wmoUnit:degC,82,12,16093.44,wmoUnit:m,,,,,,
Mills,31.49524259,-98.59552736,27.77777777777778,wmoUnit:degC,79,2,16093.44,wmoUnit:m,,,,,,
Val Verde,29.89300587,-101.15171,30.555555555555557,wmoUnit:degC,57,0,,,,,,,,
Pecos,30.78100044,-102.7235743,32.22222222222222,wmoUnit:degC,42,0,16093.44,wmoUnit:m,,,,,,
Baylor,33.61648147,-99.21351964,34.44444444444444,wmoUnit:degC,48,4,,,,,,,,
Gregg,32.48036452,-94.81723694,30.0,wmoUnit:degC,70,41,16093.44,wmoUnit:m,,,Flood Warning,Severe,Immediate,2025-06-15T21:30:00-05:00
Cochran,33.60410808,-102.8285264,35.55555555555556,wmoUnit:degC,25,10,16093.44,wmoUnit:m,,,,,,
Jasper,30.74391255,-94.02495849,30.0,wmoUnit:degC,72,65,16093.44,wmoUnit:m,,,Flood Warning,Severe,Immediate,2025-06-15T22:00:00-05:00
Hamilton,31.70479181,-98.11066654,28.333333333333332,wmoUnit:degC,80,2,16093.44,wmoUnit:m,,,,,,
Castro,34.53000304,-102.2617608,33.333333333333336,wmoUnit:degC,34,8,16093.44,wmoUnit:m,,,,,,
Sterling,31.82786516,-101.0500699,34.44444444444444,wmoUnit:degC,44,0,16093.44,wmoUnit:m,,,,,,
Starr,26.56212627,-98.73834895,36.111111111111114,wmoUnit:degC,47,7,,,,,,,,
Crane,31.42846287,-102.5156425,32.77777777777778,wmoUnit:degC,47,1,16093.44,wmoUnit:m,,,,,,
Morris,33.11368507,-94.73205137,30.555555555555557,wmoUnit:degC,72,33,16093.44,wmoUnit:m,,,Flood Warning,Severe,Immediate,2025-06-15T22:00:00-05:00
Briscoe,34.53041048,-101.2085769,32.77777777777778,wmoUnit:degC,38,7,16093.44,wmoUnit:m,,,,,,
Tom Green,31.4044442,-100.4620678,33.333333333333336,wmoUnit:degC,52,1,16093.44,wmoUnit:m,,,,,,
Menard,30.88981785,-99.82061472,32.77777777777778,wmoUnit:degC,52,2,16093.44,wmoUnit:m,,,,,,
Parker,32.77852261,-97.80472194,28.333333333333332,wmoUnit:degC,72,9,16093.44,wmoUnit:m,,,,,,
Walker,30.73899492,-95.57224172,31.666666666666668,wmoUnit:degC,66,22,16077.34619165045,wmoUnit:m,,,Flood Warning,Severe,Immediate,2025-06-15T15:15:00-05:00
Brooks,27.0315669,-98.21874127,35.55555555555556,wmoUnit:degC,50,13,,,,,,,,
La Salle,28.34621032,-99.1034773,36.666666666666664,wmoUnit:degC,43,13,16093.44,wmoUnit:m,,,,,,
Edwards,29.98248216,-100.3048937,30.0,wmoUnit:degC,59,0,,,,,,,,
Lee,30.31065065,-96.96568735,29.444444444444443,wmoUnit:degC,72,40,,,,,,,,
Robertson,31.02705415,-96.51272568,27.22222222222222,wmoUnit:degC,88,23,16093.44,wmoUnit:m,,,Flood Warning,Severe,Immediate,2025-06-15T14:30:00-05:00
Young,33.17670764,-98.68781396,28.88888888888889,wmoUnit:degC,77,3,16093.44,wmoUnit:m,,,,,,
Bee,28.41736675,-97.74116811,32.22222222222222,wmoUnit:degC,62,22,16093.44,wmoUnit:m,,,,,,
Clay,33.78379717,-98.208958,33.333333333333336,wmoUnit:degC,58,8,,,,,,,,
San Jacinto,30.57948905,-95.16683273,31.11111111111111,wmoUnit:degC,61,23,16045.160109741197,wmoUnit:m,,,Flood Warning,Severe,Immediate,2025-06-15T15:00:00-05:00
Uvalde,29.35669829,-99.76203107,32.22222222222222,wmoUnit:degC,60,4,,,,,,,,
Haskell,33.17824805,-99.73029401,32.77777777777778,wmoUnit:degC,52,2,16093.44,wmoUnit:m,,,,,,
Somervell,32.22229511,-97.77456553,29.444444444444443,wmoUnit:degC,72,5,16093.44,wmoUnit:m,,,,,,
Bexar,29.44884523,-98.51966309,31.666666666666668,wmoUnit:degC,68,30,,,,,,,,
Grayson,33.62684371,-96.67764864,28.333333333333332,wmoUnit:degC,77,16,16093.44,wmoUnit:m,,,,,,
Bailey,34.0684915,-102.8299069,34.44444444444444,wmoUnit:degC,31,10,16093.44,wmoUnit:m,,,,,,
Jones,32.73970429,-99.87850599,33.888888888888886,wmoUnit:degC,49,2,16093.44,wmoUnit:m,,,,,,
Jefferson,29.88425832,-94.1708778,29.444444444444443,wmoUnit:degC,77,43,16093.44,wmoUnit:m,FA,A,Flood Warning,Severe,Immediate,2025-06-15T22:00:00-05:00
Rusk,32.10803224,-94.76169577,29.444444444444443,wmoUnit:degC,72,46,16093.44,wmoUnit:m,,,Flood Warning,Severe,Immediate,2025-06-15T20:30:00-05:00
Glasscock,31.8694238,-101.520742,30.555555555555557,wmoUnit:degC,57,5,16093.44,wmoUnit:m,,,,,,
Gillespie,30.31800246,-98.94627245,30.0,wmoUnit:degC,68,8,,,,,,,,
Fisher,32.74305155,-100.4019503,34.44444444444444,wmoUnit:degC,44,1,16093.44,wmoUnit:m,,,,,,
Henderson,32.21188078,-95.85356847,27.22222222222222,wmoUnit:degC,79,15,16093.44,wmoUnit:m,,,Flood Warning,Severe,Immediate,2025-06-15T14:30:00-05:00
Shackelford,32.7360276,-99.35403034,32.77777777777778,wmoUnit:degC,54,3,16093.44,wmoUnit:m,,,,,,
Palo Pinto,32.75316856,-98.31299522,28.333333333333332,wmoUnit:degC,77,10,16093.44,wmoUnit:m,,,,,,
Wilbarger,34.08044953,-99.24089568,35.55555555555556,wmoUnit:degC,45,4,,,,,,,,
Floyd,34.07239775,-101.3033037,33.333333333333336,wmoUnit:degC,38,5,16093.44,wmoUnit:m,,,,,,
Orange,30.12807126,-93.89653794,30.0,wmoUnit:degC,70,69,16093.44,wmoUnit:m,FA,A,Flood Warning,Severe,Immediate,2025-06-15T22:00:00-05:00
Runnels,31.83105393,-99.97624799,33.888888888888886,wmoUnit:degC,49,1,16093.44,wmoUnit:m,,,,,,
Coleman,31.77329421,-99.45362579,32.77777777777778,wmoUnit:degC,52,2,16093.44,wmoUnit:m,,,,,,
Martin,32.30605847,-101.9512464,31.666666666666668,wmoUnit:degC,48,4,16093.44,wmoUnit:m,,,,,,
Wheeler,35.40129002,-100.2697634,32.22222222222222,wmoUnit:degC,39,1,,,,,,,,
Culberson,31.44709817,-104.5177421,32.22222222222222,wmoUnit:degC,22,0,16093.44,wmoUnit:m,,,,,,
Mitchell,32.30636024,-100.9211128,31.666666666666668,wmoUnit:degC,54,3,16093.44,wmoUnit:m,,,,,,
Hudspeth,31.45613738,-105.3869428,36.666666666666664,wmoUnit:degC,12,2,16093.44,wmoUnit:m,HT,Y,Heat Advisory,Moderate,Expected,2025-06-15T06:00:00-06:00
Upshur,32.7362827,-94.94132011,30.555555555555557,wmoUnit:degC,68,35,16093.44,wmoUnit:m,,,Flood Warning,Severe,Immediate,2025-06-15T21:30:00-05:00
Liberty,30.15153187,-94.8120925,31.666666666666668,wmoUnit:degC,54,18,15691.104,wmoUnit:m,,,Flood Warning,Severe,Immediate,2025-06-15T15:00:00-05:00
Williamson,30.64834941,-97.60105467,31.11111111111111,wmoUnit:degC,72,27,,,,,,,,
Nacogdoches,31.61604108,-94.6158776,29.444444444444443,wmoUnit:degC,77,51,16093.44,wmoUnit:m,,,Flood Warning,Severe,Immediate,2025-06-15T21:15:00-05:00
Loving,31.84912973,-103.5799063,32.22222222222222,wmoUnit:degC,39,0,16093.44,wmoUnit:m,,,,,,
Jim Wells,27.73131099,-98.0898649,34.44444444444444,wmoUnit:degC,58,15,16093.44,wmoUnit:m,,,,,,
Upton,31.36853957,-102.0430005,30.555555555555557,wmoUnit:degC,57,3,16093.44,wmoUnit:m,,,,,,
Newton,30.78619977,-93.74462993,29.444444444444443,wmoUnit:degC,72,78,16093.44,wmoUnit:m,,,Flood Warning,Severe,Immediate,2025-06-15T22:00:00-05:00
Lamar,33.66746186,-95.57110784,26.11111111111111,wmoUnit:degC,91,19,16093.44,wmoUnit:m,,,,,,
Polk,30.79250963,-94.82994949,32.22222222222222,wmoUnit:degC,64,18,15626.730301391646,wmoUnit:m,,,Flood Warning,Severe,Immediate,2025-06-15T21:15:00-05:00
Collin,33.18789055,-96.57248871,27.77777777777778,wmoUnit:degC,79,12,16093.44,wmoUnit:m,,,,,,
Hardeman,34.28865227,-99.7453851,35.0,wmoUnit:degC,45,4,,,,,,,,
McMullen,28.35351091,-98.56842256,36.111111111111114,wmoUnit:degC,48,15,16093.44,wmoUnit:m,,,,,,
Cottle,34.0776571,-100.2786983,35.0,wmoUnit:degC,42,8,16093.44,wmoUnit:m,,,,,,
Frio,28.86726774,-99.10826004,33.888888888888886,wmoUnit:degC,54,10,,,,,,,,
Gray,35.40130666,-100.812475,31.666666666666668,wmoUnit:degC,44,2,,,,,,,,
Dallam,36.27777107,-102.6021647,33.333333333333336,wmoUnit:degC,31,1,,,,,,,,
Kenedy,26.92409448,-97.68137783,33.333333333333336,wmoUnit:degC,67,12,,,,,,,,
Fort Bend,29.52763253,-95.77090562,26.666666666666668,wmoUnit:degC,88,15,16093.44,wmoUnit:m,,,Flood Warning,Severe,Immediate,2025-06-15T15:15:00-05:00
Armstrong,34.96522076,-101.3572412,32.77777777777778,wmoUnit:degC,40,0,,,,,,,,
Collingsworth,34.96498493,-100.2700733,33.888888888888886,wmoUnit:degC,39,5,,,,,,,,
Cass,33.07750446,-94.34348771,31.11111111111111,wmoUnit:degC,68,35,16093.44,wmoUnit:m,,,Flood Warning,Severe,Immediate,2025-06-15T22:00:00-05:00
Sherman,36.27765824,-101.8933822,33.333333333333336,wmoUnit:degC,33,2,,,,,,,,
Terry,33.17373729,-102.335157,35.55555555555556,wmoUnit:degC,29,9,16093.44,wmoUnit:m,,,,,,
Limestone,31.54541898,-96.58056718,26.666666666666668,wmoUnit:degC,88,18,16093.44,wmoUnit:m,,,,,,
Real,29.83182711,-99.82215881,30.555555555555557,wmoUnit:degC,59,2,,,,,,,,
Lynn,33.17685487,-101.8160235,35.0,wmoUnit:degC,34,8,16093.44,wmoUnit:m,,,,,,
Lavaca,29.38437003,-96.93020993,30.0,wmoUnit:degC,82,56,,,,,,,,
Nolan,32.3034718,-100.4060989,32.77777777777778,wmoUnit:degC,47,1,16093.44,wmoUnit:m,,,,,,
Gaines,32.74074537,-102.6351246,30.555555555555557,wmoUnit:degC,46,3,16093.44,wmoUnit:m,,,,,,
Montgomery,30.30022409,-95.50301411,32.77777777777778,wmoUnit:degC,62,26,15852.039013915974,wmoUnit:m,,,,,,
Concho,31.32645211,-99.86413426,31.666666666666668,wmoUnit:degC,56,1,16093.44,wmoUnit:m,,,,,,
Hardin,30.33238431,-94.39021394,29.444444444444443,wmoUnit:degC,74,61,16093.44,wmoUnit:m,FA,A,Flood Warning,Severe,Immediate,2025-06-15T22:00:00-05:00
Harris,29.85967144,-95.39782106,31.666666666666668,wmoUnit:degC,59,17,16077.34619165045,wmoUnit:m,,,,,,
Leon,31.29655719,-95.99554292,28.333333333333332,wmoUnit:degC,85,33,16093.44,wmoUnit:m,,,Flood Warning,Severe,Immediate,2025-06-15T14:30:00-05:00
Bowie,33.44572786,-94.42324298,31.666666666666668,wmoUnit:degC,70,34,16093.44,wmoUnit:m,,,Flood Warning,Severe,Immediate,2025-06-15T22:00:00-05:00
Kaufman,32.59927808,-96.28779341,27.77777777777778,wmoUnit:degC,79,9,16093.44,wmoUnit:m,,,,,,
Anderson,31.81321543,-95.65251774,26.11111111111111,wmoUnit:degC,88,21,16093.44,wmoUnit:m,,,Flood Warning,Severe,Immediate,2025-06-15T21:15:00-05:00
San Saba,31.15520543,-98.81754295,31.666666666666668,wmoUnit:degC,56,7,16093.44,wmoUnit:m,,,,,,
Schleicher,30.89661056,-100.538097,32.77777777777778,wmoUnit:degC,45,0,16093.44,wmoUnit:m,,,,,,
Colorado,29.6208542,-96.52630821,25.555555555555557,wmoUnit:degC,82,22,15900.318904174776,wmoUnit:m,,,,,,
Milam,30.78625299,-96.97683495,28.333333333333332,wmoUnit:degC,85,23,16093.44,wmoUnit:m,,,,,,
Live Oak,28.3514375,-98.12474493,34.44444444444444,wmoUnit:degC,54,18,16093.44,wmoUnit:m,,,,,,
Borden,32.7436916,-101.4317533,30.555555555555557,wmoUnit:degC,53,3,16093.44,wmoUnit:m,,,,,,
McCulloch,31.19896752,-99.34754972,31.666666666666668,wmoUnit:degC,56,3,16093.44,wmoUnit:m,,,,,,
Johnson,32.37899918,-97.36660504,28.333333333333332,wmoUnit:degC,82,5,16093.44,wmoUnit:m,,,,,,
Montague,33.67496328,-97.72466993,27.77777777777778,wmoUnit:degC,82,13,16093.44,wmoUnit:m,,,,,,
Stonewall,33.17842158,-100.255259,35.0,wmoUnit:degC,42,5,16093.44,wmoUnit:m,,,,,,
Comal,29.80816362,-98.27814516,30.555555555555557,wmoUnit:degC,72,30,,,,,,,,
Eastland,32.32739258,-98.8325713,28.88888888888889,wmoUnit:degC,72,2,16093.44,wmoUnit:m,,,,,,
Comanche,31.9490639,-98.55841538,28.88888888888889,wmoUnit:degC,74,2,16093.44,wmoUnit:m,,,,,,
King,33.61641863,-100.2558584,34.44444444444444,wmoUnit:degC,46,6,16093.44,wmoUnit:m,,,,,,
Washington,30.2145299,-96.40356575,26.666666666666668,wmoUnit:degC,82,27,13598.956493041933,wmoUnit:m,,,,,,
Webb,27.76102524,-99.33170164,37.22222222222222,wmoUnit:degC,39,7,16093.44,wmoUnit:m,,,,,,
Fayette,29.87683207,-96.91968047,30.0,wmoUnit:degC,77,56,,,,,,,,
Harrison,32.54814898,-94.37155736,29.444444444444443,wmoUnit:degC,72,42,16093.44,wmoUnit:m,,,,,,
Presidio,29.99977786,-104.2405552,31.666666666666668,wmoUnit:degC,28,0,16093.44,wmoUnit:m,,,,,,
Austin,29.88711223,-96.27791829,29.444444444444443,wmoUnit:degC,72,26,15514.076712524487,wmoUnit:m,,,,,,
Randall,34.96594288,-101.8968527,33.888888888888886,wmoUnit:degC,39,0,,,,,,,,
Hood,32.43107878,-97.83280338,28.88888888888889,wmoUnit:degC,70,8,16093.44,wmoUnit:m,,,,,,
Victoria,28.79640594,-96.97176602,31.11111111111111,wmoUnit:degC,70,33,16093.44,wmoUnit:m,,,Flood Warning,Severe,Immediate,2025-06-15T11:00:00-05:00
Hutchinson,35.84000866,-101.3547257,33.333333333333336,wmoUnit:degC,37,0,,,,,,,,
Coryell,31.39087578,-97.7991883,29.444444444444443,wmoUnit:degC,77,3,16093.44,wmoUnit:m,,,,,,
Jackson,28.95603133,-96.57883268,23.88888888888889,wmoUnit:degC,94,70,14178.321315307618,wmoUnit:m,,,,,,
Taylor,32.30138229,-99.89003941,31.666666666666668,wmoUnit:degC,54,1,16093.44,wmoUnit:m,,,,,,
Zapata,27.00089072,-99.16860134,37.22222222222222,wmoUnit:degC,40,6,,,,,,,,
San Patricio,28.00922186,-97.51859857,32.22222222222222,wmoUnit:degC,70,17,16093.44,wmoUnit:m,,,,,,
Grimes,30.54360689,-95.98557334,29.444444444444443,wmoUnit:degC,77,27,15401.421588867157,wmoUnit:m,,,Flood Warning,Severe,Immediate,2025-06-15T15:15:00-05:00
Lamb,34.06861242,-102.3517095,34.44444444444444,wmoUnit:degC,34,9,16093.44,wmoUnit:m,,,,,,
