countyName,latitude,longitude,temperature,temperature_unit,relativeHumidity,precipitationProbability,visibility,visibility_unit,hazard_phenomenon,hazard_significance,alert_event,alert_severity,alert_urgency,alert_expires
Foard,33.97408519,-99.77871109,20.0,wmoUnit:degC,88,8,,,,,,,,
Blanco,30.26636128,-98.39974086,23.333333333333332,wmoUnit:degC,82,44,16093.44,wmoUnit:m,,,,,,
Hockley,33.60750375,-102.3430919,16.666666666666668,wmoUnit:degC,93,10,16093.44,wmoUnit:m,,,,,,
Llano,30.70566579,-98.68387398,24.444444444444443,wmoUnit:degC,76,63,16093.44,wmoUnit:m,,,,,,
Swisher,34.53064989,-101.734951,14.444444444444445,wmoUnit:degC,100,3,16093.44,wmoUnit:m,,,,,,
Titus,33.2160906,-94.96509786,20.0,wmoUnit:degC,97,1,16093.44,wmoUnit:m,,,,,,
Navarro,32.04695429,-96.47248134,25.0,wmoUnit:degC,79,0,16093.44,wmoUnit:m,,,Flood Warning,Severe,Immediate,2025-05-29T02:45:00-05:00
Brazoria,29.19345387,-95.45578479,23.88888888888889,wmoUnit:degC,97,1,15031.273205566422,wmoUnit:m,,,Flood Advisory,Minor,Expected,2025-05-28T11:45:00-05:00
Hidalgo,26.396627,-98.18088681,27.22222222222222,wmoUnit:degC,86,36,,,SV,A,,,,
Archer,33.61539176,-98.68783437,20.555555555555557,wmoUnit:degC,92,12,,,,,,,,
Refugio,28.32681413,-97.16546961,25.555555555555557,wmoUnit:degC,94,19,15320.955616699264,wmoUnit:m,,,,,,
Andrews,32.30506283,-102.6378839,23.88888888888889,wmoUnit:degC,56,40,16093.44,wmoUnit:m,SV,A,,,,
Galveston,29.39424415,-94.96474975,24.444444444444443,wmoUnit:degC,94,0,15916.412712524489,wmoUnit:m,,,Flood Advisory,Minor,Expected,2025-05-28T11:45:00-05:00
De Witt,29.08201599,-97.35666976,24.444444444444443,wmoUnit:degC,87,16,12939.125698608354,wmoUnit:m,,,,,,
Gonzales,29.45641495,-97.49279927,24.444444444444443,wmoUnit:degC,85,17,14870.338191650448,wmoUnit:m,,,,,,
Wharton,29.2778362,-96.22197375,23.333333333333332,wmoUnit:degC,97,2,15594.542684692382,wmoUnit:m,,,,,,
Fannin,33.59396919,-96.10656755,21.11111111111111,wmoUnit:degC,93,0,16093.44,wmoUnit:m,,,,,,
Madison,30.96564645,-95.92818441,21.666666666666668,wmoUnit:degC,93,1,15449.703013915972,wmoUnit:m,,,,,,
Moore,35.83768863,-101.8929556,13.333333333333334,wmoUnit:degC,90,5,,,,,,,,
Tyler,30.7712607,-94.37651432,22.22222222222222,wmoUnit:degC,93,2,13615.050301391646,wmoUnit:m,,,,,,
Lipscomb,36.27778432,-100.27317,13.88888888888889,wmoUnit:degC,96,8,,,,,,,,
Burleson,30.49246139,-96.62109399,23.333333333333332,wmoUnit:degC,84,3,16061.252383300736,wmoUnit:m,,,,,,
Jim Hogg,27.04340499,-98.6972921,25.555555555555557,wmoUnit:degC,93,49,,,SV,A,,,,
Throckmorton,33.17753907,-99.21236832,20.0,wmoUnit:degC,90,12,,,,,,,,
Kleberg,27.43274395,-97.72889778,26.666666666666668,wmoUnit:degC,94,20,14982.993315307618,wmoUnit:m,SV,A,,,,
Shelby,31.79242191,-94.14495261,21.11111111111111,wmoUnit:degC,87,1,12762.097643737756,wmoUnit:m,,,,,,
Garza,33.17991074,-101.2984496,17.22222222222222,wmoUnit:degC,97,13,16093.44,wmoUnit:m,,,,,,
Karnes,28.90493782,-97.85960621,24.444444444444443,wmoUnit:degC,87,21,16093.44,wmoUnit:m,,,,,,
Reeves,31.32307061,-103.693143,20.0,wmoUnit:degC,51,6,16093.44,wmoUnit:m,SV,A,,,,
Houston,31.31764137,-95.42225367,22.22222222222222,wmoUnit:degC,90,0,15449.703013915972,wmoUnit:m,,,,,,
El Paso,31.7686226,-106.2352229,23.88888888888889,wmoUnit:degC,27,0,16093.44,wmoUnit:m,,,,,,
Carson,35.40346802,-101.3542037,15.555555555555555,wmoUnit:degC,84,1,,,,,,,,
Medina,29.35520493,-99.11008331,25.0,wmoUnit:degC,85,100,16093.44,wmoUnit:m,,,Flash Flood Warning,Severe,Immediate,2025-05-28T10:00:00-05:00
Wichita,33.98421585,-98.70153389,20.0,wmoUnit:degC,85,10,,,,,,,,
Chambers,29.73912276,-94.60891308,23.88888888888889,wmoUnit:degC,94,0,14822.058301391646,wmoUnit:m,,,,,,
Donley,34.96540246,-100.8140501,15.555555555555555,wmoUnit:degC,90,0,,,,,,,,
Hopkins,33.14933822,-95.56414173,22.77777777777778,wmoUnit:degC,87,0,16093.44,wmoUnit:m,,,,,,
Lampasas,31.19627791,-98.24142711,23.333333333333332,wmoUnit:degC,90,11,16093.44,wmoUnit:m,,,,,,
Falls,31.25317017,-96.93579511,24.444444444444443,wmoUnit:degC,82,2,16093.44,wmoUnit:m,,,,,,
Stephens,32.73584155,-98.83612016,22.77777777777778,wmoUnit:degC,79,1,11265.408,wmoUnit:m,,,,,,
Travis,30.33423319,-97.78194654,25.0,wmoUnit:degC,79,28,16093.44,wmoUnit:m,,,Flood Advisory,Minor,Expected,2025-05-28T09:15:00-05:00
Roberts,35.8385577,-100.8135689,12.777777777777779,wmoUnit:degC,96,3,,,,,,,,
Crosby,33.61459873,-101.2998612,15.0,wmoUnit:degC,100,8,16093.44,wmoUnit:m,,,,,,
Kerr,30.06153035,-99.35016969,25.0,wmoUnit:degC,76,99,16093.44,wmoUnit:m,,,Flash Flood Warning,Severe,Immediate,2025-05-28T10:00:00-05:00
Wood,32.78634374,-95.38206498,20.0,wmoUnit:degC,97,1,16093.44,wmoUnit:m,,,,,,
Jack,33.23345819,-98.1725509,21.666666666666668,wmoUnit:degC,84,1,16093.44,wmoUnit:m,,,,,,
Marion,32.79797929,-94.35725239,19.444444444444443,wmoUnit:degC,100,1,11265.408,wmoUnit:m,,,Flood Warning,Severe,Immediate,2025-05-28T20:45:00-05:00
Hale,34.07051782,-101.8269082,14.444444444444445,wmoUnit:degC,100,4,16093.44,wmoUnit:m,,,,,,
Jeff Davis,30.71559322,-104.1403539,15.0,wmoUnit:degC,62,7,16093.44,wmoUnit:m,SV,A,,,,
Tarrant,32.77185236,-97.29116473,24.444444444444443,wmoUnit:degC,69,2,16093.44,wmoUnit:m,,,,,,
Waller,30.01093722,-95.98768942,23.333333333333332,wmoUnit:degC,93,1,14741.59079443358,wmoUnit:m,,,,,,
Reagan,31.36617698,-101.5230108,17.77777777777778,wmoUnit:degC,81,46,11265.408,wmoUnit:m,SV,A,,,,
Smith,32.37514553,-95.26909511,21.666666666666668,wmoUnit:degC,87,1,16093.44,wmoUnit:m,,,Flood Warning,Severe,Immediate,2025-05-29T08:45:00-05:00
Van Zandt,32.56368961,-95.8364862,22.22222222222222,wmoUnit:degC,90,0,16093.44,wmoUnit:m,,,,,,
Cooke,33.638465,-97.21247642,21.666666666666668,wmoUnit:degC,84,0,16093.44,wmoUnit:m,,,,,,
Zavala,28.86530621,-99.76102001,25.555555555555557,wmoUnit:degC,85,100,16093.44,wmoUnit:m,,,,,,
Hall,34.53074134,-100.6809876,16.666666666666668,wmoUnit:degC,100,3,16093.44,wmoUnit:m,,,,,,
Kendall,29.9446397,-98.71160511,23.333333333333332,wmoUnit:degC,87,99,16093.44,wmoUnit:m,,,Flash Flood Warning,Severe,Immediate,2025-05-28T10:00:00-05:00
Goliad,28.65708563,-97.42646082,24.444444444444443,wmoUnit:degC,94,18,15160.02060278313,wmoUnit:m,,,,,,
Yoakum,33.17293501,-102.8278792,15.555555555555555,wmoUnit:degC,100,20,16093.44,wmoUnit:m,,,,,,
Knox,33.60614755,-99.74144313,21.11111111111111,wmoUnit:degC,88,12,,,,,,,,
McLennan,31.55234489,-97.20184883,24.444444444444443,wmoUnit:degC,76,1,16093.44,wmoUnit:m,,,,,,
Brewster,29.81205836,-103.2518906,21.666666666666668,wmoUnit:degC,59,19,16093.44,wmoUnit:m,SV,A,,,,
Panola,32.16222886,-94.30552858,20.555555555555557,wmoUnit:degC,97,1,11265.408,wmoUnit:m,,,,,,
Bandera,29.74724753,-99.24637282,25.0,wmoUnit:degC,76,100,16093.44,wmoUnit:m,,,Flash Flood Warning,Severe,Immediate,2025-05-28T10:00:00-05:00
Parmer,34.53014507,-102.784594,12.777777777777779,wmoUnit:degC,100,4,16093.44,wmoUnit:m,,,,,,
Rockwall,32.89786769,-96.40780584,22.22222222222222,wmoUnit:degC,84,0,16093.44,wmoUnit:m,,,,,,
Trinity,31.0885069,-95.13551682,22.22222222222222,wmoUnit:degC,93,0,15111.740712524488,wmoUnit:m,,,Flood Warning,Severe,Immediate,2025-05-29T08:45:00-05:00
Bosque,31.90050476,-97.63437613,23.88888888888889,wmoUnit:degC,79,0,16093.44,wmoUnit:m,,,,,,
Coke,31.88849293,-100.5298747,19.444444444444443,wmoUnit:degC,78,28,,,,,,,,
Franklin,33.17550691,-95.21841437,20.555555555555557,wmoUnit:degC,90,1,16093.44,wmoUnit:m,,,,,,
Hill,31.99079033,-97.1324142,23.333333333333332,wmoUnit:degC,82,0,16093.44,wmoUnit:m,,,,,,
Calhoun,28.48966896,-96.64708119,26.666666666666668,wmoUnit:degC,97,16,15481.889095825225,wmoUnit:m,,,,,,
Irion,31.30393203,-100.9824126,18.88888888888889,wmoUnit:degC,75,33,,,,,,,,
Midland,31.86921148,-102.0315032,20.555555555555557,wmoUnit:degC,53,31,14484.096,wmoUnit:m,SV,A,,,,
Brown,31.77432313,-98.99989649,22.22222222222222,wmoUnit:degC,81,23,,,,,,,,
Wilson,29.17315896,-98.08621015,24.444444444444443,wmoUnit:degC,87,28,16093.44,wmoUnit:m,,,,,,
Oldham,35.40497586,-102.6029949,16.11111111111111,wmoUnit:degC,100,5,,,,,,,,
Freestone,31.70486443,-96.14918535,23.333333333333332,wmoUnit:degC,82,0,16093.44,wmoUnit:m,,,,,,
Sabine,31.34321941,-93.85170439,20.555555555555557,wmoUnit:degC,100,1,14548.469698608355,wmoUnit:m,,,,,,
Deaf Smith,34.96602014,-102.6048162,16.666666666666668,wmoUnit:degC,87,2,,,,,,,,
Angelina,31.25475875,-94.611742,21.11111111111111,wmoUnit:degC,97,2,12746.00460278313,wmoUnit:m,,,Flood Warning,Severe,Immediate,2025-05-29T08:45:00-05:00
Kent,33.18284492,-100.7791031,17.77777777777778,wmoUnit:degC,100,15,16093.44,wmoUnit:m,,,,,,
Red River,33.62074539,-95.0501886,20.0,wmoUnit:degC,90,1,16093.44,wmoUnit:m,,,Flood Warning,Severe,Immediate,2025-05-28T20:45:00-05:00
Kinney,29.35000302,-100.4178441,26.11111111111111,wmoUnit:degC,82,53,16093.44,wmoUnit:m,,,,,,
Denton,33.205574,-97.11681154,23.88888888888889,wmoUnit:degC,74,2,16093.44,wmoUnit:m,,,Flood Warning,Severe,Immediate,2025-05-29T00:00:00-05:00
Sutton,30.49747152,-100.5382263,17.22222222222222,wmoUnit:degC,87,41,,,,,,,,
Guadalupe,29.58257236,-97.94850308,25.0,wmoUnit:degC,85,27,16093.44,wmoUnit:m,,,Flash Flood Warning,Severe,Immediate,2025-05-28T10:00:00-05:00
Winkler,31.85008609,-103.0484794,20.0,wmoUnit:degC,63,27,16093.44,wmoUnit:m,SV,A,,,,
Dimmit,28.42161168,-99.760574,26.11111111111111,wmoUnit:degC,77,100,16093.44,wmoUnit:m,,,,,,
Wise,33.21585061,-97.65444124,22.22222222222222,wmoUnit:degC,84,2,16093.44,wmoUnit:m,,,Flood Warning,Severe,Immediate,2025-05-29T02:45:00-05:00
Hemphill,35.83750155,-100.2704628,13.88888888888889,wmoUnit:degC,100,3,,,,,,,,
Potter,35.40128927,-101.8940484,16.11111111111111,wmoUnit:degC,90,1,,,,,,,,
Childress,34.52929257,-100.2075664,17.22222222222222,wmoUnit:degC,97,2,16093.44,wmoUnit:m,,,,,,
Willacy,26.47132899,-97.64303323,26.11111111111111,wmoUnit:degC,98,29,,,SV,A,,,,
Bastrop,30.10353518,-97.31187705,25.555555555555557,wmoUnit:degC,79,17,16093.44,wmoUnit:m,,,Flood Advisory,Minor,Expected,2025-05-28T09:15:00-05:00
Kimble,30.48676251,-99.74892716,22.77777777777778,wmoUnit:degC,90,40,,,,,,,,
Scurry,32.74720063,-100.9165071,21.666666666666668,wmoUnit:degC,71,15,16093.44,wmoUnit:m,,,,,,
Ochiltree,36.27846334,-100.815653,12.222222222222221,wmoUnit:degC,100,13,,,,,,,,
Hansford,36.27753179,-101.3545624,13.333333333333334,wmoUnit:degC,86,15,,,,,,,,
Hartley,35.83996755,-102.6028835,15.555555555555555,wmoUnit:degC,93,8,,,,,,,,
Cameron,26.13847728,-97.51499968,26.666666666666668,wmoUnit:degC,93,29,,,SV,A,Special Weather Statement,Moderate,Expected,2025-05-28T09:15:00-05:00
Matagorda,28.86711039,-95.98533866,24.444444444444443,wmoUnit:degC,100,9,11748.211506958067,wmoUnit:m,,,,,,
Burnet,30.78843382,-98.18252382,22.77777777777778,wmoUnit:degC,87,37,16093.44,wmoUnit:m,,,,,,
Rains,32.87004212,-95.79347545,21.666666666666668,wmoUnit:degC,90,0,16093.44,wmoUnit:m,,,,,,
Hays,30.05782657,-98.03104087,23.333333333333332,wmoUnit:degC,90,30,16093.44,wmoUnit:m,,,Flood Advisory,Minor,Expected,2025-05-28T09:15:00-05:00
Mason,30.71742293,-99.2263026,23.333333333333332,wmoUnit:degC,82,36,,,,,,,,
Ward,31.509424,-103.1024636,21.11111111111111,wmoUnit:degC,59,13,16093.44,wmoUnit:m,SV,A,,,,
Delta,33.38623601,-95.67221685,22.22222222222222,wmoUnit:degC,84,0,16093.44,wmoUnit:m,,,,,,
Nueces,27.72621549,-97.61767326,26.666666666666668,wmoUnit:degC,91,20,15176.114411132843,wmoUnit:m,SV,A,,,,
Callahan,32.2977738,-99.37359692,21.666666666666668,wmoUnit:degC,79,20,,,,,,,,
Bell,31.03778267,-97.47790776,24.444444444444443,wmoUnit:degC,76,4,16093.44,wmoUnit:m,,,,,,
Cherokee,31.83695632,-95.16515234,22.22222222222222,wmoUnit:degC,87,2,16093.44,wmoUnit:m,,,Flood Warning,Severe,Immediate,2025-05-29T08:45:00-05:00
Ellis,32.34839264,-96.79467417,22.22222222222222,wmoUnit:degC,93,0,16093.44,wmoUnit:m,,,,,,
Lubbock,33.6101944,-101.8205745,16.666666666666668,wmoUnit:degC,97,8,16093.44,wmoUnit:m,,,,,,
Terrell,30.22502597,-102.0764533,20.555555555555557,wmoUnit:degC,68,60,16093.44,wmoUnit:m,SV,A,,,,
Crockett,30.72291931,-101.4118364,18.88888888888889,wmoUnit:degC,61,37,,,,,,,,
Atascosa,28.89418432,-98.52741302,23.88888888888889,wmoUnit:degC,90,83,16093.44,wmoUnit:m,,,,,,
Ector,31.86908156,-102.5430907,18.88888888888889,wmoUnit:degC,61,31,16093.44,wmoUnit:m,SV,A,,,,
Brazos,30.6610425,-96.3022943,23.333333333333332,wmoUnit:degC,90,10,15256.580383300736,wmoUnit:m,,,,,,
Aransas,28.12709562,-96.99258951,27.77777777777778,wmoUnit:degC,91,19,15819.85139721687,wmoUnit:m,,,,,,
Dallas,32.76653746,-96.77781862,23.88888888888889,wmoUnit:degC,74,1,16093.44,wmoUnit:m,,,,,,
Howard,32.30610232,-101.4355097,25.0,wmoUnit:degC,58,25,16093.44,wmoUnit:m,,,,,,
Motley,34.07409017,-100.7798961,16.666666666666668,wmoUnit:degC,100,6,16093.44,wmoUnit:m,,,,,,
San Augustine,31.39427005,-94.16809762,20.0,wmoUnit:degC,97,1,12746.00460278313,wmoUnit:m,,,,,,
Maverick,28.74260943,-100.3144638,26.11111111111111,wmoUnit:degC,88,87,16093.44,wmoUnit:m,,,,,,
Erath,32.23640361,-98.21722756,23.88888888888889,wmoUnit:degC,74,0,16093.44,wmoUnit:m,,,,,,
Dickens,33.61663428,-100.7788138,15.555555555555555,wmoUnit:degC,100,9,16093.44,wmoUnit:m,,,,,,
Caldwell,29.83677935,-97.61983479,24.444444444444443,wmoUnit:degC,87,22,16093.44,wmoUnit:m,,,Flood Advisory,Minor,Expected,2025-05-28T09:15:00-05:00
Dawson,32.74258137,-101.9476136,22.22222222222222,wmoUnit:degC,64,34,16093.44,wmoUnit:m,,,,,,
Camp,32.97321771,-94.97860185,20.0,wmoUnit:degC,97,1,14548.469698608355,wmoUnit:m,,,,,,
Duval,27.68133382,-98.50889672,25.0,wmoUnit:degC,97,43,15449.703013915972,wmoUnit:m,,,,,,
Hunt,33.123531,-96.08550014,21.11111111111111,wmoUnit:degC,100,0,16093.44,wmoUnit:m,,,,,,
Mills,31.49524259,-98.59552736,22.22222222222222,wmoUnit:degC,84,12,16093.44,wmoUnit:m,,,,,,
Val Verde,29.89300587,-101.15171,21.666666666666668,wmoUnit:degC,66,43,16093.44,wmoUnit:m,,,,,,
Pecos,30.78100044,-102.7235743,18.333333333333332,wmoUnit:degC,75,13,16093.44,wmoUnit:m,SV,A,,,,
Baylor,33.61648147,-99.21351964,20.0,wmoUnit:degC,89,11,,,,,,,,
Gregg,32.48036452,-94.81723694,20.555555555555557,wmoUnit:degC,93,1,11265.408,wmoUnit:m,,,Flood Warning,Severe,Immediate,2025-05-29T08:45:00-05:00
Cochran,33.60410808,-102.8285264,15.0,wmoUnit:degC,100,13,16093.44,wmoUnit:m,,,,,,
Jasper,30.74391255,-94.02495849,22.77777777777778,wmoUnit:degC,93,2,13759.891506958067,wmoUnit:m,,,,,,
Hamilton,31.70479181,-98.11066654,22.22222222222222,wmoUnit:degC,90,4,16093.44,wmoUnit:m,,,,,,
Castro,34.53000304,-102.2617608,13.88888888888889,wmoUnit:degC,100,3,16093.44,wmoUnit:m,,,,,,
Sterling,31.82786516,-101.0500699,18.88888888888889,wmoUnit:degC,73,25,,,,,,,,
Starr,26.56212627,-98.73834895,25.555555555555557,wmoUnit:degC,90,40,,,SV,A,,,,
Crane,31.42846287,-102.5156425,21.11111111111111,wmoUnit:degC,57,14,16093.44,wmoUnit:m,SV,A,,,,
Morris,33.11368507,-94.73205137,19.444444444444443,wmoUnit:degC,100,1,14548.469698608355,wmoUnit:m,,,,,,
Briscoe,34.53041048,-101.2085769,15.0,wmoUnit:degC,100,3,16093.44,wmoUnit:m,,,,,,
Tom Green,31.4044442,-100.4620678,17.22222222222222,wmoUnit:degC,97,32,,,,,,,,
Menard,30.88981785,-99.82061472,20.555555555555557,wmoUnit:degC,87,35,,,,,,,,
Parker,32.77852261,-97.80472194,22.77777777777778,wmoUnit:degC,76,2,16093.44,wmoUnit:m,,,,,,
Walker,30.73899492,-95.57224172,22.22222222222222,wmoUnit:degC,93,7,15546.262794433578,wmoUnit:m,,,,,,
Brooks,27.0315669,-98.21874127,26.11111111111111,wmoUnit:degC,92,47,,,SV,A,,,,
La Salle,28.34621032,-99.1034773,25.0,wmoUnit:degC,88,54,16093.44,wmoUnit:m,,,,,,
Edwards,29.98248216,-100.3048937,20.0,wmoUnit:degC,78,57,16093.44,wmoUnit:m,,,,,,
Lee,30.31065065,-96.96568735,23.88888888888889,wmoUnit:degC,87,13,16093.44,wmoUnit:m,,,,,,
Robertson,31.02705415,-96.51272568,24.444444444444443,wmoUnit:degC,82,2,16093.44,wmoUnit:m,,,Flood Warning,Severe,Immediate,2025-05-29T03:00:00-05:00
Young,33.17670764,-98.68781396,21.666666666666668,wmoUnit:degC,84,0,16093.44,wmoUnit:m,,,,,,
Bee,28.41736675,-97.74116811,25.0,wmoUnit:degC,90,26,15320.955616699264,wmoUnit:m,,,,,,
Clay,33.78379717,-98.208958,20.555555555555557,wmoUnit:degC,88,9,,,,,,,,
San Jacinto,30.57948905,-95.16683273,21.11111111111111,wmoUnit:degC,97,3,12971.313315307618,wmoUnit:m,,,,,,
Uvalde,29.35669829,-99.76203107,26.11111111111111,wmoUnit:degC,79,92,16093.44,wmoUnit:m,,,,,,
Haskell,33.17824805,-99.73029401,20.555555555555557,wmoUnit:degC,84,16,,,,,,,,
Somervell,32.22229511,-97.77456553,25.0,wmoUnit:degC,71,0,16093.44,wmoUnit:m,,,,,,
Bexar,29.44884523,-98.51966309,26.11111111111111,wmoUnit:degC,79,83,16093.44,wmoUnit:m,,,Flash Flood Warning,Severe,Immediate,2025-05-28T10:00:00-05:00
Grayson,33.62684371,-96.67764864,21.11111111111111,wmoUnit:degC,90,0,16093.44,wmoUnit:m,,,,,,
Bailey,34.0684915,-102.8299069,15.0,wmoUnit:degC,100,6,16093.44,wmoUnit:m,,,,,,
Jones,32.73970429,-99.87850599,21.666666666666668,wmoUnit:degC,76,20,,,,,,,,
Jefferson,29.88425832,-94.1708778,24.444444444444443,wmoUnit:degC,94,6,14886.432,wmoUnit:m,,,,,,
Rusk,32.10803224,-94.76169577,21.11111111111111,wmoUnit:degC,84,2,16093.44,wmoUnit:m,,,Flood Warning,Severe,Immediate,2025-05-29T08:45:00-05:00
Glasscock,31.8694238,-101.520742,20.0,wmoUnit:degC,73,35,16093.44,wmoUnit:m,SV,A,,,,
Gillespie,30.31800246,-98.94627245,22.77777777777778,wmoUnit:degC,84,100,16093.44,wmoUnit:m,,,,,,
Fisher,32.74305155,-100.4019503,21.666666666666668,wmoUnit:degC,76,25,,,,,,,,
Henderson,32.21188078,-95.85356847,23.333333333333332,wmoUnit:degC,87,0,16093.44,wmoUnit:m,,,Flood Warning,Severe,Immediate,2025-05-29T02:45:00-05:00
Shackelford,32.7360276,-99.35403034,20.555555555555557,wmoUnit:degC,87,13,,,,,,,,
Palo Pinto,32.75316856,-98.31299522,22.77777777777778,wmoUnit:degC,76,0,16093.44,wmoUnit:m,,,,,,
Wilbarger,34.08044953,-99.24089568,19.444444444444443,wmoUnit:degC,89,9,,,,,,,,
Floyd,34.07239775,-101.3033037,14.444444444444445,wmoUnit:degC,100,5,16093.44,wmoUnit:m,,,,,,
Orange,30.12807126,-93.89653794,23.88888888888889,wmoUnit:degC,90,5,14902.525808349552,wmoUnit:m,,,Flood Warning,Severe,Immediate,2025-05-28T21:45:00-05:00
Runnels,31.83105393,-99.97624799,21.666666666666668,wmoUnit:degC,71,28,,,,,,,,
Coleman,31.77329421,-99.45362579,22.22222222222222,wmoUnit:degC,81,26,,,,,,,,
Martin,32.30605847,-101.9512464,23.333333333333332,wmoUnit:degC,59,31,16093.44,wmoUnit:m,,,,,,
Wheeler,35.40129002,-100.2697634,15.0,wmoUnit:degC,100,1,,,,,,,,
Culberson,31.44709817,-104.5177421,18.88888888888889,wmoUnit:degC,48,4,16093.44,wmoUnit:m,SV,A,,,,
Mitchell,32.30636024,-100.9211128,26.11111111111111,wmoUnit:degC,58,25,16093.44,wmoUnit:m,,,,,,
Hudspeth,31.45613738,-105.3869428,19.444444444444443,wmoUnit:degC,52,3,16029.066301391646,wmoUnit:m,,,,,,
Upshur,32.7362827,-94.94132011,20.0,wmoUnit:degC,97,1,11265.408,wmoUnit:m,,,,,,
Liberty,30.15153187,-94.8120925,22.22222222222222,wmoUnit:degC,100,4,12263.201095825225,wmoUnit:m,,,,,,
Williamson,30.64834941,-97.60105467,24.444444444444443,wmoUnit:degC,79,29,16093.44,wmoUnit:m,,,,,,
Nacogdoches,31.61604108,-94.6158776,22.22222222222222,wmoUnit:degC,90,2,16093.44,wmoUnit:m,,,Flood Warning,Severe,Immediate,2025-05-29T08:45:00-05:00
Loving,31.84912973,-103.5799063,21.666666666666668,wmoUnit:degC,46,23,16093.44,wmoUnit:m,SV,A,,,,
Jim Wells,27.73131099,-98.0898649,26.11111111111111,wmoUnit:degC,94,32,15369.235506958066,wmoUnit:m,,,,,,
Upton,31.36853957,-102.0430005,19.444444444444443,wmoUnit:degC,65,22,16093.44,wmoUnit:m,SV,A,,,,
Newton,30.78619977,-93.74462993,22.22222222222222,wmoUnit:degC,97,3,14049.572383300736,wmoUnit:m,,,Flood Warning,Severe,Immediate,2025-05-28T21:45:00-05:00
Lamar,33.66746186,-95.57110784,20.555555555555557,wmoUnit:degC,84,0,16093.44,wmoUnit:m,,,,,,
Polk,30.79250963,-94.82994949,21.666666666666668,wmoUnit:degC,97,1,12391.948493041933,wmoUnit:m,,,Flood Warning,Severe,Immediate,2025-05-29T08:45:00-05:00
Collin,33.18789055,-96.57248871,22.77777777777778,wmoUnit:degC,81,1,16093.44,wmoUnit:m,,,,,,
Hardeman,34.28865227,-99.7453851,18.88888888888889,wmoUnit:degC,94,7,,,,,,,,
McMullen,28.35351091,-98.56842256,25.0,wmoUnit:degC,94,43,15723.291616699264,wmoUnit:m,,,,,,
Cottle,34.0776571,-100.2786983,17.22222222222222,wmoUnit:degC,100,5,16093.44,wmoUnit:m,,,,,,
Frio,28.86726774,-99.10826004,26.11111111111111,wmoUnit:degC,79,100,16093.44,wmoUnit:m,,,,,,
Gray,35.40130666,-100.812475,14.444444444444445,wmoUnit:degC,93,0,,,,,,,,
Dallam,36.27777107,-102.6021647,14.444444444444445,wmoUnit:degC,87,13,,,,,,,,
Kenedy,26.92409448,-97.68137783,26.666666666666668,wmoUnit:degC,92,40,,,SV,A,,,,
Fort Bend,29.52763253,-95.77090562,23.333333333333332,wmoUnit:degC,100,7,13083.966904174777,wmoUnit:m,,,Flood Advisory,Minor,Expected,2025-05-28T11:45:00-05:00
Armstrong,34.96522076,-101.3572412,14.444444444444445,wmoUnit:degC,96,1,,,,,,,,
Collingsworth,34.96498493,-100.2700733,16.11111111111111,wmoUnit:degC,90,2,,,,,,,,
Cass,33.07750446,-94.34348771,19.444444444444443,wmoUnit:degC,97,1,11265.408,wmoUnit:m,,,Flood Warning,Severe,Immediate,2025-05-28T20:45:00-05:00
Sherman,36.27765824,-101.8933822,13.333333333333334,wmoUnit:degC,93,15,,,,,,,,
Terry,33.17373729,-102.335157,16.666666666666668,wmoUnit:degC,97,20,16093.44,wmoUnit:m,,,,,,
Limestone,31.54541898,-96.58056718,22.22222222222222,wmoUnit:degC,81,1,16093.44,wmoUnit:m,,,,,,
Real,29.83182711,-99.82215881,23.333333333333332,wmoUnit:degC,82,53,16093.44,wmoUnit:m,,,,,,
Lynn,33.17685487,-101.8160235,16.11111111111111,wmoUnit:degC,100,17,16093.44,wmoUnit:m,,,,,,
Lavaca,29.38437003,-96.93020993,23.88888888888889,wmoUnit:degC,97,12,14210.50739721687,wmoUnit:m,,,,,,
Nolan,32.3034718,-100.4060989,21.11111111111111,wmoUnit:degC,76,26,,,,,,,,
Gaines,32.74074537,-102.6351246,22.77777777777778,wmoUnit:degC,57,34,16093.44,wmoUnit:m,SV,A,,,,
Montgomery,30.30022409,-95.50301411,22.22222222222222,wmoUnit:degC,97,7,13711.611616699263,wmoUnit:m,,,,,,
Concho,31.32645211,-99.86413426,19.444444444444443,wmoUnit:degC,90,30,,,,,,,,
Hardin,30.33238431,-94.39021394,22.77777777777778,wmoUnit:degC,97,4,13003.49939721687,wmoUnit:m,,,,,,
Harris,29.85967144,-95.39782106,25.0,wmoUnit:degC,87,5,14789.870684692381,wmoUnit:m,,,Flood Advisory,Minor,Expected,2025-05-28T11:45:00-05:00
Leon,31.29655719,-95.99554292,23.88888888888889,wmoUnit:degC,82,0,16093.44,wmoUnit:m,,,Flood Warning,Severe,Immediate,2025-05-29T03:00:00-05:00
Bowie,33.44572786,-94.42324298,19.444444444444443,wmoUnit:degC,97,1,11265.408,wmoUnit:m,,,Flood Warning,Severe,Immediate,2025-05-28T20:45:00-05:00
Kaufman,32.59927808,-96.28779341,22.22222222222222,wmoUnit:degC,84,0,16093.44,wmoUnit:m,,,,,,
Anderson,31.81321543,-95.65251774,22.77777777777778,wmoUnit:degC,87,0,16093.44,wmoUnit:m,,,Flood Warning,Severe,Immediate,2025-05-29T08:45:00-05:00
San Saba,31.15520543,-98.81754295,22.77777777777778,wmoUnit:degC,87,28,,,,,,,,
Schleicher,30.89661056,-100.538097,17.22222222222222,wmoUnit:degC,84,36,,,,,,,,
Colorado,29.6208542,-96.52630821,22.77777777777778,wmoUnit:degC,100,13,12746.00460278313,wmoUnit:m,,,,,,
Milam,30.78625299,-96.97683495,25.555555555555557,wmoUnit:degC,74,4,16093.44,wmoUnit:m,,,,,,
Live Oak,28.3514375,-98.12474493,25.0,wmoUnit:degC,97,35,15803.757588867158,wmoUnit:m,,,,,,
Borden,32.7436916,-101.4317533,22.22222222222222,wmoUnit:degC,68,21,16093.44,wmoUnit:m,,,,,,
McCulloch,31.19896752,-99.34754972,21.666666666666668,wmoUnit:degC,87,28,,,,,,,,
Johnson,32.37899918,-97.36660504,23.333333333333332,wmoUnit:degC,84,0,16093.44,wmoUnit:m,,,,,,
Montague,33.67496328,-97.72466993,20.0,wmoUnit:degC,90,0,16093.44,wmoUnit:m,,,,,,
Stonewall,33.17842158,-100.255259,17.77777777777778,wmoUnit:degC,100,16,16093.44,wmoUnit:m,,,,,,
Comal,29.80816362,-98.27814516,23.88888888888889,wmoUnit:degC,87,34,16093.44,wmoUnit:m,,,Flash Flood Warning,Severe,Immediate,2025-05-28T10:00:00-05:00
Eastland,32.32739258,-98.8325713,21.666666666666668,wmoUnit:degC,81,3,16093.44,wmoUnit:m,,,,,,
Comanche,31.9490639,-98.55841538,22.77777777777778,wmoUnit:degC,71,4,16093.44,wmoUnit:m,,,,,,
King,33.61641863,-100.2558584,17.77777777777778,wmoUnit:degC,100,8,16093.44,wmoUnit:m,,,,,,
Washington,30.2145299,-96.40356575,22.77777777777778,wmoUnit:degC,93,11,15095.646904174775,wmoUnit:m,,,,,,
Webb,27.76102524,-99.33170164,25.555555555555557,wmoUnit:degC,88,58,16093.44,wmoUnit:m,,,,,,
Fayette,29.87683207,-96.91968047,24.444444444444443,wmoUnit:degC,90,11,16093.44,wmoUnit:m,,,,,,
Harrison,32.54814898,-94.37155736,19.444444444444443,wmoUnit:degC,100,1,11265.408,wmoUnit:m,,,,,,
Presidio,29.99977786,-104.2405552,18.333333333333332,wmoUnit:degC,68,6,16093.44,wmoUnit:m,SV,A,,,,
Austin,29.88711223,-96.27791829,23.333333333333332,wmoUnit:degC,97,13,12247.108054870598,wmoUnit:m,,,,,,
Randall,34.96594288,-101.8968527,15.555555555555555,wmoUnit:degC,100,1,,,,,,,,
Hood,32.43107878,-97.83280338,23.88888888888889,wmoUnit:degC,74,0,16093.44,wmoUnit:m,,,,,,
Victoria,28.79640594,-96.97176602,25.0,wmoUnit:degC,97,16,14725.496986084027,wmoUnit:m,,,,,,
Hutchinson,35.84000866,-101.3547257,14.444444444444445,wmoUnit:degC,87,5,,,,,,,,
Coryell,31.39087578,-97.7991883,24.444444444444443,wmoUnit:degC,87,4,16093.44,wmoUnit:m,,,,,,
Jackson,28.95603133,-96.57883268,25.0,wmoUnit:degC,100,12,12585.070356262244,wmoUnit:m,,,,,,
Taylor,32.30138229,-99.89003941,21.666666666666668,wmoUnit:degC,76,24,,,,,,,,
Zapata,27.00089072,-99.16860134,26.11111111111111,wmoUnit:degC,86,43,,,SV,A,,,,
San Patricio,28.00922186,-97.51859857,26.11111111111111,wmoUnit:degC,94,21,15256.580383300736,wmoUnit:m,SV,A,,,,
Grimes,30.54360689,-95.98557334,23.88888888888889,wmoUnit:degC,84,12,15658.916383300735,wmoUnit:m,,,,,,
Lamb,34.06861242,-102.3517095,15.0,wmoUnit:degC,100,5,16093.44,wmoUnit:m,,,,,,
