countyName,latitude,longitude,temperature,temperature_unit,relativeHumidity,precipitationProbability,visibility,visibility_unit,hazard_phenomenon,hazard_significance,alert_event,alert_severity,alert_urgency,alert_expires
Foard,33.97408519,-99.77871109,18.333333333333332,wmoUnit:degC,91,55,,,,,,,,
Blanco,30.26636128,-98.39974086,20.555555555555557,wmoUnit:degC,90,16,16093.44,wmoUnit:m,,,,,,
Hockley,33.60750375,-102.3430919,20.0,wmoUnit:degC,78,5,16093.44,wmoUnit:m,,,,,,
Llano,30.70566579,-98.68387398,20.0,wmoUnit:degC,93,28,16093.44,wmoUnit:m,,,,,,
Swisher,34.53064989,-101.734951,18.333333333333332,wmoUnit:degC,84,6,15771.571506958067,wmoUnit:m,,,,,,
Titus,33.2160906,-94.96509786,21.11111111111111,wmoUnit:degC,90,6,11265.408,wmoUnit:m,,,Flood Warning,Severe,Expected,2025-06-10T10:00:00-05:00
Navarro,32.04695429,-96.47248134,20.555555555555557,wmoUnit:degC,97,28,11265.408,wmoUnit:m,,,Flood Warning,Severe,Expected,2025-06-10T08:45:00-05:00
Brazoria,29.19345387,-95.45578479,26.666666666666668,wmoUnit:degC,97,30,14049.572383300736,wmoUnit:m,,,Rip Current Statement,Moderate,Expected,2025-06-09T18:00:00-05:00
Hidalgo,26.396627,-98.18088681,30.0,wmoUnit:degC,75,0,,,,,,,,
Archer,33.61539176,-98.68783437,19.444444444444443,wmoUnit:degC,88,70,,,,,,,,
Refugio,28.32681413,-97.16546961,28.333333333333332,wmoUnit:degC,91,0,16093.44,wmoUnit:m,,,,,,
Andrews,32.30506283,-102.6378839,21.11111111111111,wmoUnit:degC,63,0,16093.44,wmoUnit:m,,,,,,
Galveston,29.39424415,-94.96474975,27.22222222222222,wmoUnit:degC,88,36,15047.367013915973,wmoUnit:m,,,Rip Current Statement,Moderate,Expected,2025-06-09T18:00:00-05:00
De Witt,29.08201599,-97.35666976,26.666666666666668,wmoUnit:degC,85,12,11265.408,wmoUnit:m,,,,,,
Gonzales,29.45641495,-97.49279927,24.444444444444443,wmoUnit:degC,82,15,16093.44,wmoUnit:m,,,,,,
Wharton,29.2778362,-96.22197375,26.666666666666668,wmoUnit:degC,91,28,11233.221150695823,wmoUnit:m,,,,,,
Fannin,33.59396919,-96.10656755,21.666666666666668,wmoUnit:degC,93,10,11265.408,wmoUnit:m,,,,,,
Madison,30.96564645,-95.92818441,20.555555555555557,wmoUnit:degC,97,33,15723.291616699264,wmoUnit:m,,,,,,
Moore,35.83768863,-101.8929556,16.11111111111111,wmoUnit:degC,84,2,,,,,,,,
Tyler,30.7712607,-94.37651432,24.444444444444443,wmoUnit:degC,90,22,12617.25720556642,wmoUnit:m,,,,,,
Lipscomb,36.27778432,-100.27317,17.22222222222222,wmoUnit:degC,78,1,,,,,,,,
Burleson,30.49246139,-96.62109399,21.11111111111111,wmoUnit:degC,90,27,15304.861808349551,wmoUnit:m,,,,,,
Jim Hogg,27.04340499,-98.6972921,27.77777777777778,wmoUnit:degC,84,0,,,,,,,,
Throckmorton,33.17753907,-99.21236832,21.11111111111111,wmoUnit:degC,84,20,,,,,,,,
Kleberg,27.43274395,-97.72889778,27.22222222222222,wmoUnit:degC,91,0,16093.44,wmoUnit:m,,,,,,
Shelby,31.79242191,-94.14495261,18.88888888888889,wmoUnit:degC,93,25,16093.44,wmoUnit:m,,,,,,
Garza,33.17991074,-101.2984496,21.666666666666668,wmoUnit:degC,73,10,16093.44,wmoUnit:m,,,,,,
Karnes,28.90493782,-97.85960621,27.22222222222222,wmoUnit:degC,85,6,16093.44,wmoUnit:m,,,,,,
Reeves,31.32307061,-103.693143,21.11111111111111,wmoUnit:degC,71,0,16093.44,wmoUnit:m,,,,,,
Houston,31.31764137,-95.42225367,21.11111111111111,wmoUnit:degC,97,32,15160.02060278313,wmoUnit:m,,,Flood Warning,Severe,Immediate,2025-06-10T08:15:00-05:00
El Paso,31.7686226,-106.2352229,22.22222222222222,wmoUnit:degC,14,0,15900.318904174776,wmoUnit:m,,,,,,
Carson,35.40346802,-101.3542037,16.11111111111111,wmoUnit:degC,87,5,,,,,,,,
Medina,29.35520493,-99.11008331,26.11111111111111,wmoUnit:degC,79,2,16093.44,wmoUnit:m,,,,,,
Wichita,33.98421585,-98.70153389,19.444444444444443,wmoUnit:degC,92,63,,,,,,,,
Chambers,29.73912276,-94.60891308,22.77777777777778,wmoUnit:degC,97,55,9656.064,wmoUnit:m,,,Flood Warning,Severe,Immediate,2025-06-10T05:00:00-05:00
Donley,34.96540246,-100.8140501,17.77777777777778,wmoUnit:degC,84,6,,,,,,,,
Hopkins,33.14933822,-95.56414173,20.555555555555557,wmoUnit:degC,100,11,11265.408,wmoUnit:m,,,,,,
Lampasas,31.19627791,-98.24142711,18.88888888888889,wmoUnit:degC,100,38,16093.44,wmoUnit:m,,,,,,
Falls,31.25317017,-96.93579511,20.0,wmoUnit:degC,100,32,16093.44,wmoUnit:m,,,,,,
Stephens,32.73584155,-98.83612016,20.0,wmoUnit:degC,100,25,11265.408,wmoUnit:m,,,,,,
Travis,30.33423319,-97.78194654,21.11111111111111,wmoUnit:degC,90,29,16093.44,wmoUnit:m,,,,,,
Roberts,35.8385577,-100.8135689,16.11111111111111,wmoUnit:degC,87,2,,,,,,,,
Crosby,33.61459873,-101.2998612,19.444444444444443,wmoUnit:degC,81,9,15996.878684692381,wmoUnit:m,,,,,,
Kerr,30.06153035,-99.35016969,22.22222222222222,wmoUnit:degC,84,6,16093.44,wmoUnit:m,,,,,,
Wood,32.78634374,-95.38206498,20.555555555555557,wmoUnit:degC,90,7,11265.408,wmoUnit:m,,,Flood Warning,Severe,Immediate,2025-06-10T14:00:00-05:00
Jack,33.23345819,-98.1725509,21.11111111111111,wmoUnit:degC,78,14,11265.408,wmoUnit:m,,,,,,
Marion,32.79797929,-94.35725239,21.666666666666668,wmoUnit:degC,93,18,16093.44,wmoUnit:m,,,,,,
Hale,34.07051782,-101.8269082,18.88888888888889,wmoUnit:degC,81,6,15948.59879443358,wmoUnit:m,,,,,,
Jeff Davis,30.71559322,-104.1403539,22.77777777777778,wmoUnit:degC,40,0,16093.44,wmoUnit:m,,,,,,
Tarrant,32.77185236,-97.29116473,20.555555555555557,wmoUnit:degC,93,20,14548.469698608355,wmoUnit:m,,,,,,
Waller,30.01093722,-95.98768942,23.333333333333332,wmoUnit:degC,93,32,11265.408,wmoUnit:m,,,,,,
Reagan,31.36617698,-101.5230108,22.22222222222222,wmoUnit:degC,66,5,16093.44,wmoUnit:m,,,,,,
Smith,32.37514553,-95.26909511,21.11111111111111,wmoUnit:degC,87,15,11265.408,wmoUnit:m,,,Flood Warning,Severe,Immediate,2025-06-10T14:00:00-05:00
Van Zandt,32.56368961,-95.8364862,20.0,wmoUnit:degC,100,18,11265.408,wmoUnit:m,,,,,,
Cooke,33.638465,-97.21247642,21.666666666666668,wmoUnit:degC,93,10,11265.408,wmoUnit:m,,,,,,
Zavala,28.86530621,-99.76102001,26.11111111111111,wmoUnit:degC,88,0,16093.44,wmoUnit:m,,,,,,
Hall,34.53074134,-100.6809876,21.11111111111111,wmoUnit:degC,76,6,16093.44,wmoUnit:m,,,,,,
Kendall,29.9446397,-98.71160511,22.77777777777778,wmoUnit:degC,84,6,16093.44,wmoUnit:m,,,,,,
Goliad,28.65708563,-97.42646082,27.22222222222222,wmoUnit:degC,91,0,16093.44,wmoUnit:m,,,,,,
Yoakum,33.17293501,-102.8278792,20.555555555555557,wmoUnit:degC,68,2,16093.44,wmoUnit:m,,,,,,
Knox,33.60614755,-99.74144313,18.333333333333332,wmoUnit:degC,93,51,,,,,,,,
McLennan,31.55234489,-97.20184883,20.555555555555557,wmoUnit:degC,100,36,16093.44,wmoUnit:m,,,,,,
Brewster,29.81205836,-103.2518906,23.88888888888889,wmoUnit:degC,69,0,16093.44,wmoUnit:m,,,,,,
Panola,32.16222886,-94.30552858,20.555555555555557,wmoUnit:degC,93,21,16093.44,wmoUnit:m,,,,,,
Bandera,29.74724753,-99.24637282,23.333333333333332,wmoUnit:degC,84,2,16093.44,wmoUnit:m,,,,,,
Parmer,34.53014507,-102.784594,17.77777777777778,wmoUnit:degC,87,3,15642.824109741197,wmoUnit:m,,,,,,
Rockwall,32.89786769,-96.40780584,21.11111111111111,wmoUnit:degC,97,12,11265.408,wmoUnit:m,,,Flood Warning,Severe,Immediate,2025-06-10T08:00:00-05:00
Trinity,31.0885069,-95.13551682,22.22222222222222,wmoUnit:degC,90,26,12520.696657653729,wmoUnit:m,,,Flood Warning,Severe,Immediate,2025-06-10T05:00:00-05:00
Bosque,31.90050476,-97.63437613,21.666666666666668,wmoUnit:degC,93,37,11265.408,wmoUnit:m,,,,,,
Coke,31.88849293,-100.5298747,19.444444444444443,wmoUnit:degC,81,12,,,,,,,,
Franklin,33.17550691,-95.21841437,21.11111111111111,wmoUnit:degC,90,3,11265.408,wmoUnit:m,,,Flood Warning,Severe,Expected,2025-06-10T10:00:00-05:00
Hill,31.99079033,-97.1324142,20.555555555555557,wmoUnit:degC,100,32,14548.469698608355,wmoUnit:m,,,,,,
Calhoun,28.48966896,-96.64708119,29.444444444444443,wmoUnit:degC,85,1,16093.44,wmoUnit:m,,,,,,
Irion,31.30393203,-100.9824126,22.77777777777778,wmoUnit:degC,68,6,,,,,,,,
Midland,31.86921148,-102.0315032,20.555555555555557,wmoUnit:degC,68,2,16093.44,wmoUnit:m,,,,,,
Brown,31.77432313,-98.99989649,20.0,wmoUnit:degC,90,41,,,,,,,,
Wilson,29.17315896,-98.08621015,26.11111111111111,wmoUnit:degC,91,7,16093.44,wmoUnit:m,,,,,,
Oldham,35.40497586,-102.6029949,16.666666666666668,wmoUnit:degC,90,1,,,,,,,,
Freestone,31.70486443,-96.14918535,20.0,wmoUnit:degC,97,29,11265.408,wmoUnit:m,,,,,,
Sabine,31.34321941,-93.85170439,21.666666666666668,wmoUnit:degC,93,29,11265.408,wmoUnit:m,,,,,,
Deaf Smith,34.96602014,-102.6048162,16.11111111111111,wmoUnit:degC,90,1,,,,,,,,
Angelina,31.25475875,-94.611742,21.666666666666668,wmoUnit:degC,87,27,16093.44,wmoUnit:m,,,Flood Warning,Severe,Immediate,2025-06-10T08:15:00-05:00
Kent,33.18284492,-100.7791031,21.11111111111111,wmoUnit:degC,81,11,16093.44,wmoUnit:m,,,,,,
Red River,33.62074539,-95.0501886,21.11111111111111,wmoUnit:degC,93,2,11265.408,wmoUnit:m,,,Flood Warning,Severe,Expected,2025-06-10T10:00:00-05:00
Kinney,29.35000302,-100.4178441,25.555555555555557,wmoUnit:degC,82,1,16093.44,wmoUnit:m,,,,,,
Denton,33.205574,-97.11681154,22.22222222222222,wmoUnit:degC,100,11,11265.408,wmoUnit:m,,,,,,
Sutton,30.49747152,-100.5382263,21.666666666666668,wmoUnit:degC,81,6,,,,,,,,
Guadalupe,29.58257236,-97.94850308,23.333333333333332,wmoUnit:degC,84,14,16093.44,wmoUnit:m,,,,,,
Winkler,31.85008609,-103.0484794,21.11111111111111,wmoUnit:degC,68,0,16093.44,wmoUnit:m,,,,,,
Dimmit,28.42161168,-99.760574,26.666666666666668,wmoUnit:degC,79,0,16093.44,wmoUnit:m,,,,,,
Wise,33.21585061,-97.65444124,21.666666666666668,wmoUnit:degC,79,12,16093.44,wmoUnit:m,,,,,,
Hemphill,35.83750155,-100.2704628,16.666666666666668,wmoUnit:degC,84,2,,,,,,,,
Potter,35.40128927,-101.8940484,16.666666666666668,wmoUnit:degC,87,0,,,,,,,,
Childress,34.52929257,-100.2075664,21.11111111111111,wmoUnit:degC,78,4,16093.44,wmoUnit:m,,,,,,
Willacy,26.47132899,-97.64303323,28.88888888888889,wmoUnit:degC,87,0,,,,,,,,
Bastrop,30.10353518,-97.31187705,22.22222222222222,wmoUnit:degC,93,24,16093.44,wmoUnit:m,,,,,,
Kimble,30.48676251,-99.74892716,22.22222222222222,wmoUnit:degC,84,7,,,,,,,,
Scurry,32.74720063,-100.9165071,19.444444444444443,wmoUnit:degC,90,14,16093.44,wmoUnit:m,,,,,,
Ochiltree,36.27846334,-100.815653,15.555555555555555,wmoUnit:degC,87,1,,,,,,,,
Hansford,36.27753179,-101.3545624,15.555555555555555,wmoUnit:degC,87,1,,,,,,,,
Hartley,35.83996755,-102.6028835,16.11111111111111,wmoUnit:degC,87,0,,,,,,,,
Cameron,26.13847728,-97.51499968,29.444444444444443,wmoUnit:degC,79,0,,,,,,,,
Matagorda,28.86711039,-95.98533866,27.22222222222222,wmoUnit:degC,94,20,12697.7239451294,wmoUnit:m,,,Rip Current Statement,Moderate,Expected,2025-06-09T18:00:00-05:00
Burnet,30.78843382,-98.18252382,18.88888888888889,wmoUnit:degC,100,30,16093.44,wmoUnit:m,,,,,,
Rains,32.87004212,-95.79347545,19.444444444444443,wmoUnit:degC,100,12,11265.408,wmoUnit:m,,,,,,
Hays,30.05782657,-98.03104087,21.11111111111111,wmoUnit:degC,90,8,16093.44,wmoUnit:m,,,,,,
Mason,30.71742293,-99.2263026,20.555555555555557,wmoUnit:degC,90,16,,,,,,,,
Ward,31.509424,-103.1024636,21.11111111111111,wmoUnit:degC,66,0,16093.44,wmoUnit:m,,,,,,
Delta,33.38623601,-95.67221685,21.11111111111111,wmoUnit:degC,97,12,11265.408,wmoUnit:m,,,,,,
Nueces,27.72621549,-97.61767326,27.22222222222222,wmoUnit:degC,88,0,14468.002191650448,wmoUnit:m,,,,,,
Callahan,32.2977738,-99.37359692,19.444444444444443,wmoUnit:degC,90,32,,,,,,,,
Bell,31.03778267,-97.47790776,21.11111111111111,wmoUnit:degC,90,37,16093.44,wmoUnit:m,,,,,,
Cherokee,31.83695632,-95.16515234,20.555555555555557,wmoUnit:degC,93,20,11265.408,wmoUnit:m,,,Flood Warning,Severe,Immediate,2025-06-10T08:15:00-05:00
Ellis,32.34839264,-96.79467417,20.0,wmoUnit:degC,100,25,11265.408,wmoUnit:m,,,,,,
Lubbock,33.6101944,-101.8205745,21.11111111111111,wmoUnit:degC,76,8,16093.44,wmoUnit:m,,,,,,
Terrell,30.22502597,-102.0764533,25.555555555555557,wmoUnit:degC,69,0,16093.44,wmoUnit:m,,,,,,
Crockett,30.72291931,-101.4118364,22.22222222222222,wmoUnit:degC,73,2,,,,,,,,
Atascosa,28.89418432,-98.52741302,26.666666666666668,wmoUnit:degC,82,3,16093.44,wmoUnit:m,,,,,,
Ector,31.86908156,-102.5430907,20.0,wmoUnit:degC,70,1,11265.408,wmoUnit:m,,,,,,
Brazos,30.6610425,-96.3022943,21.11111111111111,wmoUnit:degC,93,32,14178.321315307618,wmoUnit:m,,,,,,
Aransas,28.12709562,-96.99258951,28.333333333333332,wmoUnit:degC,91,0,16093.44,wmoUnit:m,,,,,,
Dallas,32.76653746,-96.77781862,21.666666666666668,wmoUnit:degC,90,17,11265.408,wmoUnit:m,,,Flood Warning,Severe,Immediate,2025-06-10T08:45:00-05:00
Howard,32.30610232,-101.4355097,20.555555555555557,wmoUnit:degC,76,3,16093.44,wmoUnit:m,,,,,,
Motley,34.07409017,-100.7798961,20.0,wmoUnit:degC,81,7,16093.44,wmoUnit:m,,,,,,
San Augustine,31.39427005,-94.16809762,21.11111111111111,wmoUnit:degC,90,28,12762.097643737756,wmoUnit:m,,,,,,
Maverick,28.74260943,-100.3144638,26.11111111111111,wmoUnit:degC,88,2,16093.44,wmoUnit:m,,,,,,
Erath,32.23640361,-98.21722756,19.444444444444443,wmoUnit:degC,97,35,14548.469698608355,wmoUnit:m,,,,,,
Dickens,33.61663428,-100.7788138,20.0,wmoUnit:degC,81,9,15884.225095825224,wmoUnit:m,,,,,,
Caldwell,29.83677935,-97.61983479,23.333333333333332,wmoUnit:degC,82,15,16093.44,wmoUnit:m,,,,,,
Dawson,32.74258137,-101.9476136,20.0,wmoUnit:degC,81,4,16093.44,wmoUnit:m,,,,,,
Camp,32.97321771,-94.97860185,21.11111111111111,wmoUnit:degC,90,9,11265.408,wmoUnit:m,,,,,,
Duval,27.68133382,-98.50889672,25.0,wmoUnit:degC,97,0,11152.753643737757,wmoUnit:m,,,,,,
Hunt,33.123531,-96.08550014,20.555555555555557,wmoUnit:degC,100,11,11265.408,wmoUnit:m,,,Flood Warning,Severe,Immediate,2025-06-10T08:00:00-05:00
Mills,31.49524259,-98.59552736,19.444444444444443,wmoUnit:degC,100,39,16093.44,wmoUnit:m,,,,,,
Val Verde,29.89300587,-101.15171,26.11111111111111,wmoUnit:degC,69,1,16093.44,wmoUnit:m,,,,,,
Pecos,30.78100044,-102.7235743,22.22222222222222,wmoUnit:degC,79,0,16093.44,wmoUnit:m,,,,,,
Baylor,33.61648147,-99.21351964,18.88888888888889,wmoUnit:degC,89,64,,,,,,,,
Gregg,32.48036452,-94.81723694,21.11111111111111,wmoUnit:degC,90,18,16093.44,wmoUnit:m,,,Flood Warning,Severe,Immediate,2025-06-10T01:00:00-05:00
Cochran,33.60410808,-102.8285264,20.0,wmoUnit:degC,78,3,15980.786411132844,wmoUnit:m,,,,,,
Jasper,30.74391255,-94.02495849,24.444444444444443,wmoUnit:degC,94,14,11265.408,wmoUnit:m,,,,,,
Hamilton,31.70479181,-98.11066654,20.0,wmoUnit:degC,100,39,14564.563506958068,wmoUnit:m,,,,,,
Castro,34.53000304,-102.2617608,18.333333333333332,wmoUnit:degC,81,4,16093.44,wmoUnit:m,,,,,,
Sterling,31.82786516,-101.0500699,20.0,wmoUnit:degC,78,8,,,,,,,,
Starr,26.56212627,-98.73834895,28.88888888888889,wmoUnit:degC,76,0,,,,,,,,
Crane,31.42846287,-102.5156425,21.11111111111111,wmoUnit:degC,68,1,16093.44,wmoUnit:m,,,,,,
Morris,33.11368507,-94.73205137,21.11111111111111,wmoUnit:degC,90,11,11265.408,wmoUnit:m,,,Flood Warning,Severe,Expected,2025-06-10T10:00:00-05:00
Briscoe,34.53041048,-101.2085769,17.77777777777778,wmoUnit:degC,84,6,15980.786411132844,wmoUnit:m,,,,,,
Tom Green,31.4044442,-100.4620678,22.22222222222222,wmoUnit:degC,73,8,,,,,,,,
Menard,30.88981785,-99.82061472,21.666666666666668,wmoUnit:degC,81,10,,,,,,,,
Parker,32.77852261,-97.80472194,20.0,wmoUnit:degC,93,21,16093.44,wmoUnit:m,,,,,,
Walker,30.73899492,-95.57224172,21.666666666666668,wmoUnit:degC,93,31,14838.152109741197,wmoUnit:m,,,Flood Warning,Severe,Immediate,2025-06-10T05:00:00-05:00
Brooks,27.0315669,-98.21874127,28.88888888888889,wmoUnit:degC,82,0,,,,,,,,
La Salle,28.34621032,-99.1034773,26.666666666666668,wmoUnit:degC,79,0,16093.44,wmoUnit:m,,,,,,
Edwards,29.98248216,-100.3048937,23.88888888888889,wmoUnit:degC,79,1,16093.44,wmoUnit:m,,,,,,
Lee,30.31065065,-96.96568735,21.666666666666668,wmoUnit:degC,90,28,16093.44,wmoUnit:m,,,,,,
Robertson,31.02705415,-96.51272568,21.666666666666668,wmoUnit:degC,87,31,16093.44,wmoUnit:m,,,,,,
Young,33.17670764,-98.68781396,21.11111111111111,wmoUnit:degC,90,19,11265.408,wmoUnit:m,,,,,,
Bee,28.41736675,-97.74116811,27.22222222222222,wmoUnit:degC,91,0,16093.44,wmoUnit:m,,,,,,
Clay,33.78379717,-98.208958,19.444444444444443,wmoUnit:degC,93,63,,,,,,,,
San Jacinto,30.57948905,-95.16683273,21.11111111111111,wmoUnit:degC,90,39,11265.408,wmoUnit:m,,,Flood Warning,Severe,Immediate,2025-06-10T05:00:00-05:00
Uvalde,29.35669829,-99.76203107,25.555555555555557,wmoUnit:degC,82,1,16093.44,wmoUnit:m,,,,,,
Haskell,33.17824805,-99.73029401,20.0,wmoUnit:degC,87,21,,,,,,,,
Somervell,32.22229511,-97.77456553,21.666666666666668,wmoUnit:degC,93,33,11265.408,wmoUnit:m,,,,,,
Bexar,29.44884523,-98.51966309,26.11111111111111,wmoUnit:degC,85,6,16093.44,wmoUnit:m,,,,,,
Grayson,33.62684371,-96.67764864,21.11111111111111,wmoUnit:degC,97,10,11265.408,wmoUnit:m,,,,,,
Bailey,34.0684915,-102.8299069,19.444444444444443,wmoUnit:degC,78,3,15803.757588867158,wmoUnit:m,,,,,,
Jones,32.73970429,-99.87850599,19.444444444444443,wmoUnit:degC,93,23,,,,,,,,
Jefferson,29.88425832,-94.1708778,27.22222222222222,wmoUnit:degC,85,58,14918.619616699263,wmoUnit:m,,,,,,
Rusk,32.10803224,-94.76169577,21.11111111111111,wmoUnit:degC,93,20,14564.563506958068,wmoUnit:m,,,Flood Warning,Severe,Immediate,2025-06-10T01:00:00-05:00
Glasscock,31.8694238,-101.520742,20.555555555555557,wmoUnit:degC,76,3,16093.44,wmoUnit:m,,,,,,
Gillespie,30.31800246,-98.94627245,20.555555555555557,wmoUnit:degC,90,14,16093.44,wmoUnit:m,,,,,,
Fisher,32.74305155,-100.4019503,18.88888888888889,wmoUnit:degC,97,19,,,,,,,,
Henderson,32.21188078,-95.85356847,20.0,wmoUnit:degC,97,23,11265.408,wmoUnit:m,,,Flood Warning,Severe,Expected,2025-06-10T08:45:00-05:00
Shackelford,32.7360276,-99.35403034,20.555555555555557,wmoUnit:degC,87,25,,,,,,,,
Palo Pinto,32.75316856,-98.31299522,20.0,wmoUnit:degC,97,23,11265.408,wmoUnit:m,,,,,,
Wilbarger,34.08044953,-99.24089568,18.333333333333332,wmoUnit:degC,91,56,,,,,,,,
Floyd,34.07239775,-101.3033037,18.88888888888889,wmoUnit:degC,81,7,16093.44,wmoUnit:m,,,,,,
Orange,30.12807126,-93.89653794,26.11111111111111,wmoUnit:degC,91,49,15143.926794433579,wmoUnit:m,,,,,,
Runnels,31.83105393,-99.97624799,20.0,wmoUnit:degC,87,22,,,,,,,,
Coleman,31.77329421,-99.45362579,19.444444444444443,wmoUnit:degC,97,36,,,,,,,,
Martin,32.30605847,-101.9512464,20.0,wmoUnit:degC,81,1,16093.44,wmoUnit:m,,,,,,
Wheeler,35.40129002,-100.2697634,17.22222222222222,wmoUnit:degC,84,4,,,,,,,,
Culberson,31.44709817,-104.5177421,17.22222222222222,wmoUnit:degC,87,0,16093.44,wmoUnit:m,,,,,,
Mitchell,32.30636024,-100.9211128,20.555555555555557,wmoUnit:degC,81,8,16093.44,wmoUnit:m,,,,,,
Hudspeth,31.45613738,-105.3869428,20.0,wmoUnit:degC,29,0,16045.160109741197,wmoUnit:m,,,,,,
Upshur,32.7362827,-94.94132011,21.11111111111111,wmoUnit:degC,90,13,11265.408,wmoUnit:m,,,,,,
Liberty,30.15153187,-94.8120925,22.77777777777778,wmoUnit:degC,87,57,9656.064,wmoUnit:m,,,Flood Warning,Severe,Immediate,2025-06-10T05:00:00-05:00
Williamson,30.64834941,-97.60105467,20.555555555555557,wmoUnit:degC,93,32,16093.44,wmoUnit:m,,,,,,
Nacogdoches,31.61604108,-94.6158776,21.11111111111111,wmoUnit:degC,90,24,16093.44,wmoUnit:m,,,Flood Warning,Severe,Immediate,2025-06-10T08:15:00-05:00
Loving,31.84912973,-103.5799063,20.555555555555557,wmoUnit:degC,70,0,16093.44,wmoUnit:m,,,,,,
Jim Wells,27.73131099,-98.0898649,25.555555555555557,wmoUnit:degC,94,0,9479.0359451294,wmoUnit:m,,,,,,
Upton,31.36853957,-102.0430005,21.11111111111111,wmoUnit:degC,66,2,16093.44,wmoUnit:m,,,,,,
Newton,30.78619977,-93.74462993,24.444444444444443,wmoUnit:degC,94,15,11265.408,wmoUnit:m,,,,,,
Lamar,33.66746186,-95.57110784,20.555555555555557,wmoUnit:degC,90,13,11265.408,wmoUnit:m,,,,,,
Polk,30.79250963,-94.82994949,21.666666666666668,wmoUnit:degC,93,31,11265.408,wmoUnit:m,,,Flood Warning,Severe,Immediate,2025-06-10T05:00:00-05:00
Collin,33.18789055,-96.57248871,20.0,wmoUnit:degC,100,11,11265.408,wmoUnit:m,,,,,,
Hardeman,34.28865227,-99.7453851,17.77777777777778,wmoUnit:degC,94,48,,,,,,,,
McMullen,28.35351091,-98.56842256,26.11111111111111,wmoUnit:degC,88,0,16093.44,wmoUnit:m,,,,,,
Cottle,34.0776571,-100.2786983,20.555555555555557,wmoUnit:degC,81,6,16061.252383300736,wmoUnit:m,,,,,,
Frio,28.86726774,-99.10826004,26.11111111111111,wmoUnit:degC,85,1,14548.469698608355,wmoUnit:m,,,,,,
Gray,35.40130666,-100.812475,16.666666666666668,wmoUnit:degC,87,4,,,,,,,,
Dallam,36.27777107,-102.6021647,14.444444444444445,wmoUnit:degC,90,1,,,,,,,,
Kenedy,26.92409448,-97.68137783,28.88888888888889,wmoUnit:degC,87,0,,,,,,,,
Fort Bend,29.52763253,-95.77090562,26.666666666666668,wmoUnit:degC,97,42,11297.594849304178,wmoUnit:m,,,,,,
Armstrong,34.96522076,-101.3572412,16.666666666666668,wmoUnit:degC,87,7,,,,,,,,
Collingsworth,34.96498493,-100.2700733,18.88888888888889,wmoUnit:degC,78,6,,,,,,,,
Cass,33.07750446,-94.34348771,20.555555555555557,wmoUnit:degC,93,16,16093.44,wmoUnit:m,,,,,,
Sherman,36.27765824,-101.8933822,15.0,wmoUnit:degC,87,1,,,,,,,,
Terry,33.17373729,-102.335157,21.11111111111111,wmoUnit:degC,68,4,16093.44,wmoUnit:m,,,,,,
Limestone,31.54541898,-96.58056718,20.0,wmoUnit:degC,97,31,11265.408,wmoUnit:m,,,,,,
Real,29.83182711,-99.82215881,22.77777777777778,wmoUnit:degC,81,1,16093.44,wmoUnit:m,,,,,,
Lynn,33.17685487,-101.8160235,20.555555555555557,wmoUnit:degC,81,8,16093.44,wmoUnit:m,,,,,,
Lavaca,29.38437003,-96.93020993,24.444444444444443,wmoUnit:degC,85,19,16093.44,wmoUnit:m,,,,,,
Nolan,32.3034718,-100.4060989,18.88888888888889,wmoUnit:degC,90,19,,,,,,,,
Gaines,32.74074537,-102.6351246,20.0,wmoUnit:degC,76,3,16093.44,wmoUnit:m,,,,,,
Montgomery,30.30022409,-95.50301411,21.666666666666668,wmoUnit:degC,93,34,11909.145753478953,wmoUnit:m,,,,,,
Concho,31.32645211,-99.86413426,21.666666666666668,wmoUnit:degC,81,15,,,,,,,,
Hardin,30.33238431,-94.39021394,25.0,wmoUnit:degC,90,40,12536.789698608354,wmoUnit:m,,,,,,
Harris,29.85967144,-95.39782106,24.444444444444443,wmoUnit:degC,90,52,12391.948493041933,wmoUnit:m,,,,,,
Leon,31.29655719,-95.99554292,19.444444444444443,wmoUnit:degC,97,29,12746.00460278313,wmoUnit:m,,,,,,
Bowie,33.44572786,-94.42324298,21.11111111111111,wmoUnit:degC,97,12,16093.44,wmoUnit:m,,,Flood Warning,Severe,Expected,2025-06-10T10:00:00-05:00
Kaufman,32.59927808,-96.28779341,20.555555555555557,wmoUnit:degC,100,19,11265.408,wmoUnit:m,,,,,,
Anderson,31.81321543,-95.65251774,19.444444444444443,wmoUnit:degC,97,26,11265.408,wmoUnit:m,,,Flood Warning,Severe,Immediate,2025-06-10T08:15:00-05:00
San Saba,31.15520543,-98.81754295,20.0,wmoUnit:degC,90,31,,,,,,,,
Schleicher,30.89661056,-100.538097,22.22222222222222,wmoUnit:degC,73,7,,,,,,,,
Colorado,29.6208542,-96.52630821,25.555555555555557,wmoUnit:degC,94,20,11265.408,wmoUnit:m,,,,,,
Milam,30.78625299,-96.97683495,21.666666666666668,wmoUnit:degC,97,28,16093.44,wmoUnit:m,,,,,,
Live Oak,28.3514375,-98.12474493,26.666666666666668,wmoUnit:degC,91,0,16093.44,wmoUnit:m,,,,,,
Borden,32.7436916,-101.4317533,20.555555555555557,wmoUnit:degC,81,8,16093.44,wmoUnit:m,,,,,,
McCulloch,31.19896752,-99.34754972,20.555555555555557,wmoUnit:degC,87,24,,,,,,,,
Johnson,32.37899918,-97.36660504,20.555555555555557,wmoUnit:degC,100,26,11265.408,wmoUnit:m,,,,,,
Montague,33.67496328,-97.72466993,20.555555555555557,wmoUnit:degC,90,10,11265.408,wmoUnit:m,,,,,,
Stonewall,33.17842158,-100.255259,21.666666666666668,wmoUnit:degC,79,11,16093.44,wmoUnit:m,,,,,,
Comal,29.80816362,-98.27814516,22.22222222222222,wmoUnit:degC,84,11,16093.44,wmoUnit:m,,,,,,
Eastland,32.32739258,-98.8325713,20.555555555555557,wmoUnit:degC,90,36,12762.097643737756,wmoUnit:m,,,,,,
Comanche,31.9490639,-98.55841538,19.444444444444443,wmoUnit:degC,100,39,11265.408,wmoUnit:m,,,,,,
King,33.61641863,-100.2558584,21.11111111111111,wmoUnit:degC,84,8,16093.44,wmoUnit:m,,,,,,
Washington,30.2145299,-96.40356575,21.11111111111111,wmoUnit:degC,90,31,13035.687013915973,wmoUnit:m,,,,,,
Webb,27.76102524,-99.33170164,26.11111111111111,wmoUnit:degC,82,0,16093.44,wmoUnit:m,,,,,,
Fayette,29.87683207,-96.91968047,22.77777777777778,wmoUnit:degC,87,21,16093.44,wmoUnit:m,,,,,,
Harrison,32.54814898,-94.37155736,21.11111111111111,wmoUnit:degC,97,20,16093.44,wmoUnit:m,,,,,,
Presidio,29.99977786,-104.2405552,21.666666666666668,wmoUnit:degC,59,0,16093.44,wmoUnit:m,,,,,,
Austin,29.88711223,-96.27791829,23.333333333333332,wmoUnit:degC,93,25,11265.408,wmoUnit:m,,,,,,
Randall,34.96594288,-101.8968527,16.666666666666668,wmoUnit:degC,87,1,,,,,,,,
Hood,32.43107878,-97.83280338,20.0,wmoUnit:degC,100,27,11265.408,wmoUnit:m,,,,,,
Victoria,28.79640594,-96.97176602,26.666666666666668,wmoUnit:degC,91,0,12794.284493041932,wmoUnit:m,,,,,,
Hutchinson,35.84000866,-101.3547257,16.666666666666668,wmoUnit:degC,81,2,,,,,,,,
Coryell,31.39087578,-97.7991883,20.555555555555557,wmoUnit:degC,100,39,12746.00460278313,wmoUnit:m,,,,,,
Jackson,28.95603133,-96.57883268,26.666666666666668,wmoUnit:degC,94,15,11941.33260278313,wmoUnit:m,,,,,,
Taylor,32.30138229,-99.89003941,18.88888888888889,wmoUnit:degC,93,24,,,,,,,,
Zapata,27.00089072,-99.16860134,28.88888888888889,wmoUnit:degC,73,0,,,,,,,,
San Patricio,28.00922186,-97.51859857,27.77777777777778,wmoUnit:degC,97,0,16093.44,wmoUnit:m,,,,,,
Grimes,30.54360689,-95.98557334,21.666666666666668,wmoUnit:degC,97,35,14789.870684692381,wmoUnit:m,,,,,,
Lamb,34.06861242,-102.3517095,19.444444444444443,wmoUnit:degC,81,5,16077.34619165045,wmoUnit:m,,,,,,
