countyName,latitude,longitude,temperature,temperature_unit,relativeHumidity,precipitationProbability,visibility,visibility_unit,hazard_phenomenon,hazard_significance,alert_event,alert_severity,alert_urgency,alert_expires
Foard,33.97408519,-99.77871109,28.333333333333332,wmoUnit:degC,54,12,,,,,,,,
Blanco,30.26636128,-98.39974086,23.88888888888889,wmoUnit:degC,74,42,16093.44,wmoUnit:m,,,,,,
Hockley,33.60750375,-102.3430919,25.555555555555557,wmoUnit:degC,54,19,16093.44,wmoUnit:m,,,,,,
Llano,30.70566579,-98.68387398,25.555555555555557,wmoUnit:degC,53,50,16093.44,wmoUnit:m,,,,,,
Swisher,34.53064989,-101.734951,25.555555555555557,wmoUnit:degC,56,12,16093.44,wmoUnit:m,,,,,,
Titus,33.2160906,-94.96509786,28.88888888888889,wmoUnit:degC,53,9,16093.44,wmoUnit:m,,,Flood Warning,Severe,Immediate,2025-06-11T21:00:00-05:00
Navarro,32.04695429,-96.47248134,20.0,wmoUnit:degC,100,53,9656.064,wmoUnit:m,,,Flood Warning,Severe,Immediate,2025-06-11T14:45:00-05:00
Brazoria,29.19345387,-95.45578479,29.444444444444443,wmoUnit:degC,80,34,15996.878684692381,wmoUnit:m,,,,,,
Hidalgo,26.396627,-98.18088681,35.55555555555556,wmoUnit:degC,47,0,,,,,,,,
Archer,33.61539176,-98.68783437,28.333333333333332,wmoUnit:degC,64,11,,,,,,,,
Refugio,28.32681413,-97.16546961,33.333333333333336,wmoUnit:degC,59,11,11088.379945129402,wmoUnit:m,,,,,,
Andrews,32.30506283,-102.6378839,23.88888888888889,wmoUnit:degC,65,17,16093.44,wmoUnit:m,SV,A,,,,
Galveston,29.39424415,-94.96474975,27.77777777777778,wmoUnit:degC,94,17,12955.219506958067,wmoUnit:m,,,,,,
De Witt,29.08201599,-97.35666976,27.77777777777778,wmoUnit:degC,74,22,16093.44,wmoUnit:m,,,,,,
Gonzales,29.45641495,-97.49279927,28.333333333333332,wmoUnit:degC,53,29,16093.44,wmoUnit:m,,,,,,
Wharton,29.2778362,-96.22197375,31.11111111111111,wmoUnit:degC,61,13,15964.69260278313,wmoUnit:m,,,,,,
Fannin,33.59396919,-96.10656755,30.555555555555557,wmoUnit:degC,52,6,16093.44,wmoUnit:m,,,,,,
Madison,30.96564645,-95.92818441,24.444444444444443,wmoUnit:degC,85,28,15127.832986084028,wmoUnit:m,,,,,,
Moore,35.83768863,-101.8929556,27.77777777777778,wmoUnit:degC,41,0,,,,,,,,
Tyler,30.7712607,-94.37651432,29.444444444444443,wmoUnit:degC,72,64,16077.34619165045,wmoUnit:m,,,,,,
Lipscomb,36.27778432,-100.27317,29.444444444444443,wmoUnit:degC,41,0,,,,,,,,
Burleson,30.49246139,-96.62109399,30.555555555555557,wmoUnit:degC,55,4,16093.44,wmoUnit:m,,,,,,
Jim Hogg,27.04340499,-98.6972921,35.55555555555556,wmoUnit:degC,44,6,,,,,,,,
Throckmorton,33.17753907,-99.21236832,21.11111111111111,wmoUnit:degC,90,67,,,,,,,,
Kleberg,27.43274395,-97.72889778,34.44444444444444,wmoUnit:degC,60,9,16093.44,wmoUnit:m,,,,,,
Shelby,31.79242191,-94.14495261,20.0,wmoUnit:degC,93,43,16093.44,wmoUnit:m,,,,,,
Garza,33.17991074,-101.2984496,27.22222222222222,wmoUnit:degC,56,21,16093.44,wmoUnit:m,,,,,,
Karnes,28.90493782,-97.85960621,30.0,wmoUnit:degC,65,22,16093.44,wmoUnit:m,,,,,,
Reeves,31.32307061,-103.693143,23.88888888888889,wmoUnit:degC,63,57,9656.064,wmoUnit:m,SV,A,,,,
Houston,31.31764137,-95.42225367,22.77777777777778,wmoUnit:degC,100,49,13244.900383300735,wmoUnit:m,,,Flood Warning,Severe,Expected,2025-06-11T21:00:00-05:00
El Paso,31.7686226,-106.2352229,32.77777777777778,wmoUnit:degC,18,37,11265.408,wmoUnit:m,,,,,,
Carson,35.40346802,-101.3542037,26.666666666666668,wmoUnit:degC,42,0,,,,,,,,
Medina,29.35520493,-99.11008331,30.0,wmoUnit:degC,48,23,16093.44,wmoUnit:m,,,Severe Thunderstorm Warning,Severe,Immediate,2025-06-11T00:15:00-05:00
Wichita,33.98421585,-98.70153389,28.88888888888889,wmoUnit:degC,55,10,,,,,,,,
Chambers,29.73912276,-94.60891308,26.666666666666668,wmoUnit:degC,82,44,15481.889095825225,wmoUnit:m,,,Flood Warning,Severe,Immediate,2025-06-11T15:30:00-05:00
Donley,34.96540246,-100.8140501,26.666666666666668,wmoUnit:degC,54,7,,,,,,,,
Hopkins,33.14933822,-95.56414173,31.11111111111111,wmoUnit:degC,47,11,16093.44,wmoUnit:m,,,,,,
Lampasas,31.19627791,-98.24142711,25.0,wmoUnit:degC,79,38,16093.44,wmoUnit:m,,,,,,
Falls,31.25317017,-96.93579511,22.77777777777778,wmoUnit:degC,93,64,9656.064,wmoUnit:m,,,,,,
Stephens,32.73584155,-98.83612016,24.444444444444443,wmoUnit:degC,87,25,16093.44,wmoUnit:m,,,,,,
Travis,30.33423319,-97.78194654,24.444444444444443,wmoUnit:degC,71,44,16093.44,wmoUnit:m,,,,,,
Roberts,35.8385577,-100.8135689,28.88888888888889,wmoUnit:degC,41,0,,,,,,,,
Crosby,33.61459873,-101.2998612,25.0,wmoUnit:degC,64,15,16093.44,wmoUnit:m,,,,,,
Kerr,30.06153035,-99.35016969,25.0,wmoUnit:degC,53,23,16093.44,wmoUnit:m,,,Severe Thunderstorm Warning,Severe,Immediate,2025-06-11T00:15:00-05:00
Wood,32.78634374,-95.38206498,26.666666666666668,wmoUnit:degC,74,21,14548.469698608355,wmoUnit:m,,,Flood Warning,Severe,Immediate,2025-06-11T21:00:00-05:00
Jack,33.23345819,-98.1725509,25.0,wmoUnit:degC,76,33,16093.44,wmoUnit:m,,,,,,
Marion,32.79797929,-94.35725239,26.11111111111111,wmoUnit:degC,71,15,14548.469698608355,wmoUnit:m,,,,,,
Hale,34.07051782,-101.8269082,25.0,wmoUnit:degC,60,13,16093.44,wmoUnit:m,,,,,,
Jeff Davis,30.71559322,-104.1403539,19.444444444444443,wmoUnit:degC,62,75,9656.064,wmoUnit:m,SV,A,,,,
Tarrant,32.77185236,-97.29116473,21.11111111111111,wmoUnit:degC,84,35,16093.44,wmoUnit:m,,,,,,
Waller,30.01093722,-95.98768942,32.22222222222222,wmoUnit:degC,58,11,15497.982904174776,wmoUnit:m,,,,,,
Reagan,31.36617698,-101.5230108,28.88888888888889,wmoUnit:degC,52,45,16093.44,wmoUnit:m,SV,A,,,,
Smith,32.37514553,-95.26909511,22.22222222222222,wmoUnit:degC,93,27,16093.44,wmoUnit:m,,,Flood Warning,Severe,Immediate,2025-06-11T21:00:00-05:00
Van Zandt,32.56368961,-95.8364862,27.22222222222222,wmoUnit:degC,72,35,16093.44,wmoUnit:m,,,,,,
Cooke,33.638465,-97.21247642,27.77777777777778,wmoUnit:degC,63,8,16093.44,wmoUnit:m,,,,,,
Zavala,28.86530621,-99.76102001,31.11111111111111,wmoUnit:degC,47,17,16093.44,wmoUnit:m,SV,A,Severe Thunderstorm Warning,Severe,Immediate,2025-06-11T00:15:00-05:00
Hall,34.53074134,-100.6809876,27.77777777777778,wmoUnit:degC,55,9,16093.44,wmoUnit:m,,,,,,
Kendall,29.9446397,-98.71160511,24.444444444444443,wmoUnit:degC,64,32,16093.44,wmoUnit:m,,,Severe Thunderstorm Warning,Severe,Immediate,2025-06-11T00:15:00-05:00
Goliad,28.65708563,-97.42646082,33.888888888888886,wmoUnit:degC,52,15,16093.44,wmoUnit:m,,,,,,
Yoakum,33.17293501,-102.8278792,26.11111111111111,wmoUnit:degC,52,35,16093.44,wmoUnit:m,,,,,,
Knox,33.60614755,-99.74144313,27.77777777777778,wmoUnit:degC,60,13,,,,,,,,
McLennan,31.55234489,-97.20184883,21.11111111111111,wmoUnit:degC,93,63,9656.064,wmoUnit:m,,,,,,
Brewster,29.81205836,-103.2518906,28.333333333333332,wmoUnit:degC,51,52,16093.44,wmoUnit:m,SV,A,,,,
Panola,32.16222886,-94.30552858,22.22222222222222,wmoUnit:degC,87,30,16093.44,wmoUnit:m,,,,,,
Bandera,29.74724753,-99.24637282,27.77777777777778,wmoUnit:degC,52,22,16093.44,wmoUnit:m,,,Severe Thunderstorm Warning,Severe,Immediate,2025-06-11T00:15:00-05:00
Parmer,34.53014507,-102.784594,25.0,wmoUnit:degC,56,13,16093.44,wmoUnit:m,,,,,,
Rockwall,32.89786769,-96.40780584,26.666666666666668,wmoUnit:degC,74,24,16093.44,wmoUnit:m,,,,,,
Trinity,31.0885069,-95.13551682,23.88888888888889,wmoUnit:degC,87,18,12472.416,wmoUnit:m,,,Flood Warning,Severe,Immediate,2025-06-11T21:00:00-05:00
Bosque,31.90050476,-97.63437613,21.11111111111111,wmoUnit:degC,100,53,9656.064,wmoUnit:m,,,,,,
Coke,31.88849293,-100.5298747,20.555555555555557,wmoUnit:degC,87,46,,,,,,,,
Franklin,33.17550691,-95.21841437,29.444444444444443,wmoUnit:degC,51,12,16093.44,wmoUnit:m,,,Flood Warning,Severe,Immediate,2025-06-11T21:00:00-05:00
Hill,31.99079033,-97.1324142,20.555555555555557,wmoUnit:degC,97,56,9656.064,wmoUnit:m,,,,,,
Calhoun,28.48966896,-96.64708119,32.22222222222222,wmoUnit:degC,67,9,16093.44,wmoUnit:m,,,,,,
Irion,31.30393203,-100.9824126,20.0,wmoUnit:degC,87,38,,,,,,,,
Midland,31.86921148,-102.0315032,27.22222222222222,wmoUnit:degC,55,32,16093.44,wmoUnit:m,SV,A,,,,
Brown,31.77432313,-98.99989649,22.22222222222222,wmoUnit:degC,90,70,,,,,,,,
Wilson,29.17315896,-98.08621015,27.77777777777778,wmoUnit:degC,59,30,16093.44,wmoUnit:m,,,,,,
Oldham,35.40497586,-102.6029949,27.22222222222222,wmoUnit:degC,44,11,,,,,,,,
Freestone,31.70486443,-96.14918535,20.0,wmoUnit:degC,97,61,9656.064,wmoUnit:m,,,Flood Warning,Severe,Expected,2025-06-11T14:45:00-05:00
Sabine,31.34321941,-93.85170439,22.22222222222222,wmoUnit:degC,93,58,9656.064,wmoUnit:m,,,,,,
Deaf Smith,34.96602014,-102.6048162,26.666666666666668,wmoUnit:degC,45,20,,,,,,,,
Angelina,31.25475875,-94.611742,23.333333333333332,wmoUnit:degC,90,60,9656.064,wmoUnit:m,,,Flood Warning,Severe,Expected,2025-06-11T21:00:00-05:00
Kent,33.18284492,-100.7791031,27.22222222222222,wmoUnit:degC,60,20,16093.44,wmoUnit:m,,,,,,
Red River,33.62074539,-95.0501886,29.444444444444443,wmoUnit:degC,46,2,16093.44,wmoUnit:m,,,Flood Warning,Severe,Immediate,2025-06-11T21:00:00-05:00
Kinney,29.35000302,-100.4178441,32.77777777777778,wmoUnit:degC,38,12,16093.44,wmoUnit:m,SV,A,Severe Thunderstorm Watch,Severe,Future,2025-06-11T02:00:00-05:00
Denton,33.205574,-97.11681154,26.666666666666668,wmoUnit:degC,67,18,16093.44,wmoUnit:m,,,,,,
Sutton,30.49747152,-100.5382263,22.22222222222222,wmoUnit:degC,87,54,,,,,Flash Flood Warning,Severe,Immediate,2025-06-11T00:30:00-05:00
Guadalupe,29.58257236,-97.94850308,27.22222222222222,wmoUnit:degC,54,32,16093.44,wmoUnit:m,,,,,,
Winkler,31.85008609,-103.0484794,26.11111111111111,wmoUnit:degC,58,37,16093.44,wmoUnit:m,SV,A,,,,
Dimmit,28.42161168,-99.760574,30.555555555555557,wmoUnit:degC,72,18,14548.469698608355,wmoUnit:m,SV,A,Severe Thunderstorm Watch,Severe,Future,2025-06-11T02:00:00-05:00
Wise,33.21585061,-97.65444124,25.555555555555557,wmoUnit:degC,64,26,16093.44,wmoUnit:m,,,,,,
Hemphill,35.83750155,-100.2704628,28.333333333333332,wmoUnit:degC,43,0,,,,,,,,
Potter,35.40128927,-101.8940484,28.333333333333332,wmoUnit:degC,38,3,,,,,,,,
Childress,34.52929257,-100.2075664,28.333333333333332,wmoUnit:degC,53,7,16093.44,wmoUnit:m,,,,,,
Willacy,26.47132899,-97.64303323,32.22222222222222,wmoUnit:degC,68,0,,,,,,,,
Bastrop,30.10353518,-97.31187705,25.555555555555557,wmoUnit:degC,67,37,16093.44,wmoUnit:m,,,,,,
Kimble,30.48676251,-99.74892716,23.88888888888889,wmoUnit:degC,84,66,,,,,Flash Flood Warning,Severe,Immediate,2025-06-11T00:30:00-05:00
Scurry,32.74720063,-100.9165071,22.22222222222222,wmoUnit:degC,77,20,16093.44,wmoUnit:m,,,,,,
Ochiltree,36.27846334,-100.815653,28.88888888888889,wmoUnit:degC,46,0,,,,,,,,
Hansford,36.27753179,-101.3545624,28.88888888888889,wmoUnit:degC,40,0,,,,,,,,
Hartley,35.83996755,-102.6028835,27.22222222222222,wmoUnit:degC,46,1,,,,,,,,
Cameron,26.13847728,-97.51499968,32.77777777777778,wmoUnit:degC,61,0,,,,,,,,
Matagorda,28.86711039,-95.98533866,29.444444444444443,wmoUnit:degC,82,79,16093.44,wmoUnit:m,,,,,,
Burnet,30.78843382,-98.18252382,22.77777777777778,wmoUnit:degC,66,57,9656.064,wmoUnit:m,,,,,,
Rains,32.87004212,-95.79347545,29.444444444444443,wmoUnit:degC,59,22,16093.44,wmoUnit:m,,,,,,
Hays,30.05782657,-98.03104087,23.88888888888889,wmoUnit:degC,62,34,16093.44,wmoUnit:m,,,,,,
Mason,30.71742293,-99.2263026,23.88888888888889,wmoUnit:degC,87,63,,,,,,,,
Ward,31.509424,-103.1024636,25.0,wmoUnit:degC,67,51,16093.44,wmoUnit:m,SV,A,,,,
Delta,33.38623601,-95.67221685,30.555555555555557,wmoUnit:degC,52,8,16093.44,wmoUnit:m,,,,,,
Nueces,27.72621549,-97.61767326,34.44444444444444,wmoUnit:degC,56,10,16093.44,wmoUnit:m,,,,,,
Callahan,32.2977738,-99.37359692,21.11111111111111,wmoUnit:degC,87,70,,,,,,,,
Bell,31.03778267,-97.47790776,26.11111111111111,wmoUnit:degC,72,45,9656.064,wmoUnit:m,,,,,,
Cherokee,31.83695632,-95.16515234,20.555555555555557,wmoUnit:degC,100,41,16093.44,wmoUnit:m,,,Flood Warning,Severe,Expected,2025-06-11T21:00:00-05:00
Ellis,32.34839264,-96.79467417,20.555555555555557,wmoUnit:degC,97,48,9656.064,wmoUnit:m,,,,,,
Lubbock,33.6101944,-101.8205745,26.666666666666668,wmoUnit:degC,52,16,16093.44,wmoUnit:m,,,,,,
Terrell,30.22502597,-102.0764533,28.88888888888889,wmoUnit:degC,56,44,16093.44,wmoUnit:m,SV,A,,,,
Crockett,30.72291931,-101.4118364,20.0,wmoUnit:degC,78,35,,,,,,,,
Atascosa,28.89418432,-98.52741302,31.11111111111111,wmoUnit:degC,45,30,16093.44,wmoUnit:m,,,Severe Thunderstorm Warning,Severe,Immediate,2025-06-11T00:15:00-05:00
Ector,31.86908156,-102.5430907,27.22222222222222,wmoUnit:degC,55,34,16093.44,wmoUnit:m,SV,A,,,,
Brazos,30.6610425,-96.3022943,26.11111111111111,wmoUnit:degC,74,5,15900.318904174776,wmoUnit:m,,,,,,
Aransas,28.12709562,-96.99258951,30.555555555555557,wmoUnit:degC,77,9,16093.44,wmoUnit:m,,,,,,
Dallas,32.76653746,-96.77781862,22.77777777777778,wmoUnit:degC,73,33,16093.44,wmoUnit:m,,,,,,
Howard,32.30610232,-101.4355097,25.0,wmoUnit:degC,64,24,16093.44,wmoUnit:m,SV,A,,,,
Motley,34.07409017,-100.7798961,26.666666666666668,wmoUnit:degC,62,11,16093.44,wmoUnit:m,,,,,,
San Augustine,31.39427005,-94.16809762,21.666666666666668,wmoUnit:degC,97,57,9656.064,wmoUnit:m,,,,,,
Maverick,28.74260943,-100.3144638,31.666666666666668,wmoUnit:degC,45,13,16093.44,wmoUnit:m,SV,A,Severe Thunderstorm Watch,Severe,Future,2025-06-11T02:00:00-05:00
Erath,32.23640361,-98.21722756,22.22222222222222,wmoUnit:degC,87,35,16093.44,wmoUnit:m,,,,,,
Dickens,33.61663428,-100.7788138,26.11111111111111,wmoUnit:degC,64,14,16093.44,wmoUnit:m,,,,,,
Caldwell,29.83677935,-97.61983479,27.22222222222222,wmoUnit:degC,62,32,16093.44,wmoUnit:m,,,,,,
Dawson,32.74258137,-101.9476136,23.88888888888889,wmoUnit:degC,70,15,16093.44,wmoUnit:m,SV,A,,,,
Camp,32.97321771,-94.97860185,27.77777777777778,wmoUnit:degC,60,15,16093.44,wmoUnit:m,,,,,,
Duval,27.68133382,-98.50889672,37.22222222222222,wmoUnit:degC,41,13,16093.44,wmoUnit:m,,,,,,
Hunt,33.123531,-96.08550014,29.444444444444443,wmoUnit:degC,63,18,16093.44,wmoUnit:m,,,,,,
Mills,31.49524259,-98.59552736,21.666666666666668,wmoUnit:degC,93,40,16093.44,wmoUnit:m,,,,,,
Val Verde,29.89300587,-101.15171,27.77777777777778,wmoUnit:degC,42,23,16093.44,wmoUnit:m,SV,A,Flood Advisory,Minor,Expected,2025-06-11T02:00:00-05:00
Pecos,30.78100044,-102.7235743,23.88888888888889,wmoUnit:degC,62,66,9656.064,wmoUnit:m,SV,A,,,,
Baylor,33.61648147,-99.21351964,28.333333333333332,wmoUnit:degC,57,12,,,,,,,,
Gregg,32.48036452,-94.81723694,22.77777777777778,wmoUnit:degC,84,24,16093.44,wmoUnit:m,,,,,,
Cochran,33.60410808,-102.8285264,26.11111111111111,wmoUnit:degC,49,28,16093.44,wmoUnit:m,,,,,,
Jasper,30.74391255,-94.02495849,30.555555555555557,wmoUnit:degC,68,56,16077.34619165045,wmoUnit:m,,,,,,
Hamilton,31.70479181,-98.11066654,23.333333333333332,wmoUnit:degC,90,47,14468.002191650448,wmoUnit:m,,,,,,
Castro,34.53000304,-102.2617608,25.0,wmoUnit:degC,56,12,16093.44,wmoUnit:m,,,,,,
Sterling,31.82786516,-101.0500699,20.0,wmoUnit:degC,87,31,,,,,,,,
Starr,26.56212627,-98.73834895,36.666666666666664,wmoUnit:degC,42,3,,,,,,,,
Crane,31.42846287,-102.5156425,25.555555555555557,wmoUnit:degC,67,57,9656.064,wmoUnit:m,SV,A,,,,
Morris,33.11368507,-94.73205137,28.333333333333332,wmoUnit:degC,61,10,16093.44,wmoUnit:m,,,Flood Warning,Severe,Immediate,2025-06-11T21:00:00-05:00
Briscoe,34.53041048,-101.2085769,25.0,wmoUnit:degC,62,11,16093.44,wmoUnit:m,,,,,,
Tom Green,31.4044442,-100.4620678,21.11111111111111,wmoUnit:degC,81,52,,,,,Flash Flood Warning,Severe,Immediate,2025-06-11T00:30:00-05:00
Menard,30.88981785,-99.82061472,22.22222222222222,wmoUnit:degC,87,66,,,,,Flash Flood Warning,Severe,Immediate,2025-06-11T01:30:00-05:00
Parker,32.77852261,-97.80472194,20.0,wmoUnit:degC,97,46,16093.44,wmoUnit:m,,,,,,
Walker,30.73899492,-95.57224172,26.666666666666668,wmoUnit:degC,72,25,16093.44,wmoUnit:m,,,,,,
Brooks,27.0315669,-98.21874127,35.0,wmoUnit:degC,52,5,,,,,,,,
La Salle,28.34621032,-99.1034773,37.77777777777778,wmoUnit:degC,39,21,12746.00460278313,wmoUnit:m,,,Special Weather Statement,Moderate,Expected,2025-06-11T00:15:00-05:00
Edwards,29.98248216,-100.3048937,26.11111111111111,wmoUnit:degC,62,21,16093.44,wmoUnit:m,SV,A,Severe Thunderstorm Watch,Severe,Future,2025-06-11T02:00:00-05:00
Lee,30.31065065,-96.96568735,25.555555555555557,wmoUnit:degC,67,39,16093.44,wmoUnit:m,,,,,,
Robertson,31.02705415,-96.51272568,23.88888888888889,wmoUnit:degC,82,71,9656.064,wmoUnit:m,,,,,,
Young,33.17670764,-98.68781396,24.444444444444443,wmoUnit:degC,87,28,16093.44,wmoUnit:m,,,,,,
Bee,28.41736675,-97.74116811,35.0,wmoUnit:degC,49,15,16093.44,wmoUnit:m,,,,,,
Clay,33.78379717,-98.208958,27.22222222222222,wmoUnit:degC,67,9,,,,,,,,
San Jacinto,30.57948905,-95.16683273,26.11111111111111,wmoUnit:degC,79,13,13470.209095825225,wmoUnit:m,,,,,,
Uvalde,29.35669829,-99.76203107,31.11111111111111,wmoUnit:degC,45,12,16093.44,wmoUnit:m,SV,A,Severe Thunderstorm Warning,Severe,Immediate,2025-06-11T00:15:00-05:00
Haskell,33.17824805,-99.73029401,20.555555555555557,wmoUnit:degC,93,50,,,,,,,,
Somervell,32.22229511,-97.77456553,21.11111111111111,wmoUnit:degC,93,45,9656.064,wmoUnit:m,,,,,,
Bexar,29.44884523,-98.51966309,26.666666666666668,wmoUnit:degC,51,31,16093.44,wmoUnit:m,,,Severe Thunderstorm Warning,Severe,Immediate,2025-06-11T00:15:00-05:00
Grayson,33.62684371,-96.67764864,30.0,wmoUnit:degC,48,9,16093.44,wmoUnit:m,,,,,,
Bailey,34.0684915,-102.8299069,25.0,wmoUnit:degC,56,14,16093.44,wmoUnit:m,,,,,,
Jones,32.73970429,-99.87850599,20.0,wmoUnit:degC,90,54,,,,,,,,
Jefferson,29.88425832,-94.1708778,30.555555555555557,wmoUnit:degC,70,62,15723.291616699264,wmoUnit:m,,,,,,
Rusk,32.10803224,-94.76169577,22.22222222222222,wmoUnit:degC,90,33,16093.44,wmoUnit:m,,,,,,
Glasscock,31.8694238,-101.520742,26.666666666666668,wmoUnit:degC,55,32,16093.44,wmoUnit:m,SV,A,,,,
Gillespie,30.31800246,-98.94627245,24.444444444444443,wmoUnit:degC,66,30,16093.44,wmoUnit:m,,,,,,
Fisher,32.74305155,-100.4019503,19.444444444444443,wmoUnit:degC,93,44,,,,,,,,
Henderson,32.21188078,-95.85356847,23.88888888888889,wmoUnit:degC,76,47,9656.064,wmoUnit:m,,,Flood Warning,Severe,Immediate,2025-06-11T14:45:00-05:00
Shackelford,32.7360276,-99.35403034,20.555555555555557,wmoUnit:degC,93,68,,,,,,,,
Palo Pinto,32.75316856,-98.31299522,23.88888888888889,wmoUnit:degC,82,45,16093.44,wmoUnit:m,,,,,,
Wilbarger,34.08044953,-99.24089568,29.444444444444443,wmoUnit:degC,52,11,,,,,,,,
Floyd,34.07239775,-101.3033037,24.444444444444443,wmoUnit:degC,64,12,16093.44,wmoUnit:m,,,,,,
Orange,30.12807126,-93.89653794,30.0,wmoUnit:degC,70,72,16093.44,wmoUnit:m,,,,,,
Runnels,31.83105393,-99.97624799,21.11111111111111,wmoUnit:degC,84,61,,,,,,,,
Coleman,31.77329421,-99.45362579,21.11111111111111,wmoUnit:degC,87,67,,,,,,,,
Martin,32.30605847,-101.9512464,22.77777777777778,wmoUnit:degC,78,21,16093.44,wmoUnit:m,SV,A,,,,
Wheeler,35.40129002,-100.2697634,28.88888888888889,wmoUnit:degC,37,1,,,,,,,,
Culberson,31.44709817,-104.5177421,23.333333333333332,wmoUnit:degC,56,72,9656.064,wmoUnit:m,SV,A,,,,
Mitchell,32.30636024,-100.9211128,28.333333333333332,wmoUnit:degC,51,30,16093.44,wmoUnit:m,,,,,,
Hudspeth,31.45613738,-105.3869428,30.555555555555557,wmoUnit:degC,25,48,13840.359013915973,wmoUnit:m,,,,,,
Upshur,32.7362827,-94.94132011,25.0,wmoUnit:degC,74,19,16093.44,wmoUnit:m,,,,,,
Liberty,30.15153187,-94.8120925,27.77777777777778,wmoUnit:degC,77,39,13470.209095825225,wmoUnit:m,,,Flood Warning,Severe,Immediate,2025-06-11T15:30:00-05:00
Williamson,30.64834941,-97.60105467,23.88888888888889,wmoUnit:degC,76,55,16093.44,wmoUnit:m,,,,,,
Nacogdoches,31.61604108,-94.6158776,21.666666666666668,wmoUnit:degC,93,50,16093.44,wmoUnit:m,,,Flood Warning,Severe,Immediate,2025-06-11T21:00:00-05:00
Loving,31.84912973,-103.5799063,22.77777777777778,wmoUnit:degC,80,35,16093.44,wmoUnit:m,SV,A,,,,
Jim Wells,27.73131099,-98.0898649,36.111111111111114,wmoUnit:degC,49,12,16093.44,wmoUnit:m,,,,,,
Upton,31.36853957,-102.0430005,24.444444444444443,wmoUnit:degC,74,52,16093.44,wmoUnit:m,SV,A,,,,
Newton,30.78619977,-93.74462993,30.0,wmoUnit:degC,68,62,16093.44,wmoUnit:m,,,,,,
Lamar,33.66746186,-95.57110784,31.11111111111111,wmoUnit:degC,47,2,16093.44,wmoUnit:m,,,,,,
Polk,30.79250963,-94.82994949,27.22222222222222,wmoUnit:degC,74,30,12472.416,wmoUnit:m,,,Flood Warning,Severe,Immediate,2025-06-11T21:00:00-05:00
Collin,33.18789055,-96.57248871,28.333333333333332,wmoUnit:degC,67,15,16093.44,wmoUnit:m,,,,,,
Hardeman,34.28865227,-99.7453851,28.88888888888889,wmoUnit:degC,51,11,,,,,,,,
McMullen,28.35351091,-98.56842256,37.22222222222222,wmoUnit:degC,42,18,16093.44,wmoUnit:m,,,,,,
Cottle,34.0776571,-100.2786983,27.77777777777778,wmoUnit:degC,56,10,16093.44,wmoUnit:m,,,,,,
Frio,28.86726774,-99.10826004,31.11111111111111,wmoUnit:degC,47,23,16093.44,wmoUnit:m,,,Severe Thunderstorm Warning,Severe,Immediate,2025-06-11T00:15:00-05:00
Gray,35.40130666,-100.812475,27.77777777777778,wmoUnit:degC,43,1,,,,,,,,
Dallam,36.27777107,-102.6021647,27.22222222222222,wmoUnit:degC,39,0,,,,,,,,
Kenedy,26.92409448,-97.68137783,32.22222222222222,wmoUnit:degC,70,0,,,,,,,,
Fort Bend,29.52763253,-95.77090562,31.666666666666668,wmoUnit:degC,66,16,15916.412712524489,wmoUnit:m,,,,,,
Armstrong,34.96522076,-101.3572412,27.22222222222222,wmoUnit:degC,47,11,,,,,,,,
Collingsworth,34.96498493,-100.2700733,29.444444444444443,wmoUnit:degC,43,5,,,,,,,,
Cass,33.07750446,-94.34348771,27.77777777777778,wmoUnit:degC,69,8,16093.44,wmoUnit:m,,,,,,
Sherman,36.27765824,-101.8933822,28.88888888888889,wmoUnit:degC,34,0,,,,,,,,
Terry,33.17373729,-102.335157,26.666666666666668,wmoUnit:degC,54,28,16093.44,wmoUnit:m,,,,,,
Limestone,31.54541898,-96.58056718,20.0,wmoUnit:degC,100,68,6276.441753478953,wmoUnit:m,,,,,,
Real,29.83182711,-99.82215881,26.666666666666668,wmoUnit:degC,49,14,16093.44,wmoUnit:m,SV,A,Severe Thunderstorm Warning,Severe,Immediate,2025-06-11T00:15:00-05:00
Lynn,33.17685487,-101.8160235,26.11111111111111,wmoUnit:degC,60,23,16093.44,wmoUnit:m,,,,,,
Lavaca,29.38437003,-96.93020993,30.0,wmoUnit:degC,67,21,16093.44,wmoUnit:m,,,,,,
Nolan,32.3034718,-100.4060989,20.0,wmoUnit:degC,87,48,,,,,,,,
Gaines,32.74074537,-102.6351246,25.0,wmoUnit:degC,61,28,16093.44,wmoUnit:m,SV,A,,,,
Montgomery,30.30022409,-95.50301411,31.11111111111111,wmoUnit:degC,63,14,16093.44,wmoUnit:m,,,,,,
Concho,31.32645211,-99.86413426,21.11111111111111,wmoUnit:degC,87,67,,,,,Flash Flood Warning,Severe,Immediate,2025-06-11T01:30:00-05:00
Hardin,30.33238431,-94.39021394,29.444444444444443,wmoUnit:degC,71,68,15980.786411132844,wmoUnit:m,,,,,,
Harris,29.85967144,-95.39782106,31.666666666666668,wmoUnit:degC,61,15,15723.291616699264,wmoUnit:m,,,,,,
Leon,31.29655719,-95.99554292,23.333333333333332,wmoUnit:degC,87,64,9656.064,wmoUnit:m,,,Flood Warning,Severe,Expected,2025-06-11T14:45:00-05:00
Bowie,33.44572786,-94.42324298,29.444444444444443,wmoUnit:degC,59,2,16093.44,wmoUnit:m,,,Flood Warning,Severe,Immediate,2025-06-11T21:00:00-05:00
Kaufman,32.59927808,-96.28779341,26.11111111111111,wmoUnit:degC,74,34,16093.44,wmoUnit:m,,,,,,
Anderson,31.81321543,-95.65251774,20.0,wmoUnit:degC,97,59,9656.064,wmoUnit:m,,,Flood Warning,Severe,Expected,2025-06-11T21:00:00-05:00
San Saba,31.15520543,-98.81754295,23.333333333333332,wmoUnit:degC,90,67,,,,,,,,
Schleicher,30.89661056,-100.538097,21.11111111111111,wmoUnit:degC,87,53,,,,,Flash Flood Warning,Severe,Immediate,2025-06-11T00:30:00-05:00
Colorado,29.6208542,-96.52630821,31.666666666666668,wmoUnit:degC,56,6,16045.160109741197,wmoUnit:m,,,,,,
Milam,30.78625299,-96.97683495,24.444444444444443,wmoUnit:degC,82,55,9656.064,wmoUnit:m,,,,,,
Live Oak,28.3514375,-98.12474493,36.666666666666664,wmoUnit:degC,46,19,16093.44,wmoUnit:m,,,,,,
Borden,32.7436916,-101.4317533,22.22222222222222,wmoUnit:degC,80,14,16093.44,wmoUnit:m,SV,A,,,,
McCulloch,31.19896752,-99.34754972,22.22222222222222,wmoUnit:degC,87,65,,,,,,,,
Johnson,32.37899918,-97.36660504,20.0,wmoUnit:degC,97,47,9656.064,wmoUnit:m,,,,,,
Montague,33.67496328,-97.72466993,26.11111111111111,wmoUnit:degC,77,13,16093.44,wmoUnit:m,,,,,,
Stonewall,33.17842158,-100.255259,27.77777777777778,wmoUnit:degC,63,19,16093.44,wmoUnit:m,,,,,,
Comal,29.80816362,-98.27814516,24.444444444444443,wmoUnit:degC,56,35,16093.44,wmoUnit:m,,,,,,
Eastland,32.32739258,-98.8325713,22.77777777777778,wmoUnit:degC,79,28,16093.44,wmoUnit:m,,,,,,
Comanche,31.9490639,-98.55841538,22.22222222222222,wmoUnit:degC,97,43,16093.44,wmoUnit:m,,,,,,
King,33.61641863,-100.2558584,26.666666666666668,wmoUnit:degC,67,12,16093.44,wmoUnit:m,,,,,,
Washington,30.2145299,-96.40356575,31.11111111111111,wmoUnit:degC,61,4,16093.44,wmoUnit:m,,,,,,
Webb,27.76102524,-99.33170164,37.77777777777778,wmoUnit:degC,35,11,16093.44,wmoUnit:m,,,Special Weather Statement,Moderate,Expected,2025-06-11T00:15:00-05:00
Fayette,29.87683207,-96.91968047,26.11111111111111,wmoUnit:degC,80,27,16093.44,wmoUnit:m,,,,,,
Harrison,32.54814898,-94.37155736,23.333333333333332,wmoUnit:degC,84,21,12746.00460278313,wmoUnit:m,,,,,,
Presidio,29.99977786,-104.2405552,27.22222222222222,wmoUnit:degC,39,64,9656.064,wmoUnit:m,SV,A,,,,
Austin,29.88711223,-96.27791829,31.11111111111111,wmoUnit:degC,59,7,16012.972493041932,wmoUnit:m,,,,,,
Randall,34.96594288,-101.8968527,27.77777777777778,wmoUnit:degC,44,11,,,,,,,,
Hood,32.43107878,-97.83280338,21.666666666666668,wmoUnit:degC,87,45,9656.064,wmoUnit:m,,,,,,
Victoria,28.79640594,-96.97176602,33.888888888888886,wmoUnit:degC,58,13,16093.44,wmoUnit:m,,,,,,
Hutchinson,35.84000866,-101.3547257,28.88888888888889,wmoUnit:degC,40,0,,,,,,,,
Coryell,31.39087578,-97.7991883,25.0,wmoUnit:degC,88,51,9656.064,wmoUnit:m,,,,,,
Jackson,28.95603133,-96.57883268,32.22222222222222,wmoUnit:degC,66,14,14934.711890258803,wmoUnit:m,,,,,,
Taylor,32.30138229,-99.89003941,19.444444444444443,wmoUnit:degC,90,59,,,,,,,,
Zapata,27.00089072,-99.16860134,37.22222222222222,wmoUnit:degC,37,4,,,,,,,,
San Patricio,28.00922186,-97.51859857,33.888888888888886,wmoUnit:degC,61,11,16093.44,wmoUnit:m,,,,,,
Grimes,30.54360689,-95.98557334,28.88888888888889,wmoUnit:degC,74,12,16093.44,wmoUnit:m,,,,,,
Lamb,34.06861242,-102.3517095,25.0,wmoUnit:degC,60,13,16093.44,wmoUnit:m,,,,,,
