countyName,latitude,longitude,temperature,temperature_unit,relativeHumidity,precipitationProbability,visibility,visibility_unit,hazard_phenomenon,hazard_significance,alert_event,alert_severity,alert_urgency,alert_expires
Foard,33.97408519,-99.77871109,26.11111111111111,wmoUnit:degC,70,21,,,,,,,,
Blanco,30.26636128,-98.39974086,29.444444444444443,wmoUnit:degC,59,25,16093.44,wmoUnit:m,FA,A,Flash Flood Warning,Severe,Immediate,2025-06-12T04:00:00-05:00
Hockley,33.60750375,-102.3430919,27.77777777777778,wmoUnit:degC,38,8,16093.44,wmoUnit:m,,,,,,
Llano,30.70566579,-98.68387398,28.88888888888889,wmoUnit:degC,61,27,16093.44,wmoUnit:m,FA,A,Flood Advisory,Minor,Expected,2025-06-12T02:30:00-05:00
Swisher,34.53064989,-101.734951,26.666666666666668,wmoUnit:degC,45,9,16093.44,wmoUnit:m,,,,,,
Titus,33.2160906,-94.96509786,22.22222222222222,wmoUnit:degC,97,79,11136.66060278313,wmoUnit:m,FA,A,Flood Warning,Severe,Expected,2025-06-12T20:45:00-05:00
Navarro,32.04695429,-96.47248134,24.444444444444443,wmoUnit:degC,94,61,9656.064,wmoUnit:m,FA,A,Flood Watch,Severe,Future,2025-06-12T05:00:00-05:00
Brazoria,29.19345387,-95.45578479,28.333333333333332,wmoUnit:degC,80,31,15642.824109741197,wmoUnit:m,FA,A,Flood Watch,Severe,Future,2025-06-12T06:00:00-05:00
Hidalgo,26.396627,-98.18088681,35.0,wmoUnit:degC,48,16,,,,,,,,
Archer,33.61539176,-98.68783437,25.0,wmoUnit:degC,80,53,,,,,,,,
Refugio,28.32681413,-97.16546961,31.11111111111111,wmoUnit:degC,64,20,15497.982904174776,wmoUnit:m,,,,,,
Andrews,32.30506283,-102.6378839,27.22222222222222,wmoUnit:degC,49,0,16093.44,wmoUnit:m,,,,,,
Galveston,29.39424415,-94.96474975,28.333333333333332,wmoUnit:degC,79,50,15160.02060278313,wmoUnit:m,FA,A,Flood Watch,Severe,Future,2025-06-12T06:00:00-05:00
De Witt,29.08201599,-97.35666976,30.0,wmoUnit:degC,68,22,16093.44,wmoUnit:m,FA,A,Flood Watch,Severe,Future,2025-06-12T10:15:00-05:00
Gonzales,29.45641495,-97.49279927,31.666666666666668,wmoUnit:degC,57,24,16093.44,wmoUnit:m,FA,A,Flood Watch,Severe,Future,2025-06-12T10:15:00-05:00
Wharton,29.2778362,-96.22197375,28.88888888888889,wmoUnit:degC,73,28,15900.318904174776,wmoUnit:m,FA,A,Flood Watch,Severe,Future,2025-06-12T06:00:00-05:00
Fannin,33.59396919,-96.10656755,23.333333333333332,wmoUnit:degC,84,78,9479.0359451294,wmoUnit:m,FA,A,Flood Watch,Severe,Future,2025-06-12T05:00:00-05:00
Madison,30.96564645,-95.92818441,25.0,wmoUnit:degC,88,47,9656.064,wmoUnit:m,FA,A,Flood Watch,Severe,Future,2025-06-12T06:00:00-05:00
Moore,35.83768863,-101.8929556,27.22222222222222,wmoUnit:degC,46,0,,,,,,,,
Tyler,30.7712607,-94.37651432,27.22222222222222,wmoUnit:degC,82,84,15803.757588867158,wmoUnit:m,,,,,,
Lipscomb,36.27778432,-100.27317,26.11111111111111,wmoUnit:degC,58,0,,,,,,,,
Burleson,30.49246139,-96.62109399,27.22222222222222,wmoUnit:degC,73,35,16093.44,wmoUnit:m,FA,A,Flood Watch,Severe,Future,2025-06-12T06:00:00-05:00
Jim Hogg,27.04340499,-98.6972921,34.44444444444444,wmoUnit:degC,47,62,,,,,,,,
Throckmorton,33.17753907,-99.21236832,21.11111111111111,wmoUnit:degC,97,56,,,,,,,,
Kleberg,27.43274395,-97.72889778,32.77777777777778,wmoUnit:degC,65,20,16093.44,wmoUnit:m,,,,,,
Shelby,31.79242191,-94.14495261,25.555555555555557,wmoUnit:degC,87,75,16093.44,wmoUnit:m,FA,A,Flood Watch,Severe,Future,2025-06-12T19:00:00-05:00
Garza,33.17991074,-101.2984496,26.11111111111111,wmoUnit:degC,52,21,16093.44,wmoUnit:m,,,,,,
Karnes,28.90493782,-97.85960621,28.88888888888889,wmoUnit:degC,70,12,16093.44,wmoUnit:m,FA,A,Flood Watch,Severe,Future,2025-06-12T10:15:00-05:00
Reeves,31.32307061,-103.693143,30.555555555555557,wmoUnit:degC,36,0,16093.44,wmoUnit:m,,,,,,
Houston,31.31764137,-95.42225367,24.444444444444443,wmoUnit:degC,91,36,9656.064,wmoUnit:m,FA,A,Flood Watch,Severe,Future,2025-06-12T06:00:00-05:00
El Paso,31.7686226,-106.2352229,33.333333333333336,wmoUnit:degC,17,4,16093.44,wmoUnit:m,,,,,,
Carson,35.40346802,-101.3542037,25.555555555555557,wmoUnit:degC,50,0,,,,,,,,
Medina,29.35520493,-99.11008331,29.444444444444443,wmoUnit:degC,59,6,16093.44,wmoUnit:m,FA,A,Flash Flood Warning,Severe,Immediate,2025-06-12T04:00:00-05:00
Wichita,33.98421585,-98.70153389,26.11111111111111,wmoUnit:degC,71,37,,,,,,,,
Chambers,29.73912276,-94.60891308,27.77777777777778,wmoUnit:degC,80,38,9656.064,wmoUnit:m,,,Flood Warning,Severe,Immediate,2025-06-12T15:30:00-05:00
Donley,34.96540246,-100.8140501,25.555555555555557,wmoUnit:degC,58,0,,,,,,,,
Hopkins,33.14933822,-95.56414173,24.444444444444443,wmoUnit:degC,79,81,3975.079726043654,wmoUnit:m,FA,A,Flood Watch,Severe,Future,2025-06-12T05:00:00-05:00
Lampasas,31.19627791,-98.24142711,26.11111111111111,wmoUnit:degC,74,70,9656.064,wmoUnit:m,FA,A,Flash Flood Warning,Severe,Immediate,2025-06-12T03:00:00-05:00
Falls,31.25317017,-96.93579511,26.11111111111111,wmoUnit:degC,79,67,9656.064,wmoUnit:m,FA,A,Flood Watch,Severe,Future,2025-06-12T05:00:00-05:00
Stephens,32.73584155,-98.83612016,26.11111111111111,wmoUnit:degC,60,57,9656.064,wmoUnit:m,,,Flash Flood Warning,Severe,Immediate,2025-06-12T02:00:00-05:00
Travis,30.33423319,-97.78194654,32.22222222222222,wmoUnit:degC,54,18,16093.44,wmoUnit:m,FA,A,Flood Watch,Severe,Future,2025-06-12T10:15:00-05:00
Roberts,35.8385577,-100.8135689,26.11111111111111,wmoUnit:degC,60,0,,,,,,,,
Crosby,33.61459873,-101.2998612,25.0,wmoUnit:degC,58,19,16093.44,wmoUnit:m,,,,,,
Kerr,30.06153035,-99.35016969,30.0,wmoUnit:degC,55,23,16093.44,wmoUnit:m,FA,A,Flood Watch,Severe,Future,2025-06-12T10:15:00-05:00
Wood,32.78634374,-95.38206498,22.22222222222222,wmoUnit:degC,99,80,16093.44,wmoUnit:m,FA,A,Flood Warning,Severe,Expected,2025-06-12T20:45:00-05:00
Jack,33.23345819,-98.1725509,25.555555555555557,wmoUnit:degC,74,60,9656.064,wmoUnit:m,,,,,,
Marion,32.79797929,-94.35725239,22.77777777777778,wmoUnit:degC,96,75,16093.44,wmoUnit:m,FA,A,Flood Warning,Severe,Expected,2025-06-12T20:45:00-05:00
Hale,34.07051782,-101.8269082,27.22222222222222,wmoUnit:degC,46,14,16093.44,wmoUnit:m,,,,,,
Jeff Davis,30.71559322,-104.1403539,25.555555555555557,wmoUnit:degC,35,0,16093.44,wmoUnit:m,,,,,,
Tarrant,32.77185236,-97.29116473,25.555555555555557,wmoUnit:degC,74,61,9656.064,wmoUnit:m,FA,A,Flood Watch,Severe,Future,2025-06-12T05:00:00-05:00
Waller,30.01093722,-95.98768942,27.77777777777778,wmoUnit:degC,78,26,9656.064,wmoUnit:m,FA,A,Flood Watch,Severe,Future,2025-06-12T06:00:00-05:00
Reagan,31.36617698,-101.5230108,24.444444444444443,wmoUnit:degC,64,0,16093.44,wmoUnit:m,,,,,,
Smith,32.37514553,-95.26909511,23.333333333333332,wmoUnit:degC,98,80,7934.065643737756,wmoUnit:m,FA,A,Flood Warning,Severe,Expected,2025-06-12T20:45:00-05:00
Van Zandt,32.56368961,-95.8364862,24.444444444444443,wmoUnit:degC,82,66,9656.064,wmoUnit:m,FA,A,Flood Watch,Severe,Future,2025-06-12T05:00:00-05:00
Cooke,33.638465,-97.21247642,24.444444444444443,wmoUnit:degC,79,64,9656.064,wmoUnit:m,,,,,,
Zavala,28.86530621,-99.76102001,30.0,wmoUnit:degC,68,2,16093.44,wmoUnit:m,,,,,,
Hall,34.53074134,-100.6809876,28.88888888888889,wmoUnit:degC,44,16,16093.44,wmoUnit:m,,,,,,
Kendall,29.9446397,-98.71160511,29.444444444444443,wmoUnit:degC,63,19,16093.44,wmoUnit:m,FA,A,Flash Flood Warning,Severe,Immediate,2025-06-12T04:00:00-05:00
Goliad,28.65708563,-97.42646082,30.555555555555557,wmoUnit:degC,63,35,16045.160109741197,wmoUnit:m,,,,,,
Yoakum,33.17293501,-102.8278792,27.77777777777778,wmoUnit:degC,38,6,16093.44,wmoUnit:m,,,,,,
Knox,33.60614755,-99.74144313,26.666666666666668,wmoUnit:degC,66,32,,,,,,,,
McLennan,31.55234489,-97.20184883,25.555555555555557,wmoUnit:degC,85,63,9656.064,wmoUnit:m,FA,A,Flood Warning,Severe,Expected,2025-06-12T02:30:00-05:00
Brewster,29.81205836,-103.2518906,32.22222222222222,wmoUnit:degC,28,0,16093.44,wmoUnit:m,,,,,,
Panola,32.16222886,-94.30552858,24.444444444444443,wmoUnit:degC,89,77,16093.44,wmoUnit:m,FA,A,Special Weather Statement,Moderate,Expected,2025-06-12T00:15:00-05:00
Bandera,29.74724753,-99.24637282,28.88888888888889,wmoUnit:degC,57,14,16093.44,wmoUnit:m,FA,A,Flood Advisory,Minor,Expected,2025-06-12T03:00:00-05:00
Parmer,34.53014507,-102.784594,27.77777777777778,wmoUnit:degC,38,5,16093.44,wmoUnit:m,,,,,,
Rockwall,32.89786769,-96.40780584,24.444444444444443,wmoUnit:degC,74,61,9656.064,wmoUnit:m,FA,A,Flood Watch,Severe,Future,2025-06-12T05:00:00-05:00
Trinity,31.0885069,-95.13551682,25.0,wmoUnit:degC,87,48,9656.064,wmoUnit:m,FA,A,Flood Watch,Severe,Future,2025-06-12T06:00:00-05:00
Bosque,31.90050476,-97.63437613,25.555555555555557,wmoUnit:degC,91,61,9656.064,wmoUnit:m,FA,A,Flood Watch,Severe,Future,2025-06-12T05:00:00-05:00
Coke,31.88849293,-100.5298747,23.88888888888889,wmoUnit:degC,74,25,,,,,,,,
Franklin,33.17550691,-95.21841437,21.666666666666668,wmoUnit:degC,99,80,12778.191452087469,wmoUnit:m,FA,A,Flood Warning,Severe,Expected,2025-06-12T20:45:00-05:00
Hill,31.99079033,-97.1324142,25.0,wmoUnit:degC,100,61,9656.064,wmoUnit:m,FA,A,Flood Watch,Severe,Future,2025-06-12T05:00:00-05:00
Calhoun,28.48966896,-96.64708119,30.555555555555557,wmoUnit:degC,73,19,15819.85139721687,wmoUnit:m,,,,,,
Irion,31.30393203,-100.9824126,23.333333333333332,wmoUnit:degC,74,25,,,,,,,,
Midland,31.86921148,-102.0315032,28.333333333333332,wmoUnit:degC,46,0,16093.44,wmoUnit:m,,,,,,
Brown,31.77432313,-98.99989649,22.22222222222222,wmoUnit:degC,90,83,,,,,,,,
Wilson,29.17315896,-98.08621015,31.666666666666668,wmoUnit:degC,52,8,16093.44,wmoUnit:m,FA,A,Flood Watch,Severe,Future,2025-06-12T10:15:00-05:00
Oldham,35.40497586,-102.6029949,28.333333333333332,wmoUnit:degC,43,0,,,,,,,,
Freestone,31.70486443,-96.14918535,25.0,wmoUnit:degC,90,61,9656.064,wmoUnit:m,FA,A,Flood Watch,Severe,Future,2025-06-12T05:00:00-05:00
Sabine,31.34321941,-93.85170439,29.444444444444443,wmoUnit:degC,75,72,16093.44,wmoUnit:m,FA,A,Flood Watch,Severe,Future,2025-06-12T19:00:00-05:00
Deaf Smith,34.96602014,-102.6048162,27.22222222222222,wmoUnit:degC,42,0,,,,,,,,
Angelina,31.25475875,-94.611742,22.77777777777778,wmoUnit:degC,98,80,11136.66060278313,wmoUnit:m,FA,A,Flood Warning,Severe,Immediate,2025-06-12T20:15:00-05:00
Kent,33.18284492,-100.7791031,25.0,wmoUnit:degC,67,33,16093.44,wmoUnit:m,,,,,,
Red River,33.62074539,-95.0501886,22.22222222222222,wmoUnit:degC,93,77,11152.753643737757,wmoUnit:m,FA,A,Flood Warning,Severe,Immediate,2025-06-12T20:30:00-05:00
Kinney,29.35000302,-100.4178441,30.0,wmoUnit:degC,55,1,16093.44,wmoUnit:m,,,,,,
Denton,33.205574,-97.11681154,26.11111111111111,wmoUnit:degC,74,65,9656.064,wmoUnit:m,FA,A,Flood Watch,Severe,Future,2025-06-12T05:00:00-05:00
Sutton,30.49747152,-100.5382263,22.22222222222222,wmoUnit:degC,76,47,,,,,,,,
Guadalupe,29.58257236,-97.94850308,32.22222222222222,wmoUnit:degC,49,15,16093.44,wmoUnit:m,FA,A,Flood Watch,Severe,Future,2025-06-12T10:15:00-05:00
Winkler,31.85008609,-103.0484794,28.88888888888889,wmoUnit:degC,41,0,16093.44,wmoUnit:m,,,,,,
Dimmit,28.42161168,-99.760574,31.666666666666668,wmoUnit:degC,57,1,16093.44,wmoUnit:m,,,,,,
Wise,33.21585061,-97.65444124,25.0,wmoUnit:degC,79,66,9656.064,wmoUnit:m,,,,,,
Hemphill,35.83750155,-100.2704628,26.11111111111111,wmoUnit:degC,58,0,,,,,,,,
Potter,35.40128927,-101.8940484,27.77777777777778,wmoUnit:degC,47,0,,,,,,,,
Childress,34.52929257,-100.2075664,27.77777777777778,wmoUnit:degC,51,18,16093.44,wmoUnit:m,,,,,,
Willacy,26.47132899,-97.64303323,33.333333333333336,wmoUnit:degC,64,15,,,,,,,,
Bastrop,30.10353518,-97.31187705,29.444444444444443,wmoUnit:degC,70,22,16093.44,wmoUnit:m,FA,A,Flood Watch,Severe,Future,2025-06-12T10:15:00-05:00
Kimble,30.48676251,-99.74892716,21.11111111111111,wmoUnit:degC,90,72,,,,,,,,
Scurry,32.74720063,-100.9165071,24.444444444444443,wmoUnit:degC,64,0,16093.44,wmoUnit:m,,,,,,
Ochiltree,36.27846334,-100.815653,26.11111111111111,wmoUnit:degC,58,0,,,,,,,,
Hansford,36.27753179,-101.3545624,27.22222222222222,wmoUnit:degC,47,0,,,,,,,,
Hartley,35.83996755,-102.6028835,27.22222222222222,wmoUnit:degC,46,0,,,,,,,,
Cameron,26.13847728,-97.51499968,33.333333333333336,wmoUnit:degC,62,7,,,,,,,,
Matagorda,28.86711039,-95.98533866,29.444444444444443,wmoUnit:degC,78,35,15852.039013915974,wmoUnit:m,FA,A,Flood Watch,Severe,Future,2025-06-12T06:00:00-05:00
Burnet,30.78843382,-98.18252382,28.333333333333332,wmoUnit:degC,61,29,16093.44,wmoUnit:m,FA,A,Flood Advisory,Minor,Expected,2025-06-12T02:30:00-05:00
Rains,32.87004212,-95.79347545,24.444444444444443,wmoUnit:degC,76,74,7934.065643737756,wmoUnit:m,FA,A,Flood Watch,Severe,Future,2025-06-12T05:00:00-05:00
Hays,30.05782657,-98.03104087,30.555555555555557,wmoUnit:degC,57,15,16093.44,wmoUnit:m,FA,A,Flash Flood Warning,Severe,Immediate,2025-06-12T04:00:00-05:00
Mason,30.71742293,-99.2263026,20.555555555555557,wmoUnit:degC,90,72,,,,,,,,
Ward,31.509424,-103.1024636,30.0,wmoUnit:degC,39,0,16093.44,wmoUnit:m,,,,,,
Delta,33.38623601,-95.67221685,24.444444444444443,wmoUnit:degC,79,80,4731.471452087469,wmoUnit:m,FA,A,Flood Watch,Severe,Future,2025-06-12T05:00:00-05:00
Nueces,27.72621549,-97.61767326,32.22222222222222,wmoUnit:degC,63,18,16093.44,wmoUnit:m,,,,,,
Callahan,32.2977738,-99.37359692,21.11111111111111,wmoUnit:degC,93,46,,,,,,,,
Bell,31.03778267,-97.47790776,27.77777777777778,wmoUnit:degC,67,71,9656.064,wmoUnit:m,FA,A,Flood Watch,Severe,Future,2025-06-12T05:00:00-05:00
Cherokee,31.83695632,-95.16515234,24.444444444444443,wmoUnit:degC,97,80,12794.284493041932,wmoUnit:m,FA,A,Flood Warning,Severe,Expected,2025-06-12T20:45:00-05:00
Ellis,32.34839264,-96.79467417,24.444444444444443,wmoUnit:degC,90,61,9656.064,wmoUnit:m,FA,A,Flood Watch,Severe,Future,2025-06-12T05:00:00-05:00
Lubbock,33.6101944,-101.8205745,27.77777777777778,wmoUnit:degC,43,15,16093.44,wmoUnit:m,,,,,,
Terrell,30.22502597,-102.0764533,31.11111111111111,wmoUnit:degC,36,0,16093.44,wmoUnit:m,,,,,,
Crockett,30.72291931,-101.4118364,22.22222222222222,wmoUnit:degC,68,23,,,,,,,,
Atascosa,28.89418432,-98.52741302,31.666666666666668,wmoUnit:degC,48,6,16093.44,wmoUnit:m,,,,,,
Ector,31.86908156,-102.5430907,28.333333333333332,wmoUnit:degC,40,0,16093.44,wmoUnit:m,,,,,,
Brazos,30.6610425,-96.3022943,27.22222222222222,wmoUnit:degC,78,36,16093.44,wmoUnit:m,FA,A,Flood Watch,Severe,Future,2025-06-12T06:00:00-05:00
Aransas,28.12709562,-96.99258951,30.0,wmoUnit:degC,78,13,14886.432,wmoUnit:m,,,,,,
Dallas,32.76653746,-96.77781862,25.0,wmoUnit:degC,76,61,9656.064,wmoUnit:m,FA,A,Flood Watch,Severe,Future,2025-06-12T05:00:00-05:00
Howard,32.30610232,-101.4355097,30.0,wmoUnit:degC,42,0,16093.44,wmoUnit:m,,,,,,
Motley,34.07409017,-100.7798961,26.11111111111111,wmoUnit:degC,56,20,16093.44,wmoUnit:m,,,,,,
San Augustine,31.39427005,-94.16809762,26.11111111111111,wmoUnit:degC,87,77,16093.44,wmoUnit:m,FA,A,Flood Warning,Severe,Expected,2025-06-12T20:45:00-05:00
Maverick,28.74260943,-100.3144638,30.0,wmoUnit:degC,65,1,16093.44,wmoUnit:m,,,,,,
Erath,32.23640361,-98.21722756,25.555555555555557,wmoUnit:degC,67,61,9656.064,wmoUnit:m,FA,A,Flash Flood Warning,Severe,Immediate,2025-06-12T02:00:00-05:00
Dickens,33.61663428,-100.7788138,25.555555555555557,wmoUnit:degC,62,28,16093.44,wmoUnit:m,,,,,,
Caldwell,29.83677935,-97.61983479,31.666666666666668,wmoUnit:degC,54,24,16093.44,wmoUnit:m,FA,A,Flood Watch,Severe,Future,2025-06-12T10:15:00-05:00
Dawson,32.74258137,-101.9476136,27.22222222222222,wmoUnit:degC,47,0,16093.44,wmoUnit:m,,,,,,
Camp,32.97321771,-94.97860185,22.22222222222222,wmoUnit:degC,96,80,11136.66060278313,wmoUnit:m,FA,A,Flood Watch,Severe,Future,2025-06-12T19:00:00-05:00
Duval,27.68133382,-98.50889672,33.333333333333336,wmoUnit:degC,49,35,16093.44,wmoUnit:m,,,,,,
Hunt,33.123531,-96.08550014,24.444444444444443,wmoUnit:degC,76,71,7934.065643737756,wmoUnit:m,FA,A,Flood Watch,Severe,Future,2025-06-12T05:00:00-05:00
Mills,31.49524259,-98.59552736,25.555555555555557,wmoUnit:degC,69,63,9656.064,wmoUnit:m,FA,A,Flash Flood Warning,Severe,Immediate,2025-06-12T03:00:00-05:00
Val Verde,29.89300587,-101.15171,29.444444444444443,wmoUnit:degC,45,1,16093.44,wmoUnit:m,,,,,,
Pecos,30.78100044,-102.7235743,28.333333333333332,wmoUnit:degC,43,0,16093.44,wmoUnit:m,,,,,,
Baylor,33.61648147,-99.21351964,26.11111111111111,wmoUnit:degC,70,44,,,,,,,,
Gregg,32.48036452,-94.81723694,24.444444444444443,wmoUnit:degC,89,80,11136.66060278313,wmoUnit:m,FA,A,Flood Warning,Severe,Expected,2025-06-12T20:45:00-05:00
Cochran,33.60410808,-102.8285264,27.77777777777778,wmoUnit:degC,34,6,16093.44,wmoUnit:m,,,,,,
Jasper,30.74391255,-94.02495849,28.333333333333332,wmoUnit:degC,77,75,15578.450411132842,wmoUnit:m,,,,,,
Hamilton,31.70479181,-98.11066654,25.555555555555557,wmoUnit:degC,79,61,9656.064,wmoUnit:m,FA,A,Flash Flood Warning,Severe,Immediate,2025-06-12T03:00:00-05:00
Castro,34.53000304,-102.2617608,27.22222222222222,wmoUnit:degC,42,6,16093.44,wmoUnit:m,,,,,,
Sterling,31.82786516,-101.0500699,22.77777777777778,wmoUnit:degC,79,31,,,,,,,,
Starr,26.56212627,-98.73834895,35.55555555555556,wmoUnit:degC,45,57,,,,,,,,
Crane,31.42846287,-102.5156425,28.88888888888889,wmoUnit:degC,44,0,16093.44,wmoUnit:m,,,,,,
Morris,33.11368507,-94.73205137,22.22222222222222,wmoUnit:degC,99,78,7934.065643737756,wmoUnit:m,FA,A,Flood Warning,Severe,Expected,2025-06-12T20:45:00-05:00
Briscoe,34.53041048,-101.2085769,26.11111111111111,wmoUnit:degC,50,15,16093.44,wmoUnit:m,,,,,,
Tom Green,31.4044442,-100.4620678,24.444444444444443,wmoUnit:degC,76,37,,,,,,,,
Menard,30.88981785,-99.82061472,22.22222222222222,wmoUnit:degC,79,62,,,,,,,,
Parker,32.77852261,-97.80472194,25.0,wmoUnit:degC,79,62,9656.064,wmoUnit:m,FA,A,Flood Watch,Severe,Future,2025-06-12T05:00:00-05:00
Walker,30.73899492,-95.57224172,25.555555555555557,wmoUnit:degC,84,38,9656.064,wmoUnit:m,FA,A,Flood Watch,Severe,Future,2025-06-12T06:00:00-05:00
Brooks,27.0315669,-98.21874127,35.0,wmoUnit:degC,48,45,,,,,,,,
La Salle,28.34621032,-99.1034773,33.888888888888886,wmoUnit:degC,48,32,16093.44,wmoUnit:m,,,,,,
Edwards,29.98248216,-100.3048937,28.333333333333332,wmoUnit:degC,55,11,16093.44,wmoUnit:m,,,,,,
Lee,30.31065065,-96.96568735,28.88888888888889,wmoUnit:degC,67,25,16093.44,wmoUnit:m,FA,A,Flood Watch,Severe,Future,2025-06-12T10:15:00-05:00
Robertson,31.02705415,-96.51272568,26.11111111111111,wmoUnit:degC,77,68,9656.064,wmoUnit:m,FA,A,Flood Watch,Severe,Future,2025-06-12T05:00:00-05:00
Young,33.17670764,-98.68781396,26.666666666666668,wmoUnit:degC,67,46,16093.44,wmoUnit:m,,,,,,
Bee,28.41736675,-97.74116811,31.666666666666668,wmoUnit:degC,57,34,16077.34619165045,wmoUnit:m,,,,,,
Clay,33.78379717,-98.208958,23.333333333333332,wmoUnit:degC,90,56,,,,,,,,
San Jacinto,30.57948905,-95.16683273,25.555555555555557,wmoUnit:degC,84,44,9656.064,wmoUnit:m,,,,,,
Uvalde,29.35669829,-99.76203107,29.444444444444443,wmoUnit:degC,55,1,16093.44,wmoUnit:m,,,,,,
Haskell,33.17824805,-99.73029401,21.11111111111111,wmoUnit:degC,93,41,,,,,,,,
Somervell,32.22229511,-97.77456553,26.11111111111111,wmoUnit:degC,74,61,9656.064,wmoUnit:m,FA,A,Flood Watch,Severe,Future,2025-06-12T05:00:00-05:00
Bexar,29.44884523,-98.51966309,31.11111111111111,wmoUnit:degC,54,6,16093.44,wmoUnit:m,FA,A,Tornado Warning,Extreme,Immediate,2025-06-12T00:15:00-05:00
Grayson,33.62684371,-96.67764864,23.88888888888889,wmoUnit:degC,79,68,9656.064,wmoUnit:m,FA,A,Flood Watch,Severe,Future,2025-06-12T05:00:00-05:00
Bailey,34.0684915,-102.8299069,27.77777777777778,wmoUnit:degC,37,5,16093.44,wmoUnit:m,,,,,,
Jones,32.73970429,-99.87850599,21.666666666666668,wmoUnit:degC,90,51,,,,,,,,
Jefferson,29.88425832,-94.1708778,29.444444444444443,wmoUnit:degC,77,68,13244.900383300735,wmoUnit:m,,,,,,
Rusk,32.10803224,-94.76169577,25.0,wmoUnit:degC,92,80,16093.44,wmoUnit:m,FA,A,Flood Warning,Severe,Expected,2025-06-12T20:45:00-05:00
Glasscock,31.8694238,-101.520742,24.444444444444443,wmoUnit:degC,66,0,16093.44,wmoUnit:m,,,,,,
Gillespie,30.31800246,-98.94627245,27.77777777777778,wmoUnit:degC,63,28,16093.44,wmoUnit:m,FA,A,Flood Advisory,Minor,Expected,2025-06-12T02:30:00-05:00
Fisher,32.74305155,-100.4019503,20.555555555555557,wmoUnit:degC,97,36,,,,,,,,
Henderson,32.21188078,-95.85356847,25.0,wmoUnit:degC,71,63,9656.064,wmoUnit:m,FA,A,Flood Watch,Severe,Future,2025-06-12T05:00:00-05:00
Shackelford,32.7360276,-99.35403034,21.11111111111111,wmoUnit:degC,93,63,,,,,,,,
Palo Pinto,32.75316856,-98.31299522,25.555555555555557,wmoUnit:degC,71,60,9656.064,wmoUnit:m,,,Flash Flood Warning,Severe,Immediate,2025-06-12T02:00:00-05:00
Wilbarger,34.08044953,-99.24089568,25.0,wmoUnit:degC,73,28,,,,,,,,
Floyd,34.07239775,-101.3033037,26.11111111111111,wmoUnit:degC,50,16,16093.44,wmoUnit:m,,,,,,
Orange,30.12807126,-93.89653794,29.444444444444443,wmoUnit:degC,75,69,13309.275616699264,wmoUnit:m,,,,,,
Runnels,31.83105393,-99.97624799,23.333333333333332,wmoUnit:degC,82,40,,,,,,,,
Coleman,31.77329421,-99.45362579,22.22222222222222,wmoUnit:degC,87,65,,,,,,,,
Martin,32.30605847,-101.9512464,27.22222222222222,wmoUnit:degC,51,0,16093.44,wmoUnit:m,,,,,,
Wheeler,35.40129002,-100.2697634,26.11111111111111,wmoUnit:degC,52,0,,,,,,,,
Culberson,31.44709817,-104.5177421,28.333333333333332,wmoUnit:degC,32,0,16093.44,wmoUnit:m,,,,,,
Mitchell,32.30636024,-100.9211128,28.333333333333332,wmoUnit:degC,59,0,16093.44,wmoUnit:m,,,,,,
Hudspeth,31.45613738,-105.3869428,29.444444444444443,wmoUnit:degC,24,6,16093.44,wmoUnit:m,,,,,,
Upshur,32.7362827,-94.94132011,23.333333333333332,wmoUnit:degC,91,80,11136.66060278313,wmoUnit:m,FA,A,Flood Warning,Severe,Expected,2025-06-12T20:45:00-05:00
Liberty,30.15153187,-94.8120925,27.22222222222222,wmoUnit:degC,77,44,9656.064,wmoUnit:m,,,Flood Warning,Severe,Immediate,2025-06-12T15:30:00-05:00
Williamson,30.64834941,-97.60105467,30.0,wmoUnit:degC,68,27,16093.44,wmoUnit:m,FA,A,Flood Watch,Severe,Future,2025-06-12T10:15:00-05:00
Nacogdoches,31.61604108,-94.6158776,25.0,wmoUnit:degC,100,80,16093.44,wmoUnit:m,FA,A,Flood Warning,Severe,Expected,2025-06-12T20:45:00-05:00
Loving,31.84912973,-103.5799063,27.77777777777778,wmoUnit:degC,49,0,16093.44,wmoUnit:m,,,,,,
Jim Wells,27.73131099,-98.0898649,33.333333333333336,wmoUnit:degC,56,30,16093.44,wmoUnit:m,,,,,,
Upton,31.36853957,-102.0430005,26.11111111111111,wmoUnit:degC,56,0,16093.44,wmoUnit:m,,,,,,
Newton,30.78619977,-93.74462993,27.77777777777778,wmoUnit:degC,79,73,15900.318904174776,wmoUnit:m,,,,,,
Lamar,33.66746186,-95.57110784,23.88888888888889,wmoUnit:degC,82,78,7934.065643737756,wmoUnit:m,FA,A,Flood Watch,Severe,Future,2025-06-12T05:00:00-05:00
Polk,30.79250963,-94.82994949,25.555555555555557,wmoUnit:degC,80,61,9656.064,wmoUnit:m,,,Flood Warning,Severe,Immediate,2025-06-12T20:15:00-05:00
Collin,33.18789055,-96.57248871,24.444444444444443,wmoUnit:degC,76,66,9656.064,wmoUnit:m,FA,A,Flood Watch,Severe,Future,2025-06-12T05:00:00-05:00
Hardeman,34.28865227,-99.7453851,26.666666666666668,wmoUnit:degC,63,15,,,,,,,,
McMullen,28.35351091,-98.56842256,33.333333333333336,wmoUnit:degC,52,39,16093.44,wmoUnit:m,,,,,,
Cottle,34.0776571,-100.2786983,27.77777777777778,wmoUnit:degC,51,28,16093.44,wmoUnit:m,,,,,,
Frio,28.86726774,-99.10826004,30.0,wmoUnit:degC,59,2,16093.44,wmoUnit:m,,,,,,
Gray,35.40130666,-100.812475,25.555555555555557,wmoUnit:degC,58,0,,,,,,,,
Dallam,36.27777107,-102.6021647,27.77777777777778,wmoUnit:degC,41,0,,,,,,,,
Kenedy,26.92409448,-97.68137783,32.22222222222222,wmoUnit:degC,70,9,,,,,,,,
Fort Bend,29.52763253,-95.77090562,28.88888888888889,wmoUnit:degC,73,35,15176.114411132843,wmoUnit:m,FA,A,Flood Watch,Severe,Future,2025-06-12T06:00:00-05:00
Armstrong,34.96522076,-101.3572412,26.11111111111111,wmoUnit:degC,50,0,,,,,,,,
Collingsworth,34.96498493,-100.2700733,27.77777777777778,wmoUnit:degC,47,0,,,,,,,,
Cass,33.07750446,-94.34348771,20.555555555555557,wmoUnit:degC,97,73,11136.66060278313,wmoUnit:m,FA,A,Flood Watch,Severe,Future,2025-06-12T19:00:00-05:00
Sherman,36.27765824,-101.8933822,27.77777777777778,wmoUnit:degC,43,0,,,,,,,,
Terry,33.17373729,-102.335157,27.77777777777778,wmoUnit:degC,38,9,16093.44,wmoUnit:m,,,,,,
Limestone,31.54541898,-96.58056718,25.0,wmoUnit:degC,88,63,9656.064,wmoUnit:m,FA,A,Flood Watch,Severe,Future,2025-06-12T05:00:00-05:00
Real,29.83182711,-99.82215881,27.77777777777778,wmoUnit:degC,56,14,16093.44,wmoUnit:m,,,,,,
Lynn,33.17685487,-101.8160235,26.666666666666668,wmoUnit:degC,47,16,16093.44,wmoUnit:m,,,,,,
Lavaca,29.38437003,-96.93020993,28.88888888888889,wmoUnit:degC,72,25,16093.44,wmoUnit:m,FA,A,Flood Watch,Severe,Future,2025-06-12T10:15:00-05:00
Nolan,32.3034718,-100.4060989,21.11111111111111,wmoUnit:degC,87,32,,,,,,,,
Gaines,32.74074537,-102.6351246,27.77777777777778,wmoUnit:degC,44,0,16093.44,wmoUnit:m,,,,,,
Montgomery,30.30022409,-95.50301411,26.666666666666668,wmoUnit:degC,83,43,9656.064,wmoUnit:m,FA,A,Flood Watch,Severe,Future,2025-06-12T06:00:00-05:00
Concho,31.32645211,-99.86413426,22.77777777777778,wmoUnit:degC,81,57,,,,,,,,
Hardin,30.33238431,-94.39021394,28.333333333333332,wmoUnit:degC,80,77,15240.488109741196,wmoUnit:m,,,,,,
Harris,29.85967144,-95.39782106,27.22222222222222,wmoUnit:degC,78,46,9656.064,wmoUnit:m,FA,A,Flood Watch,Severe,Future,2025-06-12T06:00:00-05:00
Leon,31.29655719,-95.99554292,26.666666666666668,wmoUnit:degC,77,64,9656.064,wmoUnit:m,FA,A,Flood Watch,Severe,Future,2025-06-12T05:00:00-05:00
Bowie,33.44572786,-94.42324298,22.77777777777778,wmoUnit:degC,96,69,16093.44,wmoUnit:m,FA,A,Flood Warning,Severe,Immediate,2025-06-12T20:30:00-05:00
Kaufman,32.59927808,-96.28779341,25.0,wmoUnit:degC,76,61,9656.064,wmoUnit:m,FA,A,Flood Watch,Severe,Future,2025-06-12T05:00:00-05:00
Anderson,31.81321543,-95.65251774,25.0,wmoUnit:degC,82,65,9656.064,wmoUnit:m,FA,A,Flood Watch,Severe,Future,2025-06-12T05:00:00-05:00
San Saba,31.15520543,-98.81754295,21.666666666666668,wmoUnit:degC,90,74,,,,,Flash Flood Warning,Severe,Immediate,2025-06-12T02:15:00-05:00
Schleicher,30.89661056,-100.538097,22.77777777777778,wmoUnit:degC,71,45,,,,,,,,
Colorado,29.6208542,-96.52630821,28.333333333333332,wmoUnit:degC,72,30,16045.160109741197,wmoUnit:m,FA,A,Flood Watch,Severe,Future,2025-06-12T06:00:00-05:00
Milam,30.78625299,-96.97683495,27.22222222222222,wmoUnit:degC,69,69,9656.064,wmoUnit:m,FA,A,Flood Watch,Severe,Future,2025-06-12T05:00:00-05:00
Live Oak,28.3514375,-98.12474493,33.333333333333336,wmoUnit:degC,55,36,16093.44,wmoUnit:m,,,,,,
Borden,32.7436916,-101.4317533,27.22222222222222,wmoUnit:degC,49,0,16093.44,wmoUnit:m,,,,,,
McCulloch,31.19896752,-99.34754972,21.666666666666668,wmoUnit:degC,87,82,,,,,,,,
Johnson,32.37899918,-97.36660504,25.555555555555557,wmoUnit:degC,85,61,9656.064,wmoUnit:m,FA,A,Flood Watch,Severe,Future,2025-06-12T05:00:00-05:00
Montague,33.67496328,-97.72466993,24.444444444444443,wmoUnit:degC,82,64,9656.064,wmoUnit:m,,,,,,
Stonewall,33.17842158,-100.255259,25.0,wmoUnit:degC,69,39,16093.44,wmoUnit:m,,,,,,
Comal,29.80816362,-98.27814516,30.0,wmoUnit:degC,57,8,16093.44,wmoUnit:m,FA,A,Flash Flood Warning,Severe,Immediate,2025-06-12T04:00:00-05:00
Eastland,32.32739258,-98.8325713,25.0,wmoUnit:degC,67,67,9656.064,wmoUnit:m,,,Flash Flood Warning,Severe,Immediate,2025-06-12T02:00:00-05:00
Comanche,31.9490639,-98.55841538,26.11111111111111,wmoUnit:degC,69,63,9656.064,wmoUnit:m,FA,A,Flood Watch,Severe,Future,2025-06-12T05:00:00-05:00
King,33.61641863,-100.2558584,25.0,wmoUnit:degC,71,37,16093.44,wmoUnit:m,,,,,,
Washington,30.2145299,-96.40356575,27.22222222222222,wmoUnit:degC,75,25,16077.34619165045,wmoUnit:m,FA,A,Flood Watch,Severe,Future,2025-06-12T06:00:00-05:00
Webb,27.76102524,-99.33170164,33.888888888888886,wmoUnit:degC,44,31,16093.44,wmoUnit:m,,,,,,
Fayette,29.87683207,-96.91968047,27.77777777777778,wmoUnit:degC,77,25,16093.44,wmoUnit:m,FA,A,Flood Watch,Severe,Future,2025-06-12T10:15:00-05:00
Harrison,32.54814898,-94.37155736,22.77777777777778,wmoUnit:degC,94,77,16093.44,wmoUnit:m,FA,A,Special Weather Statement,Moderate,Expected,2025-06-12T00:15:00-05:00
Presidio,29.99977786,-104.2405552,30.555555555555557,wmoUnit:degC,19,0,16093.44,wmoUnit:m,,,,,,
Austin,29.88711223,-96.27791829,28.333333333333332,wmoUnit:degC,73,27,15819.85139721687,wmoUnit:m,FA,A,Flood Watch,Severe,Future,2025-06-12T06:00:00-05:00
Randall,34.96594288,-101.8968527,27.22222222222222,wmoUnit:degC,53,0,,,,,,,,
Hood,32.43107878,-97.83280338,25.555555555555557,wmoUnit:degC,71,61,9656.064,wmoUnit:m,FA,A,Flood Watch,Severe,Future,2025-06-12T05:00:00-05:00
Victoria,28.79640594,-96.97176602,30.555555555555557,wmoUnit:degC,67,30,16029.066301391646,wmoUnit:m,,,,,,
Hutchinson,35.84000866,-101.3547257,27.77777777777778,wmoUnit:degC,46,0,,,,,,,,
Coryell,31.39087578,-97.7991883,26.666666666666668,wmoUnit:degC,88,66,9656.064,wmoUnit:m,FA,A,Flash Flood Warning,Severe,Immediate,2025-06-12T03:00:00-05:00
Jackson,28.95603133,-96.57883268,30.0,wmoUnit:degC,72,25,15691.104,wmoUnit:m,FA,A,Flood Watch,Severe,Future,2025-06-12T06:00:00-05:00
Taylor,32.30138229,-99.89003941,20.555555555555557,wmoUnit:degC,93,40,,,,,,,,
Zapata,27.00089072,-99.16860134,35.55555555555556,wmoUnit:degC,43,39,,,,,,,,
San Patricio,28.00922186,-97.51859857,31.666666666666668,wmoUnit:degC,67,20,15819.85139721687,wmoUnit:m,,,,,,
Grimes,30.54360689,-95.98557334,27.77777777777778,wmoUnit:degC,79,39,9656.064,wmoUnit:m,FA,A,Flood Watch,Severe,Future,2025-06-12T06:00:00-05:00
Lamb,34.06861242,-102.3517095,27.22222222222222,wmoUnit:degC,44,6,16093.44,wmoUnit:m,,,,,,
