countyName,latitude,longitude,temperature,temperature_unit,relativeHumidity,precipitationProbability,visibility,visibility_unit,hazard_phenomenon,hazard_significance,alert_event,alert_severity,alert_urgency,alert_expires
Foard,33.97408519,-99.77871109,18.88888888888889,wmoUnit:degC,75,0,,,,,Tornado Watch,Extreme,Future,2025-05-17T22:00:00-05:00
Blanco,30.26636128,-98.39974086,25.555555555555557,wmoUnit:degC,86,0,12810.378301391645,wmoUnit:m,,,,,,
Hockley,33.60750375,-102.3430919,19.444444444444443,wmoUnit:degC,25,1,16093.44,wmoUnit:m,,,,,,
Llano,30.70566579,-98.68387398,25.555555555555557,wmoUnit:degC,91,0,16093.44,wmoUnit:m,SV,A,Severe Thunderstorm Watch,Severe,Future,2025-05-17T22:00:00-05:00
Swisher,34.53064989,-101.734951,17.77777777777778,wmoUnit:degC,56,0,16093.44,wmoUnit:m,,,,,,
Titus,33.2160906,-94.96509786,23.88888888888889,wmoUnit:degC,97,5,11265.408,wmoUnit:m,,,,,,
Navarro,32.04695429,-96.47248134,24.444444444444443,wmoUnit:degC,94,4,12536.789698608354,wmoUnit:m,SV,A,Severe Thunderstorm Watch,Severe,Future,2025-05-17T22:00:00-05:00
Brazoria,29.19345387,-95.45578479,26.11111111111111,wmoUnit:degC,97,1,12053.986191650449,wmoUnit:m,,,Rip Current Statement,Moderate,Expected,2025-05-17T17:30:00-05:00
Hidalgo,26.396627,-98.18088681,27.22222222222222,wmoUnit:degC,85,0,,,,,,,,
Archer,33.61539176,-98.68783437,20.555555555555557,wmoUnit:degC,93,2,,,,,Tornado Watch,Extreme,Future,2025-05-17T22:00:00-05:00
Refugio,28.32681413,-97.16546961,27.22222222222222,wmoUnit:degC,88,0,9688.250849304177,wmoUnit:m,,,,,,
Andrews,32.30506283,-102.6378839,22.77777777777778,wmoUnit:degC,24,5,16093.44,wmoUnit:m,,,,,,
Galveston,29.39424415,-94.96474975,26.666666666666668,wmoUnit:degC,82,1,10122.773698608355,wmoUnit:m,,,Rip Current Statement,Moderate,Expected,2025-05-17T17:30:00-05:00
De Witt,29.08201599,-97.35666976,26.11111111111111,wmoUnit:degC,83,0,6276.441753478953,wmoUnit:m,,,Special Weather Statement,Moderate,Expected,2025-05-17T18:00:00-05:00
Gonzales,29.45641495,-97.49279927,26.11111111111111,wmoUnit:degC,87,0,7934.065643737756,wmoUnit:m,,,Special Weather Statement,Moderate,Expected,2025-05-17T18:00:00-05:00
Wharton,29.2778362,-96.22197375,25.555555555555557,wmoUnit:degC,97,1,11699.930849304177,wmoUnit:m,,,,,,
Fannin,33.59396919,-96.10656755,21.11111111111111,wmoUnit:degC,97,2,11265.408,wmoUnit:m,SV,A,Severe Thunderstorm Watch,Severe,Future,2025-05-17T22:00:00-05:00
Madison,30.96564645,-95.92818441,25.555555555555557,wmoUnit:degC,91,4,13502.396712524489,wmoUnit:m,,,,,,
Moore,35.83768863,-101.8929556,15.0,wmoUnit:degC,44,0,,,,,,,,
Tyler,30.7712607,-94.37651432,23.88888888888889,wmoUnit:degC,97,5,7885.785753478953,wmoUnit:m,,,Flood Warning,Severe,Immediate,2025-05-18T10:45:00-05:00
Lipscomb,36.27778432,-100.27317,13.333333333333334,wmoUnit:degC,64,0,,,,,,,,
Burleson,30.49246139,-96.62109399,26.11111111111111,wmoUnit:degC,88,6,12214.921205566421,wmoUnit:m,,,,,,
Jim Hogg,27.04340499,-98.6972921,26.666666666666668,wmoUnit:degC,85,1,,,,,,,,
Throckmorton,33.17753907,-99.21236832,21.11111111111111,wmoUnit:degC,81,5,16093.44,wmoUnit:m,,,,,,
Kleberg,27.43274395,-97.72889778,26.666666666666668,wmoUnit:degC,91,0,11313.688657653729,wmoUnit:m,,,,,,
Shelby,31.79242191,-94.14495261,23.88888888888889,wmoUnit:degC,90,10,14548.469698608355,wmoUnit:m,,,,,,
Garza,33.17991074,-101.2984496,22.77777777777778,wmoUnit:degC,61,7,16093.44,wmoUnit:m,,,,,,
Karnes,28.90493782,-97.85960621,26.666666666666668,wmoUnit:degC,79,0,11265.408,wmoUnit:m,,,Special Weather Statement,Moderate,Expected,2025-05-17T18:00:00-05:00
Reeves,31.32307061,-103.693143,22.22222222222222,wmoUnit:degC,17,5,16093.44,wmoUnit:m,FW,W,Red Flag Warning,Severe,Expected,2025-05-18T04:00:00-05:00
Houston,31.31764137,-95.42225367,25.555555555555557,wmoUnit:degC,97,5,13164.434411132843,wmoUnit:m,,,Flood Warning,Severe,Immediate,2025-05-18T10:45:00-05:00
El Paso,31.7686226,-106.2352229,20.0,wmoUnit:degC,12,0,16061.252383300736,wmoUnit:m,FW,W,Red Flag Warning,Severe,Expected,2025-05-17T20:00:00-06:00
Carson,35.40346802,-101.3542037,15.555555555555555,wmoUnit:degC,58,0,,,,,,,,
Medina,29.35520493,-99.11008331,26.11111111111111,wmoUnit:degC,84,0,12794.284493041932,wmoUnit:m,,,Special Weather Statement,Moderate,Expected,2025-05-17T18:00:00-05:00
Wichita,33.98421585,-98.70153389,18.88888888888889,wmoUnit:degC,93,2,,,,,Tornado Watch,Extreme,Future,2025-05-17T22:00:00-05:00
Chambers,29.73912276,-94.60891308,27.77777777777778,wmoUnit:degC,88,2,12198.82739721687,wmoUnit:m,,,Flood Warning,Severe,Immediate,2025-05-18T03:30:00-05:00
Donley,34.96540246,-100.8140501,16.11111111111111,wmoUnit:degC,65,0,,,,,,,,
Hopkins,33.14933822,-95.56414173,24.444444444444443,wmoUnit:degC,94,2,11265.408,wmoUnit:m,SV,A,Severe Thunderstorm Watch,Severe,Future,2025-05-17T22:00:00-05:00
Lampasas,31.19627791,-98.24142711,23.333333333333332,wmoUnit:degC,100,12,11329.781698608354,wmoUnit:m,SV,A,Severe Thunderstorm Watch,Severe,Future,2025-05-17T22:00:00-05:00
Falls,31.25317017,-96.93579511,24.444444444444443,wmoUnit:degC,100,5,12472.416,wmoUnit:m,,,,,,
Stephens,32.73584155,-98.83612016,22.22222222222222,wmoUnit:degC,84,4,15675.010191650448,wmoUnit:m,SV,A,Severe Thunderstorm Watch,Severe,Future,2025-05-17T22:00:00-05:00
Travis,30.33423319,-97.78194654,26.666666666666668,wmoUnit:degC,84,0,11265.408,wmoUnit:m,,,Special Weather Statement,Moderate,Expected,2025-05-17T18:00:00-05:00
Roberts,35.8385577,-100.8135689,17.77777777777778,wmoUnit:degC,52,0,,,,,,,,
Crosby,33.61459873,-101.2998612,22.77777777777778,wmoUnit:degC,53,3,16093.44,wmoUnit:m,,,,,,
Kerr,30.06153035,-99.35016969,24.444444444444443,wmoUnit:degC,84,0,16093.44,wmoUnit:m,SV,A,Severe Thunderstorm Watch,Severe,Future,2025-05-17T22:00:00-05:00
Wood,32.78634374,-95.38206498,25.0,wmoUnit:degC,94,4,11265.408,wmoUnit:m,,,Flood Warning,Severe,Immediate,2025-05-18T10:30:00-05:00
Jack,33.23345819,-98.1725509,18.333333333333332,wmoUnit:degC,100,2,16061.252383300736,wmoUnit:m,SV,A,Severe Thunderstorm Watch,Severe,Future,2025-05-17T22:00:00-05:00
Marion,32.79797929,-94.35725239,25.0,wmoUnit:degC,100,6,11265.408,wmoUnit:m,,,,,,
Hale,34.07051782,-101.8269082,18.88888888888889,wmoUnit:degC,52,0,16093.44,wmoUnit:m,,,,,,
Jeff Davis,30.71559322,-104.1403539,18.88888888888889,wmoUnit:degC,37,7,16093.44,wmoUnit:m,FW,W,Red Flag Warning,Severe,Expected,2025-05-18T04:00:00-05:00
Tarrant,32.77185236,-97.29116473,23.333333333333332,wmoUnit:degC,93,2,12231.014246521047,wmoUnit:m,SV,A,Severe Thunderstorm Watch,Severe,Future,2025-05-17T22:00:00-05:00
Waller,30.01093722,-95.98768942,26.11111111111111,wmoUnit:degC,91,4,10203.24120556642,wmoUnit:m,,,,,,
Reagan,31.36617698,-101.5230108,21.666666666666668,wmoUnit:degC,52,2,16093.44,wmoUnit:m,,,,,,
Smith,32.37514553,-95.26909511,26.11111111111111,wmoUnit:degC,88,5,16093.44,wmoUnit:m,,,Flood Warning,Severe,Immediate,2025-05-18T10:45:00-05:00
Van Zandt,32.56368961,-95.8364862,24.444444444444443,wmoUnit:degC,94,3,11265.408,wmoUnit:m,SV,A,Severe Thunderstorm Watch,Severe,Future,2025-05-17T22:00:00-05:00
Cooke,33.638465,-97.21247642,18.88888888888889,wmoUnit:degC,100,2,15626.730301391646,wmoUnit:m,SV,A,Severe Thunderstorm Watch,Severe,Future,2025-05-17T22:00:00-05:00
Zavala,28.86530621,-99.76102001,26.11111111111111,wmoUnit:degC,95,0,16093.44,wmoUnit:m,,,Special Weather Statement,Moderate,Expected,2025-05-17T18:00:00-05:00
Hall,34.53074134,-100.6809876,21.11111111111111,wmoUnit:degC,63,0,16093.44,wmoUnit:m,,,,,,
Kendall,29.9446397,-98.71160511,24.444444444444443,wmoUnit:degC,90,0,12794.284493041932,wmoUnit:m,,,,,,
Goliad,28.65708563,-97.42646082,26.666666666666668,wmoUnit:degC,88,0,11506.809753478952,wmoUnit:m,,,,,,
Yoakum,33.17293501,-102.8278792,21.11111111111111,wmoUnit:degC,21,1,16093.44,wmoUnit:m,,,,,,
Knox,33.60614755,-99.74144313,19.444444444444443,wmoUnit:degC,81,0,,,,,Tornado Watch,Extreme,Future,2025-05-17T22:00:00-05:00
McLennan,31.55234489,-97.20184883,24.444444444444443,wmoUnit:degC,97,5,13486.302904174776,wmoUnit:m,SV,A,Severe Thunderstorm Watch,Severe,Future,2025-05-17T22:00:00-05:00
Brewster,29.81205836,-103.2518906,21.666666666666668,wmoUnit:degC,16,3,16093.44,wmoUnit:m,,,Red Flag Warning,Severe,Expected,2025-05-18T04:00:00-05:00
Panola,32.16222886,-94.30552858,26.11111111111111,wmoUnit:degC,88,9,16093.44,wmoUnit:m,,,,,,
Bandera,29.74724753,-99.24637282,24.444444444444443,wmoUnit:degC,89,0,14468.002191650448,wmoUnit:m,SV,A,Severe Thunderstorm Watch,Severe,Future,2025-05-17T22:00:00-05:00
Parmer,34.53014507,-102.784594,15.555555555555555,wmoUnit:degC,46,0,16093.44,wmoUnit:m,,,,,,
Rockwall,32.89786769,-96.40780584,23.88888888888889,wmoUnit:degC,94,2,11265.408,wmoUnit:m,SV,A,Severe Thunderstorm Watch,Severe,Future,2025-05-17T22:00:00-05:00
Trinity,31.0885069,-95.13551682,25.555555555555557,wmoUnit:degC,94,6,13969.106411132843,wmoUnit:m,,,Flood Warning,Severe,Immediate,2025-05-18T10:45:00-05:00
Bosque,31.90050476,-97.63437613,22.77777777777778,wmoUnit:degC,100,5,11699.930849304177,wmoUnit:m,SV,A,Severe Thunderstorm Watch,Severe,Future,2025-05-17T22:00:00-05:00
Coke,31.88849293,-100.5298747,19.444444444444443,wmoUnit:degC,63,2,16093.44,wmoUnit:m,,,,,,
Franklin,33.17550691,-95.21841437,25.0,wmoUnit:degC,90,4,11265.408,wmoUnit:m,,,,,,
Hill,31.99079033,-97.1324142,23.88888888888889,wmoUnit:degC,100,3,11876.958904174775,wmoUnit:m,SV,A,Severe Thunderstorm Watch,Severe,Future,2025-05-17T22:00:00-05:00
Calhoun,28.48966896,-96.64708119,27.22222222222222,wmoUnit:degC,94,0,12311.481753478953,wmoUnit:m,,,,,,
Irion,31.30393203,-100.9824126,21.666666666666668,wmoUnit:degC,61,3,16093.44,wmoUnit:m,,,,,,
Midland,31.86921148,-102.0315032,21.666666666666668,wmoUnit:degC,49,2,16093.44,wmoUnit:m,,,,,,
Brown,31.77432313,-98.99989649,22.22222222222222,wmoUnit:degC,90,4,16093.44,wmoUnit:m,SV,A,Severe Thunderstorm Warning,Severe,Immediate,2025-05-17T15:45:00-05:00
Wilson,29.17315896,-98.08621015,26.11111111111111,wmoUnit:degC,80,0,11265.408,wmoUnit:m,,,Special Weather Statement,Moderate,Expected,2025-05-17T18:00:00-05:00
Oldham,35.40497586,-102.6029949,10.555555555555555,wmoUnit:degC,74,0,,,,,,,,
Freestone,31.70486443,-96.14918535,25.555555555555557,wmoUnit:degC,91,8,12150.547506958066,wmoUnit:m,,,,,,
Sabine,31.34321941,-93.85170439,27.22222222222222,wmoUnit:degC,85,8,11265.408,wmoUnit:m,,,,,,
Deaf Smith,34.96602014,-102.6048162,12.222222222222221,wmoUnit:degC,55,0,,,,,,,,
Angelina,31.25475875,-94.611742,25.555555555555557,wmoUnit:degC,94,6,16093.44,wmoUnit:m,,,Flood Warning,Severe,Immediate,2025-05-18T10:45:00-05:00
Kent,33.18284492,-100.7791031,21.666666666666668,wmoUnit:degC,61,6,16093.44,wmoUnit:m,,,,,,
Red River,33.62074539,-95.0501886,23.333333333333332,wmoUnit:degC,97,3,11265.408,wmoUnit:m,,,,,,
Kinney,29.35000302,-100.4178441,25.0,wmoUnit:degC,87,0,16093.44,wmoUnit:m,SV,A,Severe Thunderstorm Watch,Severe,Future,2025-05-17T22:00:00-05:00
Denton,33.205574,-97.11681154,21.11111111111111,wmoUnit:degC,100,2,13502.396712524489,wmoUnit:m,SV,A,Severe Thunderstorm Watch,Severe,Future,2025-05-17T22:00:00-05:00
Sutton,30.49747152,-100.5382263,22.77777777777778,wmoUnit:degC,84,5,16093.44,wmoUnit:m,SV,A,Severe Thunderstorm Watch,Severe,Future,2025-05-17T22:00:00-05:00
Guadalupe,29.58257236,-97.94850308,26.11111111111111,wmoUnit:degC,87,0,11265.408,wmoUnit:m,,,Special Weather Statement,Moderate,Expected,2025-05-17T18:00:00-05:00
Winkler,31.85008609,-103.0484794,25.555555555555557,wmoUnit:degC,22,5,16093.44,wmoUnit:m,,,,,,
Dimmit,28.42161168,-99.760574,27.22222222222222,wmoUnit:degC,83,0,16093.44,wmoUnit:m,,,Special Weather Statement,Moderate,Expected,2025-05-17T18:00:00-05:00
Wise,33.21585061,-97.65444124,20.0,wmoUnit:degC,100,2,15658.916383300735,wmoUnit:m,SV,A,Severe Thunderstorm Watch,Severe,Future,2025-05-17T22:00:00-05:00
Hemphill,35.83750155,-100.2704628,14.444444444444445,wmoUnit:degC,67,0,,,,,,,,
Potter,35.40128927,-101.8940484,15.0,wmoUnit:degC,57,0,,,,,,,,
Childress,34.52929257,-100.2075664,21.666666666666668,wmoUnit:degC,63,0,16093.44,wmoUnit:m,,,,,,
Willacy,26.47132899,-97.64303323,26.666666666666668,wmoUnit:degC,89,0,,,,,,,,
Bastrop,30.10353518,-97.31187705,26.11111111111111,wmoUnit:degC,87,0,11265.408,wmoUnit:m,,,Special Weather Statement,Moderate,Expected,2025-05-17T18:00:00-05:00
Kimble,30.48676251,-99.74892716,23.88888888888889,wmoUnit:degC,79,6,16093.44,wmoUnit:m,SV,A,Severe Thunderstorm Watch,Severe,Future,2025-05-17T22:00:00-05:00
Scurry,32.74720063,-100.9165071,20.555555555555557,wmoUnit:degC,59,4,16093.44,wmoUnit:m,,,,,,
Ochiltree,36.27846334,-100.815653,12.222222222222221,wmoUnit:degC,71,0,,,,,,,,
Hansford,36.27753179,-101.3545624,12.777777777777779,wmoUnit:degC,61,0,,,,,,,,
Hartley,35.83996755,-102.6028835,13.333333333333334,wmoUnit:degC,40,0,,,,,,,,
Cameron,26.13847728,-97.51499968,27.22222222222222,wmoUnit:degC,87,0,,,,,,,,
Matagorda,28.86711039,-95.98533866,26.666666666666668,wmoUnit:degC,94,1,10814.79134234627,wmoUnit:m,,,Rip Current Statement,Moderate,Expected,2025-05-17T17:30:00-05:00
Burnet,30.78843382,-98.18252382,23.88888888888889,wmoUnit:degC,98,0,16093.44,wmoUnit:m,SV,A,Severe Thunderstorm Watch,Severe,Future,2025-05-17T22:00:00-05:00
Rains,32.87004212,-95.79347545,24.444444444444443,wmoUnit:degC,94,2,11265.408,wmoUnit:m,SV,A,Severe Thunderstorm Watch,Severe,Future,2025-05-17T22:00:00-05:00
Hays,30.05782657,-98.03104087,25.555555555555557,wmoUnit:degC,88,0,11265.408,wmoUnit:m,,,Special Weather Statement,Moderate,Expected,2025-05-17T18:00:00-05:00
Mason,30.71742293,-99.2263026,24.444444444444443,wmoUnit:degC,87,5,16093.44,wmoUnit:m,SV,A,Severe Thunderstorm Warning,Severe,Immediate,2025-05-17T15:15:00-05:00
Ward,31.509424,-103.1024636,25.555555555555557,wmoUnit:degC,23,5,16093.44,wmoUnit:m,,,,,,
Delta,33.38623601,-95.67221685,24.444444444444443,wmoUnit:degC,87,2,11265.408,wmoUnit:m,SV,A,Severe Thunderstorm Watch,Severe,Future,2025-05-17T22:00:00-05:00
Nueces,27.72621549,-97.61767326,26.666666666666668,wmoUnit:degC,91,0,12617.25720556642,wmoUnit:m,,,,,,
Callahan,32.2977738,-99.37359692,21.666666666666668,wmoUnit:degC,84,3,16093.44,wmoUnit:m,,,,,,
Bell,31.03778267,-97.47790776,25.0,wmoUnit:degC,97,8,12665.537095825224,wmoUnit:m,,,,,,
Cherokee,31.83695632,-95.16515234,24.444444444444443,wmoUnit:degC,100,6,11265.408,wmoUnit:m,,,Flood Warning,Severe,Immediate,2025-05-18T10:45:00-05:00
Ellis,32.34839264,-96.79467417,22.77777777777778,wmoUnit:degC,100,3,11265.408,wmoUnit:m,SV,A,Severe Thunderstorm Watch,Severe,Future,2025-05-17T22:00:00-05:00
Lubbock,33.6101944,-101.8205745,22.22222222222222,wmoUnit:degC,41,1,16093.44,wmoUnit:m,,,,,,
Terrell,30.22502597,-102.0764533,22.77777777777778,wmoUnit:degC,30,5,16093.44,wmoUnit:m,,,,,,
Crockett,30.72291931,-101.4118364,20.555555555555557,wmoUnit:degC,61,5,16093.44,wmoUnit:m,,,,,,
Atascosa,28.89418432,-98.52741302,25.0,wmoUnit:degC,86,0,12794.284493041932,wmoUnit:m,,,Special Weather Statement,Moderate,Expected,2025-05-17T18:00:00-05:00
Ector,31.86908156,-102.5430907,24.444444444444443,wmoUnit:degC,23,3,16093.44,wmoUnit:m,,,,,,
Brazos,30.6610425,-96.3022943,26.11111111111111,wmoUnit:degC,88,6,14564.563506958068,wmoUnit:m,,,,,,
Aransas,28.12709562,-96.99258951,26.11111111111111,wmoUnit:degC,94,0,8304.21479443358,wmoUnit:m,,,,,,
Dallas,32.76653746,-96.77781862,23.333333333333332,wmoUnit:degC,97,2,11265.408,wmoUnit:m,SV,A,Severe Thunderstorm Watch,Severe,Future,2025-05-17T22:00:00-05:00
Howard,32.30610232,-101.4355097,22.22222222222222,wmoUnit:degC,53,2,16093.44,wmoUnit:m,,,,,,
Motley,34.07409017,-100.7798961,21.666666666666668,wmoUnit:degC,63,1,16093.44,wmoUnit:m,,,,,,
San Augustine,31.39427005,-94.16809762,25.555555555555557,wmoUnit:degC,91,7,11265.408,wmoUnit:m,,,,,,
Maverick,28.74260943,-100.3144638,26.666666666666668,wmoUnit:degC,93,0,16093.44,wmoUnit:m,SV,A,Severe Thunderstorm Watch,Severe,Future,2025-05-17T22:00:00-05:00
Erath,32.23640361,-98.21722756,22.22222222222222,wmoUnit:degC,93,6,12713.817753478954,wmoUnit:m,SV,A,Severe Thunderstorm Watch,Severe,Future,2025-05-17T22:00:00-05:00
Dickens,33.61663428,-100.7788138,20.555555555555557,wmoUnit:degC,63,3,16093.44,wmoUnit:m,,,,,,
Caldwell,29.83677935,-97.61983479,26.666666666666668,wmoUnit:degC,90,0,11265.408,wmoUnit:m,,,Special Weather Statement,Moderate,Expected,2025-05-17T18:00:00-05:00
Dawson,32.74258137,-101.9476136,19.444444444444443,wmoUnit:degC,44,5,16093.44,wmoUnit:m,,,,,,
Camp,32.97321771,-94.97860185,24.444444444444443,wmoUnit:degC,94,5,11265.408,wmoUnit:m,,,,,,
Duval,27.68133382,-98.50889672,25.555555555555557,wmoUnit:degC,91,0,11941.33260278313,wmoUnit:m,,,,,,
Hunt,33.123531,-96.08550014,23.88888888888889,wmoUnit:degC,90,2,11265.408,wmoUnit:m,SV,A,Severe Thunderstorm Watch,Severe,Future,2025-05-17T22:00:00-05:00
Mills,31.49524259,-98.59552736,23.333333333333332,wmoUnit:degC,97,13,11265.408,wmoUnit:m,SV,A,Severe Thunderstorm Warning,Severe,Immediate,2025-05-17T15:45:00-05:00
Val Verde,29.89300587,-101.15171,25.0,wmoUnit:degC,53,0,16093.44,wmoUnit:m,SV,A,Severe Thunderstorm Watch,Severe,Future,2025-05-17T22:00:00-05:00
Pecos,30.78100044,-102.7235743,24.444444444444443,wmoUnit:degC,22,3,16093.44,wmoUnit:m,,,,,,
Baylor,33.61648147,-99.21351964,20.0,wmoUnit:degC,90,2,,,,,Tornado Watch,Extreme,Future,2025-05-17T22:00:00-05:00
Gregg,32.48036452,-94.81723694,26.11111111111111,wmoUnit:degC,88,6,14532.375890258803,wmoUnit:m,,,Flood Warning,Severe,Immediate,2025-05-18T10:45:00-05:00
Cochran,33.60410808,-102.8285264,21.11111111111111,wmoUnit:degC,21,1,16093.44,wmoUnit:m,,,,,,
Jasper,30.74391255,-94.02495849,24.444444444444443,wmoUnit:degC,97,4,6356.908876739477,wmoUnit:m,,,,,,
Hamilton,31.70479181,-98.11066654,22.22222222222222,wmoUnit:degC,100,10,11265.408,wmoUnit:m,SV,A,Severe Thunderstorm Warning,Severe,Immediate,2025-05-17T15:45:00-05:00
Castro,34.53000304,-102.2617608,15.0,wmoUnit:degC,51,0,16093.44,wmoUnit:m,,,,,,
Sterling,31.82786516,-101.0500699,18.88888888888889,wmoUnit:degC,63,2,16093.44,wmoUnit:m,,,,,,
Starr,26.56212627,-98.73834895,26.666666666666668,wmoUnit:degC,87,1,,,,,,,,
Crane,31.42846287,-102.5156425,23.333333333333332,wmoUnit:degC,32,2,16093.44,wmoUnit:m,,,,,,
Morris,33.11368507,-94.73205137,24.444444444444443,wmoUnit:degC,94,5,11265.408,wmoUnit:m,,,,,,
Briscoe,34.53041048,-101.2085769,19.444444444444443,wmoUnit:degC,65,0,16093.44,wmoUnit:m,,,,,,
Tom Green,31.4044442,-100.4620678,20.0,wmoUnit:degC,73,3,16093.44,wmoUnit:m,,,,,,
Menard,30.88981785,-99.82061472,23.88888888888889,wmoUnit:degC,76,5,16093.44,wmoUnit:m,SV,A,Severe Thunderstorm Watch,Severe,Future,2025-05-17T22:00:00-05:00
Parker,32.77852261,-97.80472194,20.555555555555557,wmoUnit:degC,100,3,14918.619616699263,wmoUnit:m,SV,A,Severe Thunderstorm Watch,Severe,Future,2025-05-17T22:00:00-05:00
Walker,30.73899492,-95.57224172,25.555555555555557,wmoUnit:degC,91,5,14290.974904174776,wmoUnit:m,,,Flood Warning,Severe,Immediate,2025-05-18T03:30:00-05:00
Brooks,27.0315669,-98.21874127,27.22222222222222,wmoUnit:degC,86,0,,,,,,,,
La Salle,28.34621032,-99.1034773,26.11111111111111,wmoUnit:degC,85,0,13727.703890258803,wmoUnit:m,,,,,,
Edwards,29.98248216,-100.3048937,23.88888888888889,wmoUnit:degC,87,0,16093.44,wmoUnit:m,SV,A,Severe Thunderstorm Watch,Severe,Future,2025-05-17T22:00:00-05:00
Lee,30.31065065,-96.96568735,26.11111111111111,wmoUnit:degC,88,0,11265.408,wmoUnit:m,,,Special Weather Statement,Moderate,Expected,2025-05-17T18:00:00-05:00
Robertson,31.02705415,-96.51272568,24.444444444444443,wmoUnit:degC,100,7,11265.408,wmoUnit:m,,,,,,
Young,33.17670764,-98.68781396,20.0,wmoUnit:degC,97,2,16077.34619165045,wmoUnit:m,SV,A,Severe Thunderstorm Watch,Severe,Future,2025-05-17T22:00:00-05:00
Bee,28.41736675,-97.74116811,26.666666666666668,wmoUnit:degC,88,0,12263.201095825225,wmoUnit:m,,,,,,
Clay,33.78379717,-98.208958,20.555555555555557,wmoUnit:degC,93,2,,,,,Tornado Watch,Extreme,Future,2025-05-17T22:00:00-05:00
San Jacinto,30.57948905,-95.16683273,25.0,wmoUnit:degC,94,6,13872.545095825224,wmoUnit:m,,,Flood Warning,Severe,Immediate,2025-05-18T03:30:00-05:00
Uvalde,29.35669829,-99.76203107,25.555555555555557,wmoUnit:degC,91,0,16093.44,wmoUnit:m,SV,A,Severe Thunderstorm Watch,Severe,Future,2025-05-17T22:00:00-05:00
Haskell,33.17824805,-99.73029401,21.666666666666668,wmoUnit:degC,73,5,16093.44,wmoUnit:m,,,,,,
Somervell,32.22229511,-97.77456553,22.22222222222222,wmoUnit:degC,100,5,12424.135342346271,wmoUnit:m,SV,A,Severe Thunderstorm Watch,Severe,Future,2025-05-17T22:00:00-05:00
Bexar,29.44884523,-98.51966309,26.11111111111111,wmoUnit:degC,83,0,11265.408,wmoUnit:m,,,Special Weather Statement,Moderate,Expected,2025-05-17T18:00:00-05:00
Grayson,33.62684371,-96.67764864,20.555555555555557,wmoUnit:degC,97,2,14146.133698608355,wmoUnit:m,SV,A,Severe Thunderstorm Watch,Severe,Future,2025-05-17T22:00:00-05:00
Bailey,34.0684915,-102.8299069,17.77777777777778,wmoUnit:degC,35,1,16093.44,wmoUnit:m,,,,,,
Jones,32.73970429,-99.87850599,21.666666666666668,wmoUnit:degC,73,6,16093.44,wmoUnit:m,,,,,,
Jefferson,29.88425832,-94.1708778,25.555555555555557,wmoUnit:degC,91,2,7885.785753478953,wmoUnit:m,,,,,,
Rusk,32.10803224,-94.76169577,25.555555555555557,wmoUnit:degC,91,7,16093.44,wmoUnit:m,,,,,,
Glasscock,31.8694238,-101.520742,20.0,wmoUnit:degC,64,2,16093.44,wmoUnit:m,,,,,,
Gillespie,30.31800246,-98.94627245,25.0,wmoUnit:degC,86,0,16093.44,wmoUnit:m,SV,A,Severe Thunderstorm Watch,Severe,Future,2025-05-17T22:00:00-05:00
Fisher,32.74305155,-100.4019503,21.11111111111111,wmoUnit:degC,63,7,16093.44,wmoUnit:m,,,,,,
Henderson,32.21188078,-95.85356847,24.444444444444443,wmoUnit:degC,94,5,11748.211506958067,wmoUnit:m,SV,A,Severe Thunderstorm Watch,Severe,Future,2025-05-17T22:00:00-05:00
Shackelford,32.7360276,-99.35403034,21.11111111111111,wmoUnit:degC,84,3,16093.44,wmoUnit:m,,,,,,
Palo Pinto,32.75316856,-98.31299522,21.666666666666668,wmoUnit:degC,90,3,15642.824109741197,wmoUnit:m,SV,A,Severe Thunderstorm Watch,Severe,Future,2025-05-17T22:00:00-05:00
Wilbarger,34.08044953,-99.24089568,18.333333333333332,wmoUnit:degC,84,2,,,,,Tornado Watch,Extreme,Future,2025-05-17T22:00:00-05:00
Floyd,34.07239775,-101.3033037,22.22222222222222,wmoUnit:degC,53,0,16093.44,wmoUnit:m,,,,,,
Orange,30.12807126,-93.89653794,25.555555555555557,wmoUnit:degC,91,1,7885.785753478953,wmoUnit:m,,,Flood Warning,Severe,Immediate,2025-05-18T10:15:00-05:00
Runnels,31.83105393,-99.97624799,20.555555555555557,wmoUnit:degC,81,2,16093.44,wmoUnit:m,,,,,,
Coleman,31.77329421,-99.45362579,21.666666666666668,wmoUnit:degC,79,2,16093.44,wmoUnit:m,,,Severe Thunderstorm Warning,Severe,Immediate,2025-05-17T15:45:00-05:00
Martin,32.30605847,-101.9512464,21.11111111111111,wmoUnit:degC,54,3,16093.44,wmoUnit:m,,,,,,
Wheeler,35.40129002,-100.2697634,16.11111111111111,wmoUnit:degC,58,0,,,,,,,,
Culberson,31.44709817,-104.5177421,19.444444444444443,wmoUnit:degC,11,1,16093.44,wmoUnit:m,FW,W,High Wind Watch,Severe,Past,2025-05-17T13:59:10-06:00
Mitchell,32.30636024,-100.9211128,21.11111111111111,wmoUnit:degC,63,3,16093.44,wmoUnit:m,,,,,,
Hudspeth,31.45613738,-105.3869428,18.88888888888889,wmoUnit:degC,17,0,16077.34619165045,wmoUnit:m,FW,W,Red Flag Warning,Severe,Expected,2025-05-17T20:00:00-06:00
Upshur,32.7362827,-94.94132011,25.0,wmoUnit:degC,94,4,11265.408,wmoUnit:m,,,Flood Warning,Severe,Immediate,2025-05-18T10:45:00-05:00
Liberty,30.15153187,-94.8120925,25.555555555555557,wmoUnit:degC,97,3,12021.79934234627,wmoUnit:m,,,Flood Warning,Severe,Immediate,2025-05-18T03:30:00-05:00
Williamson,30.64834941,-97.60105467,26.11111111111111,wmoUnit:degC,90,0,7934.065643737756,wmoUnit:m,,,Special Weather Statement,Moderate,Expected,2025-05-17T18:00:00-05:00
Nacogdoches,31.61604108,-94.6158776,25.0,wmoUnit:degC,97,7,16093.44,wmoUnit:m,,,Flood Warning,Severe,Immediate,2025-05-18T10:45:00-05:00
Loving,31.84912973,-103.5799063,23.333333333333332,wmoUnit:degC,18,3,16093.44,wmoUnit:m,FW,W,Red Flag Warning,Severe,Expected,2025-05-18T04:00:00-05:00
Jim Wells,27.73131099,-98.0898649,26.11111111111111,wmoUnit:degC,94,0,10509.016657653729,wmoUnit:m,,,,,,
Upton,31.36853957,-102.0430005,22.77777777777778,wmoUnit:degC,40,2,16093.44,wmoUnit:m,,,,,,
Newton,30.78619977,-93.74462993,23.88888888888889,wmoUnit:degC,100,3,6356.908876739477,wmoUnit:m,,,Flood Warning,Severe,Immediate,2025-05-18T10:15:00-05:00
Lamar,33.66746186,-95.57110784,22.22222222222222,wmoUnit:degC,93,2,11265.408,wmoUnit:m,SV,A,Severe Thunderstorm Watch,Severe,Future,2025-05-17T22:00:00-05:00
Polk,30.79250963,-94.82994949,25.555555555555557,wmoUnit:degC,94,7,12520.696657653729,wmoUnit:m,,,Flood Warning,Severe,Immediate,2025-05-18T10:45:00-05:00
Collin,33.18789055,-96.57248871,22.22222222222222,wmoUnit:degC,93,2,11265.408,wmoUnit:m,SV,A,Severe Thunderstorm Watch,Severe,Future,2025-05-17T22:00:00-05:00
Hardeman,34.28865227,-99.7453851,18.333333333333332,wmoUnit:degC,73,0,,,,,Tornado Watch,Extreme,Future,2025-05-17T22:00:00-05:00
McMullen,28.35351091,-98.56842256,25.555555555555557,wmoUnit:degC,91,0,13212.714301391645,wmoUnit:m,,,,,,
Cottle,34.0776571,-100.2786983,22.22222222222222,wmoUnit:degC,57,1,16093.44,wmoUnit:m,,,,,,
Frio,28.86726774,-99.10826004,25.555555555555557,wmoUnit:degC,83,0,16093.44,wmoUnit:m,,,Special Weather Statement,Moderate,Expected,2025-05-17T18:00:00-05:00
Gray,35.40130666,-100.812475,18.333333333333332,wmoUnit:degC,56,0,,,,,,,,
Dallam,36.27777107,-102.6021647,12.222222222222221,wmoUnit:degC,47,0,,,,,,,,
Kenedy,26.92409448,-97.68137783,26.666666666666668,wmoUnit:degC,91,0,,,,,,,,
Fort Bend,29.52763253,-95.77090562,26.11111111111111,wmoUnit:degC,94,2,9688.250849304177,wmoUnit:m,,,,,,
Armstrong,34.96522076,-101.3572412,18.88888888888889,wmoUnit:degC,45,0,,,,,,,,
Collingsworth,34.96498493,-100.2700733,15.0,wmoUnit:degC,69,0,,,,,,,,
Cass,33.07750446,-94.34348771,25.0,wmoUnit:degC,94,5,11265.408,wmoUnit:m,,,,,,
Sherman,36.27765824,-101.8933822,12.222222222222221,wmoUnit:degC,55,0,,,,,,,,
Terry,33.17373729,-102.335157,19.444444444444443,wmoUnit:degC,27,3,16093.44,wmoUnit:m,,,,,,
Limestone,31.54541898,-96.58056718,23.88888888888889,wmoUnit:degC,100,6,12359.761643737756,wmoUnit:m,,,,,,
Real,29.83182711,-99.82215881,23.333333333333332,wmoUnit:degC,85,0,16093.44,wmoUnit:m,SV,A,Severe Thunderstorm Watch,Severe,Future,2025-05-17T22:00:00-05:00
Lynn,33.17685487,-101.8160235,21.666666666666668,wmoUnit:degC,49,6,16061.252383300736,wmoUnit:m,,,,,,
Lavaca,29.38437003,-96.93020993,26.11111111111111,wmoUnit:degC,91,0,6276.441753478953,wmoUnit:m,,,Special Weather Statement,Moderate,Expected,2025-05-17T18:00:00-05:00
Nolan,32.3034718,-100.4060989,22.22222222222222,wmoUnit:degC,68,3,16093.44,wmoUnit:m,,,,,,
Gaines,32.74074537,-102.6351246,20.0,wmoUnit:degC,28,4,16093.44,wmoUnit:m,,,,,,
Montgomery,30.30022409,-95.50301411,26.11111111111111,wmoUnit:degC,88,4,15143.926794433579,wmoUnit:m,,,,,,
Concho,31.32645211,-99.86413426,23.88888888888889,wmoUnit:degC,79,3,16093.44,wmoUnit:m,,,,,,
Hardin,30.33238431,-94.39021394,25.0,wmoUnit:degC,90,2,7885.785753478953,wmoUnit:m,,,,,,
Harris,29.85967144,-95.39782106,26.666666666666668,wmoUnit:degC,85,2,12585.070356262244,wmoUnit:m,,,,,,
Leon,31.29655719,-95.99554292,25.0,wmoUnit:degC,94,10,11828.678246521047,wmoUnit:m,,,,,,
Bowie,33.44572786,-94.42324298,24.444444444444443,wmoUnit:degC,100,4,11265.408,wmoUnit:m,,,,,,
Kaufman,32.59927808,-96.28779341,23.333333333333332,wmoUnit:degC,100,2,11265.408,wmoUnit:m,SV,A,Severe Thunderstorm Watch,Severe,Future,2025-05-17T22:00:00-05:00
Anderson,31.81321543,-95.65251774,23.333333333333332,wmoUnit:degC,100,9,11683.837808349552,wmoUnit:m,,,Flood Warning,Severe,Immediate,2025-05-18T10:45:00-05:00
San Saba,31.15520543,-98.81754295,25.0,wmoUnit:degC,90,6,16093.44,wmoUnit:m,SV,A,Severe Thunderstorm Warning,Severe,Immediate,2025-05-17T15:15:00-05:00
Schleicher,30.89661056,-100.538097,22.22222222222222,wmoUnit:degC,71,8,16093.44,wmoUnit:m,,,,,,
Colorado,29.6208542,-96.52630821,26.11111111111111,wmoUnit:degC,91,2,10975.726356262245,wmoUnit:m,,,,,,
Milam,30.78625299,-96.97683495,25.0,wmoUnit:degC,97,8,11265.408,wmoUnit:m,,,,,,
Live Oak,28.3514375,-98.12474493,26.11111111111111,wmoUnit:degC,91,0,11989.612493041934,wmoUnit:m,,,,,,
Borden,32.7436916,-101.4317533,20.0,wmoUnit:degC,55,4,16093.44,wmoUnit:m,,,,,,
McCulloch,31.19896752,-99.34754972,24.444444444444443,wmoUnit:degC,87,5,16093.44,wmoUnit:m,SV,A,Severe Thunderstorm Warning,Severe,Immediate,2025-05-17T15:45:00-05:00
Johnson,32.37899918,-97.36660504,22.77777777777778,wmoUnit:degC,100,3,11265.408,wmoUnit:m,SV,A,Severe Thunderstorm Watch,Severe,Future,2025-05-17T22:00:00-05:00
Montague,33.67496328,-97.72466993,20.0,wmoUnit:degC,97,2,16045.160109741197,wmoUnit:m,SV,A,Severe Thunderstorm Watch,Severe,Future,2025-05-17T22:00:00-05:00
Stonewall,33.17842158,-100.255259,21.666666666666668,wmoUnit:degC,61,5,15900.318904174776,wmoUnit:m,,,,,,
Comal,29.80816362,-98.27814516,25.0,wmoUnit:degC,90,0,11265.408,wmoUnit:m,,,Special Weather Statement,Moderate,Expected,2025-05-17T18:00:00-05:00
Eastland,32.32739258,-98.8325713,21.11111111111111,wmoUnit:degC,97,6,13856.451287475511,wmoUnit:m,SV,A,Severe Thunderstorm Watch,Severe,Future,2025-05-17T22:00:00-05:00
Comanche,31.9490639,-98.55841538,22.22222222222222,wmoUnit:degC,100,10,11265.408,wmoUnit:m,SV,A,Severe Thunderstorm Warning,Severe,Immediate,2025-05-17T15:45:00-05:00
King,33.61641863,-100.2558584,18.88888888888889,wmoUnit:degC,78,3,16077.34619165045,wmoUnit:m,,,,,,
Washington,30.2145299,-96.40356575,26.11111111111111,wmoUnit:degC,85,6,14741.59079443358,wmoUnit:m,,,,,,
Webb,27.76102524,-99.33170164,26.11111111111111,wmoUnit:degC,82,0,15514.076712524487,wmoUnit:m,,,,,,
Fayette,29.87683207,-96.91968047,26.11111111111111,wmoUnit:degC,87,0,7934.065643737756,wmoUnit:m,,,Special Weather Statement,Moderate,Expected,2025-05-17T18:00:00-05:00
Harrison,32.54814898,-94.37155736,25.555555555555557,wmoUnit:degC,100,7,16093.44,wmoUnit:m,,,,,,
Presidio,29.99977786,-104.2405552,20.555555555555557,wmoUnit:degC,35,8,16093.44,wmoUnit:m,FW,W,Red Flag Warning,Severe,Expected,2025-05-18T04:00:00-05:00
Austin,29.88711223,-96.27791829,26.11111111111111,wmoUnit:degC,91,3,10686.043945129402,wmoUnit:m,,,,,,
Randall,34.96594288,-101.8968527,13.88888888888889,wmoUnit:degC,51,0,,,,,,,,
Hood,32.43107878,-97.83280338,21.11111111111111,wmoUnit:degC,100,4,13534.582794433578,wmoUnit:m,SV,A,Severe Thunderstorm Watch,Severe,Future,2025-05-17T22:00:00-05:00
Victoria,28.79640594,-96.97176602,26.11111111111111,wmoUnit:degC,94,0,11651.650191650448,wmoUnit:m,,,,,,
Hutchinson,35.84000866,-101.3547257,17.22222222222222,wmoUnit:degC,48,0,,,,,,,,
Coryell,31.39087578,-97.7991883,24.444444444444443,wmoUnit:degC,94,9,11329.781698608354,wmoUnit:m,SV,A,Severe Thunderstorm Watch,Severe,Future,2025-05-17T22:00:00-05:00
Jackson,28.95603133,-96.57883268,26.11111111111111,wmoUnit:degC,94,2,11571.183452087469,wmoUnit:m,,,,,,
Taylor,32.30138229,-99.89003941,22.22222222222222,wmoUnit:degC,68,4,16093.44,wmoUnit:m,,,,,,
Zapata,27.00089072,-99.16860134,27.22222222222222,wmoUnit:degC,83,2,,,,,,,,
San Patricio,28.00922186,-97.51859857,27.22222222222222,wmoUnit:degC,91,0,11555.089643737756,wmoUnit:m,,,,,,
Grimes,30.54360689,-95.98557334,26.666666666666668,wmoUnit:degC,91,6,15143.926794433579,wmoUnit:m,,,,,,
Lamb,34.06861242,-102.3517095,17.22222222222222,wmoUnit:degC,38,0,16093.44,wmoUnit:m,,,,,,
