countyName,latitude,longitude,temperature,temperature_unit,relativeHumidity,precipitationProbability,visibility,visibility_unit,hazard_phenomenon,hazard_significance,alert_event,alert_severity,alert_urgency,alert_expires
Blanco,30.26636128,-98.39974086,20.555555555555557,wmoUnit:degC,90,16,16093.44,wmoUnit:m,,,,,,
Llano,30.70566579,-98.68387398,20.0,wmoUnit:degC,93,28,16093.44,wmoUnit:m,,,,,,
Swisher,34.53064989,-101.734951,22.22222222222222,wmoUnit:degC,66,6,16093.44,wmoUnit:m,,,,,,
Titus,33.2160906,-94.96509786,21.666666666666668,wmoUnit:degC,84,6,16093.44,wmoUnit:m,,,Flood Warning,Severe,Expected,2025-06-10T10:00:00-05:00
Hidalgo,26.396627,-98.18088681,33.333333333333336,wmoUnit:degC,59,0,,,,,,,,
Refugio,28.32681413,-97.16546961,31.11111111111111,wmoUnit:degC,75,15,16093.44,wmoUnit:m,,,,,,
Andrews,32.30506283,-102.6378839,23.88888888888889,wmoUnit:degC,58,3,16093.44,wmoUnit:m,,,,,,
Galveston,29.39424415,-94.96474975,27.22222222222222,wmoUnit:degC,88,36,15047.367013915973,wmoUnit:m,,,Rip Current Statement,Moderate,Expected,2025-06-09T18:00:00-05:00
De Witt,29.08201599,-97.35666976,26.666666666666668,wmoUnit:degC,85,12,11265.408,wmoUnit:m,,,,,,
Gonzales,29.45641495,-97.49279927,24.444444444444443,wmoUnit:degC,82,15,16093.44,wmoUnit:m,,,,,,
Wharton,29.2778362,-96.22197375,26.666666666666668,wmoUnit:degC,91,28,11233.221150695823,wmoUnit:m,,,,,,
Fannin,33.59396919,-96.10656755,21.666666666666668,wmoUnit:degC,93,10,11265.408,wmoUnit:m,,,,,,
Madison,30.96564645,-95.92818441,20.555555555555557,wmoUnit:degC,97,33,15723.291616699264,wmoUnit:m,,,,,,
Moore,35.83768863,-101.8929556,18.333333333333332,wmoUnit:degC,68,2,,,,,,,,
Tyler,30.7712607,-94.37651432,24.444444444444443,wmoUnit:degC,90,22,12617.25720556642,wmoUnit:m,,,,,,
Lipscomb,36.27778432,-100.27317,19.444444444444443,wmoUnit:degC,70,1,,,,,,,,
Burleson,30.49246139,-96.62109399,21.11111111111111,wmoUnit:degC,90,27,15304.861808349551,wmoUnit:m,,,,,,
Jim Hogg,27.04340499,-98.6972921,32.22222222222222,wmoUnit:degC,59,0,,,,,,,,
Throckmorton,33.17753907,-99.21236832,23.88888888888889,wmoUnit:degC,71,11,,,,,,,,
Kleberg,27.43274395,-97.72889778,31.11111111111111,wmoUnit:degC,75,2,16093.44,wmoUnit:m,,,,,,
Shelby,31.79242191,-94.14495261,21.11111111111111,wmoUnit:degC,81,25,16093.44,wmoUnit:m,,,,,,
Garza,33.17991074,-101.2984496,25.0,wmoUnit:degC,66,10,16093.44,wmoUnit:m,,,,,,
Karnes,28.90493782,-97.85960621,27.22222222222222,wmoUnit:degC,85,6,16093.44,wmoUnit:m,,,,,,
Reeves,31.32307061,-103.693143,22.77777777777778,wmoUnit:degC,71,0,16093.44,wmoUnit:m,,,,,,
Houston,31.31764137,-95.42225367,21.11111111111111,wmoUnit:degC,97,32,15160.02060278313,wmoUnit:m,,,Flood Warning,Severe,Immediate,2025-06-10T08:15:00-05:00
El Paso,31.7686226,-106.2352229,23.88888888888889,wmoUnit:degC,18,0,16093.44,wmoUnit:m,,,,,,
Carson,35.40346802,-101.3542037,17.77777777777778,wmoUnit:degC,78,5,,,,,,,,
Medina,29.35520493,-99.11008331,26.11111111111111,wmoUnit:degC,79,2,16093.44,wmoUnit:m,,,,,,
Wichita,33.98421585,-98.70153389,19.444444444444443,wmoUnit:degC,92,63,,,,,,,,
Chambers,29.73912276,-94.60891308,22.77777777777778,wmoUnit:degC,97,55,9656.064,wmoUnit:m,,,Flood Warning,Severe,Immediate,2025-06-10T05:00:00-05:00
Donley,34.96540246,-100.8140501,19.444444444444443,wmoUnit:degC,75,6,,,,,,,,
Hopkins,33.14933822,-95.56414173,20.555555555555557,wmoUnit:degC,100,11,11265.408,wmoUnit:m,,,,,,
Lampasas,31.19627791,-98.24142711,18.88888888888889,wmoUnit:degC,100,38,16093.44,wmoUnit:m,,,,,,
Falls,31.25317017,-96.93579511,20.0,wmoUnit:degC,100,32,16093.44,wmoUnit:m,,,,,,
Stephens,32.73584155,-98.83612016,20.0,wmoUnit:degC,100,25,11265.408,wmoUnit:m,,,,,,
Travis,30.33423319,-97.78194654,21.11111111111111,wmoUnit:degC,90,29,16093.44,wmoUnit:m,,,,,,
Roberts,35.8385577,-100.8135689,18.333333333333332,wmoUnit:degC,75,2,,,,,,,,
Crosby,33.61459873,-101.2998612,22.77777777777778,wmoUnit:degC,71,9,16093.44,wmoUnit:m,,,,,,
Kerr,30.06153035,-99.35016969,22.22222222222222,wmoUnit:degC,84,6,16093.44,wmoUnit:m,,,,,,
Wood,32.78634374,-95.38206498,22.22222222222222,wmoUnit:degC,87,7,11265.408,wmoUnit:m,,,Flood Warning,Severe,Immediate,2025-06-10T14:00:00-05:00
Jack,33.23345819,-98.1725509,21.11111111111111,wmoUnit:degC,78,14,11265.408,wmoUnit:m,,,,,,
Marion,32.79797929,-94.35725239,23.333333333333332,wmoUnit:degC,87,18,16093.44,wmoUnit:m,,,,,,
Hale,34.07051782,-101.8269082,22.77777777777778,wmoUnit:degC,64,6,16093.44,wmoUnit:m,,,,,,
Jeff Davis,30.71559322,-104.1403539,24.444444444444443,wmoUnit:degC,46,0,16093.44,wmoUnit:m,,,Special Weather Statement,Moderate,Expected,2025-06-09T17:30:00-05:00
Tarrant,32.77185236,-97.29116473,20.555555555555557,wmoUnit:degC,93,20,14548.469698608355,wmoUnit:m,,,,,,
Waller,30.01093722,-95.98768942,23.333333333333332,wmoUnit:degC,93,32,11265.408,wmoUnit:m,,,,,,
Reagan,31.36617698,-101.5230108,27.22222222222222,wmoUnit:degC,60,3,16093.44,wmoUnit:m,,,,,,
Smith,32.37514553,-95.26909511,22.22222222222222,wmoUnit:degC,87,15,12746.00460278313,wmoUnit:m,,,Flood Warning,Severe,Immediate,2025-06-10T14:00:00-05:00
Van Zandt,32.56368961,-95.8364862,20.0,wmoUnit:degC,100,18,11265.408,wmoUnit:m,,,,,,
Cooke,33.638465,-97.21247642,21.666666666666668,wmoUnit:degC,93,10,11265.408,wmoUnit:m,,,,,,
Zavala,28.86530621,-99.76102001,26.11111111111111,wmoUnit:degC,88,0,16093.44,wmoUnit:m,,,,,,
Hall,34.53074134,-100.6809876,23.88888888888889,wmoUnit:degC,66,6,16093.44,wmoUnit:m,,,,,,
Kendall,29.9446397,-98.71160511,22.77777777777778,wmoUnit:degC,84,6,16093.44,wmoUnit:m,,,,,,
Goliad,28.65708563,-97.42646082,28.88888888888889,wmoUnit:degC,80,16,16093.44,wmoUnit:m,,,,,,
Yoakum,33.17293501,-102.8278792,24.444444444444443,wmoUnit:degC,54,2,16093.44,wmoUnit:m,,,,,,
Knox,33.60614755,-99.74144313,18.333333333333332,wmoUnit:degC,93,51,,,,,,,,
McLennan,31.55234489,-97.20184883,20.555555555555557,wmoUnit:degC,100,36,16093.44,wmoUnit:m,,,,,,
Brewster,29.81205836,-103.2518906,26.666666666666668,wmoUnit:degC,67,0,16093.44,wmoUnit:m,,,Special Weather Statement,Moderate,Expected,2025-06-09T17:30:00-05:00
Panola,32.16222886,-94.30552858,22.22222222222222,wmoUnit:degC,87,21,16093.44,wmoUnit:m,,,,,,
Bandera,29.74724753,-99.24637282,23.333333333333332,wmoUnit:degC,84,2,16093.44,wmoUnit:m,,,,,,
Parmer,34.53014507,-102.784594,21.11111111111111,wmoUnit:degC,68,3,16093.44,wmoUnit:m,,,,,,
Rockwall,32.89786769,-96.40780584,21.11111111111111,wmoUnit:degC,97,12,11265.408,wmoUnit:m,,,Flood Warning,Severe,Immediate,2025-06-10T08:00:00-05:00
Trinity,31.0885069,-95.13551682,22.22222222222222,wmoUnit:degC,90,26,12520.696657653729,wmoUnit:m,,,Flood Warning,Severe,Immediate,2025-06-10T05:00:00-05:00
Bosque,31.90050476,-97.63437613,21.666666666666668,wmoUnit:degC,93,37,11265.408,wmoUnit:m,,,,,,
Coke,31.88849293,-100.5298747,25.0,wmoUnit:degC,60,11,,,,,,,,
Franklin,33.17550691,-95.21841437,22.22222222222222,wmoUnit:degC,81,3,12746.00460278313,wmoUnit:m,,,Flood Warning,Severe,Expected,2025-06-10T10:00:00-05:00
Hill,31.99079033,-97.1324142,20.555555555555557,wmoUnit:degC,100,32,14548.469698608355,wmoUnit:m,,,,,,
Calhoun,28.48966896,-96.64708119,31.11111111111111,wmoUnit:degC,83,22,16093.44,wmoUnit:m,,,,,,
Irion,31.30393203,-100.9824126,27.22222222222222,wmoUnit:degC,63,7,,,,,,,,
Midland,31.86921148,-102.0315032,26.666666666666668,wmoUnit:degC,56,2,16093.44,wmoUnit:m,,,,,,
Brown,31.77432313,-98.99989649,19.444444444444443,wmoUnit:degC,97,17,,,,,,,,
Wilson,29.17315896,-98.08621015,26.11111111111111,wmoUnit:degC,91,7,16093.44,wmoUnit:m,,,,,,
Oldham,35.40497586,-102.6029949,18.333333333333332,wmoUnit:degC,78,1,,,,,,,,
Freestone,31.70486443,-96.14918535,20.0,wmoUnit:degC,97,29,11265.408,wmoUnit:m,,,,,,
Sabine,31.34321941,-93.85170439,23.333333333333332,wmoUnit:degC,87,29,16093.44,wmoUnit:m,,,,,,
Deaf Smith,34.96602014,-102.6048162,17.22222222222222,wmoUnit:degC,84,1,,,,,,,,
Angelina,31.25475875,-94.611742,22.22222222222222,wmoUnit:degC,87,27,16093.44,wmoUnit:m,,,Flood Warning,Severe,Immediate,2025-06-10T08:15:00-05:00
Kent,33.18284492,-100.7791031,23.333333333333332,wmoUnit:degC,73,11,16093.44,wmoUnit:m,,,,,,
Red River,33.62074539,-95.0501886,23.333333333333332,wmoUnit:degC,79,2,12746.00460278313,wmoUnit:m,,,Flood Warning,Severe,Expected,2025-06-10T10:00:00-05:00
Kinney,29.35000302,-100.4178441,25.555555555555557,wmoUnit:degC,82,1,16093.44,wmoUnit:m,,,,,,
Denton,33.205574,-97.11681154,22.22222222222222,wmoUnit:degC,100,11,11265.408,wmoUnit:m,,,,,,
Sutton,30.49747152,-100.5382263,26.11111111111111,wmoUnit:degC,67,7,,,,,,,,
Guadalupe,29.58257236,-97.94850308,23.333333333333332,wmoUnit:degC,84,14,16093.44,wmoUnit:m,,,,,,
Winkler,31.85008609,-103.0484794,25.0,wmoUnit:degC,58,0,16093.44,wmoUnit:m,,,,,,
Dimmit,28.42161168,-99.760574,26.666666666666668,wmoUnit:degC,79,0,16093.44,wmoUnit:m,,,,,,
Wise,33.21585061,-97.65444124,21.666666666666668,wmoUnit:degC,79,12,16093.44,wmoUnit:m,,,,,,
Hemphill,35.83750155,-100.2704628,18.88888888888889,wmoUnit:degC,73,2,,,,,,,,
Potter,35.40128927,-101.8940484,18.333333333333332,wmoUnit:degC,78,0,,,,,,,,
Childress,34.52929257,-100.2075664,24.444444444444443,wmoUnit:degC,64,4,16093.44,wmoUnit:m,,,,,,
Willacy,26.47132899,-97.64303323,32.77777777777778,wmoUnit:degC,66,0,,,,,,,,
Bastrop,30.10353518,-97.31187705,22.22222222222222,wmoUnit:degC,93,24,16093.44,wmoUnit:m,,,,,,
Kimble,30.48676251,-99.74892716,27.22222222222222,wmoUnit:degC,67,8,,,,,,,,
Scurry,32.74720063,-100.9165071,22.77777777777778,wmoUnit:degC,71,15,16093.44,wmoUnit:m,,,,,,
Ochiltree,36.27846334,-100.815653,17.77777777777778,wmoUnit:degC,78,1,,,,,,,,
Hansford,36.27753179,-101.3545624,18.88888888888889,wmoUnit:degC,70,1,,,,,,,,
Hartley,35.83996755,-102.6028835,17.22222222222222,wmoUnit:degC,75,0,,,,,,,,
Cameron,26.13847728,-97.51499968,32.77777777777778,wmoUnit:degC,63,0,,,,,,,,
Matagorda,28.86711039,-95.98533866,27.22222222222222,wmoUnit:degC,94,20,12697.7239451294,wmoUnit:m,,,Rip Current Statement,Moderate,Expected,2025-06-09T18:00:00-05:00
Burnet,30.78843382,-98.18252382,18.88888888888889,wmoUnit:degC,100,30,16093.44,wmoUnit:m,,,,,,
Rains,32.87004212,-95.79347545,19.444444444444443,wmoUnit:degC,100,12,11265.408,wmoUnit:m,,,,,,
Hays,30.05782657,-98.03104087,21.11111111111111,wmoUnit:degC,90,8,16093.44,wmoUnit:m,,,,,,
Mason,30.71742293,-99.2263026,25.0,wmoUnit:degC,71,7,,,,,,,,
Ward,31.509424,-103.1024636,24.444444444444443,wmoUnit:degC,62,0,16093.44,wmoUnit:m,,,,,,
Delta,33.38623601,-95.67221685,21.11111111111111,wmoUnit:degC,97,12,11265.408,wmoUnit:m,,,,,,
Nueces,27.72621549,-97.61767326,31.666666666666668,wmoUnit:degC,68,5,16093.44,wmoUnit:m,,,,,,
Callahan,32.2977738,-99.37359692,20.555555555555557,wmoUnit:degC,87,15,,,,,,,,
Bell,31.03778267,-97.47790776,21.11111111111111,wmoUnit:degC,90,37,16093.44,wmoUnit:m,,,,,,
Cherokee,31.83695632,-95.16515234,21.666666666666668,wmoUnit:degC,87,20,16093.44,wmoUnit:m,,,Flood Warning,Severe,Immediate,2025-06-10T08:15:00-05:00
Ellis,32.34839264,-96.79467417,20.0,wmoUnit:degC,100,25,11265.408,wmoUnit:m,,,,,,
Lubbock,33.6101944,-101.8205745,23.333333333333332,wmoUnit:degC,66,8,16093.44,wmoUnit:m,,,,,,
Terrell,30.22502597,-102.0764533,26.666666666666668,wmoUnit:degC,67,0,16093.44,wmoUnit:m,,,,,,
Crockett,30.72291931,-101.4118364,25.0,wmoUnit:degC,67,3,,,,,,,,
Atascosa,28.89418432,-98.52741302,26.666666666666668,wmoUnit:degC,82,3,16093.44,wmoUnit:m,,,,,,
Ector,31.86908156,-102.5430907,25.0,wmoUnit:degC,62,1,16093.44,wmoUnit:m,,,,,,
Brazos,30.6610425,-96.3022943,21.11111111111111,wmoUnit:degC,93,32,14178.321315307618,wmoUnit:m,,,,,,
Aransas,28.12709562,-96.99258951,29.444444444444443,wmoUnit:degC,77,12,16093.44,wmoUnit:m,,,,,,
Dallas,32.76653746,-96.77781862,21.666666666666668,wmoUnit:degC,90,17,11265.408,wmoUnit:m,,,Flood Warning,Severe,Immediate,2025-06-10T08:45:00-05:00
Howard,32.30610232,-101.4355097,24.444444444444443,wmoUnit:degC,58,8,16093.44,wmoUnit:m,,,,,,
Motley,34.07409017,-100.7798961,23.333333333333332,wmoUnit:degC,69,7,16093.44,wmoUnit:m,,,,,,
San Augustine,31.39427005,-94.16809762,22.77777777777778,wmoUnit:degC,84,28,16093.44,wmoUnit:m,,,,,,
Maverick,28.74260943,-100.3144638,26.11111111111111,wmoUnit:degC,88,2,16093.44,wmoUnit:m,,,,,,
Erath,32.23640361,-98.21722756,19.444444444444443,wmoUnit:degC,97,35,14548.469698608355,wmoUnit:m,,,,,,
Dickens,33.61663428,-100.7788138,23.333333333333332,wmoUnit:degC,73,9,16093.44,wmoUnit:m,,,,,,
Caldwell,29.83677935,-97.61983479,23.333333333333332,wmoUnit:degC,82,15,16093.44,wmoUnit:m,,,,,,
Dawson,32.74258137,-101.9476136,22.22222222222222,wmoUnit:degC,73,6,16093.44,wmoUnit:m,,,,,,
Camp,32.97321771,-94.97860185,22.22222222222222,wmoUnit:degC,84,9,16093.44,wmoUnit:m,,,,,,
Duval,27.68133382,-98.50889672,30.0,wmoUnit:degC,72,3,16093.44,wmoUnit:m,,,,,,
Hunt,33.123531,-96.08550014,20.555555555555557,wmoUnit:degC,100,11,11265.408,wmoUnit:m,,,Flood Warning,Severe,Immediate,2025-06-10T08:00:00-05:00
Mills,31.49524259,-98.59552736,19.444444444444443,wmoUnit:degC,100,39,16093.44,wmoUnit:m,,,,,,
Val Verde,29.89300587,-101.15171,26.11111111111111,wmoUnit:degC,69,1,16093.44,wmoUnit:m,,,,,,
Pecos,30.78100044,-102.7235743,25.0,wmoUnit:degC,76,0,16093.44,wmoUnit:m,,,,,,
Baylor,33.61648147,-99.21351964,18.88888888888889,wmoUnit:degC,89,64,,,,,,,,
Gregg,32.48036452,-94.81723694,22.77777777777778,wmoUnit:degC,81,18,16093.44,wmoUnit:m,,,Flood Warning,Severe,Immediate,2025-06-10T01:00:00-05:00
Cochran,33.60410808,-102.8285264,24.444444444444443,wmoUnit:degC,52,3,16093.44,wmoUnit:m,,,,,,
Jasper,30.74391255,-94.02495849,24.444444444444443,wmoUnit:degC,94,14,11265.408,wmoUnit:m,,,,,,
Hamilton,31.70479181,-98.11066654,20.0,wmoUnit:degC,100,39,14564.563506958068,wmoUnit:m,,,,,,
Castro,34.53000304,-102.2617608,21.666666666666668,wmoUnit:degC,68,4,16093.44,wmoUnit:m,,,,,,
Sterling,31.82786516,-101.0500699,25.555555555555557,wmoUnit:degC,60,9,,,,,,,,
Starr,26.56212627,-98.73834895,32.77777777777778,wmoUnit:degC,57,0,,,,,,,,
Crane,31.42846287,-102.5156425,26.11111111111111,wmoUnit:degC,69,0,16093.44,wmoUnit:m,,,,,,
Morris,33.11368507,-94.73205137,22.22222222222222,wmoUnit:degC,81,11,16093.44,wmoUnit:m,,,Flood Warning,Severe,Expected,2025-06-10T10:00:00-05:00
Briscoe,34.53041048,-101.2085769,21.666666666666668,wmoUnit:degC,68,6,16093.44,wmoUnit:m,,,,,,
Tom Green,31.4044442,-100.4620678,25.555555555555557,wmoUnit:degC,69,9,,,,,,,,
Menard,30.88981785,-99.82061472,25.555555555555557,wmoUnit:degC,74,9,,,,,,,,
Parker,32.77852261,-97.80472194,20.0,wmoUnit:degC,93,21,16093.44,wmoUnit:m,,,,,,
Walker,30.73899492,-95.57224172,21.666666666666668,wmoUnit:degC,93,31,14838.152109741197,wmoUnit:m,,,Flood Warning,Severe,Immediate,2025-06-10T05:00:00-05:00
Brooks,27.0315669,-98.21874127,32.77777777777778,wmoUnit:degC,60,0,,,,,,,,
La Salle,28.34621032,-99.1034773,29.444444444444443,wmoUnit:degC,70,6,16093.44,wmoUnit:m,,,,,,
Edwards,29.98248216,-100.3048937,23.88888888888889,wmoUnit:degC,79,1,16093.44,wmoUnit:m,,,,,,
Lee,30.31065065,-96.96568735,21.666666666666668,wmoUnit:degC,90,28,16093.44,wmoUnit:m,,,,,,
Robertson,31.02705415,-96.51272568,21.666666666666668,wmoUnit:degC,87,31,16093.44,wmoUnit:m,,,,,,
Bee,28.41736675,-97.74116811,30.0,wmoUnit:degC,80,12,16093.44,wmoUnit:m,,,,,,
