countyName,latitude,longitude,temperature,temperature_unit,relativeHumidity,precipitationProbability,visibility,visibility_unit,hazard_phenomenon,hazard_significance,alert_event,alert_severity,alert_urgency,alert_expires
Foard,33.97408519,-99.77871109,24.444444444444443,wmoUnit:degC,83,4,,,,,,,,
Blanco,30.26636128,-98.39974086,28.88888888888889,wmoUnit:degC,77,1,16093.44,wmoUnit:m,,,,,,
Hockley,33.60750375,-102.3430919,26.666666666666668,wmoUnit:degC,53,4,16093.44,wmoUnit:m,,,,,,
Llano,30.70566579,-98.68387398,30.555555555555557,wmoUnit:degC,63,0,16093.44,wmoUnit:m,,,,,,
Swisher,34.53064989,-101.734951,25.555555555555557,wmoUnit:degC,73,14,16093.44,wmoUnit:m,,,,,,
Titus,33.2160906,-94.96509786,25.555555555555557,wmoUnit:degC,88,46,16093.44,wmoUnit:m,,,Flood Warning,Severe,Immediate,2025-06-16T11:45:00-05:00
Navarro,32.04695429,-96.47248134,27.22222222222222,wmoUnit:degC,88,28,16093.44,wmoUnit:m,,,Flood Warning,Severe,Immediate,2025-06-16T07:45:00-05:00
Brazoria,29.19345387,-95.45578479,30.0,wmoUnit:degC,77,29,15514.076712524487,wmoUnit:m,,,Flood Warning,Severe,Immediate,2025-06-16T07:00:00-05:00
Hidalgo,26.396627,-98.18088681,33.333333333333336,wmoUnit:degC,58,6,,,,,,,,
Archer,33.61539176,-98.68783437,23.333333333333332,wmoUnit:degC,88,7,,,,,,,,
Refugio,28.32681413,-97.16546961,30.555555555555557,wmoUnit:degC,80,15,16093.44,wmoUnit:m,,,Flood Warning,Severe,Immediate,2025-06-16T00:00:00-05:00
Andrews,32.30506283,-102.6378839,28.88888888888889,wmoUnit:degC,59,0,16093.44,wmoUnit:m,SV,A,Severe Thunderstorm Watch,Severe,Future,2025-06-16T00:00:00-05:00
Galveston,29.39424415,-94.96474975,30.555555555555557,wmoUnit:degC,82,34,15626.730301391646,wmoUnit:m,,,,,,
De Witt,29.08201599,-97.35666976,29.444444444444443,wmoUnit:degC,82,44,16093.44,wmoUnit:m,,,,,,
Gonzales,29.45641495,-97.49279927,29.444444444444443,wmoUnit:degC,85,27,16093.44,wmoUnit:m,,,,,,
Wharton,29.2778362,-96.22197375,30.0,wmoUnit:degC,80,39,14258.787287475512,wmoUnit:m,,,Flood Warning,Severe,Immediate,2025-06-16T08:00:00-05:00
Fannin,33.59396919,-96.10656755,23.333333333333332,wmoUnit:degC,90,48,16093.44,wmoUnit:m,,,,,,
Madison,30.96564645,-95.92818441,30.0,wmoUnit:degC,82,19,15530.168986084027,wmoUnit:m,,,Flood Warning,Severe,Immediate,2025-06-16T08:00:00-05:00
Moore,35.83768863,-101.8929556,24.444444444444443,wmoUnit:degC,52,2,,,,,,,,
Tyler,30.7712607,-94.37651432,27.77777777777778,wmoUnit:degC,85,35,15449.703013915972,wmoUnit:m,,,,,,
Lipscomb,36.27778432,-100.27317,21.11111111111111,wmoUnit:degC,97,25,,,,,,,,
Burleson,30.49246139,-96.62109399,30.555555555555557,wmoUnit:degC,75,22,16093.44,wmoUnit:m,,,Flood Advisory,Minor,Expected,2025-06-15T19:00:00-05:00
Jim Hogg,27.04340499,-98.6972921,32.22222222222222,wmoUnit:degC,60,0,,,,,,,,
Throckmorton,33.17753907,-99.21236832,26.11111111111111,wmoUnit:degC,79,12,16093.44,wmoUnit:m,,,,,,
Kleberg,27.43274395,-97.72889778,31.11111111111111,wmoUnit:degC,75,16,16093.44,wmoUnit:m,,,,,,
Shelby,31.79242191,-94.14495261,26.11111111111111,wmoUnit:degC,82,23,16093.44,wmoUnit:m,,,,,,
Garza,33.17991074,-101.2984496,27.22222222222222,wmoUnit:degC,76,9,16093.44,wmoUnit:m,,,,,,
Karnes,28.90493782,-97.85960621,30.0,wmoUnit:degC,72,24,16093.44,wmoUnit:m,,,Special Weather Statement,Moderate,Expected,2025-06-15T18:30:00-05:00
Reeves,31.32307061,-103.693143,31.666666666666668,wmoUnit:degC,38,0,16093.44,wmoUnit:m,SV,A,Severe Thunderstorm Watch,Severe,Future,2025-06-16T00:00:00-05:00
Houston,31.31764137,-95.42225367,30.0,wmoUnit:degC,80,19,16093.44,wmoUnit:m,,,Flood Warning,Severe,Immediate,2025-06-16T08:00:00-05:00
El Paso,31.7686226,-106.2352229,26.11111111111111,wmoUnit:degC,30,0,16093.44,wmoUnit:m,HT,Y,Heat Advisory,Moderate,Expected,2025-06-16T08:00:00-06:00
Carson,35.40346802,-101.3542037,22.77777777777778,wmoUnit:degC,62,20,,,,,,,,
Medina,29.35520493,-99.11008331,29.444444444444443,wmoUnit:degC,75,1,16093.44,wmoUnit:m,,,Special Weather Statement,Moderate,Expected,2025-06-15T18:30:00-05:00
Wichita,33.98421585,-98.70153389,21.11111111111111,wmoUnit:degC,88,16,,,,,,,,
Chambers,29.73912276,-94.60891308,31.11111111111111,wmoUnit:degC,75,34,15948.59879443358,wmoUnit:m,,,Flood Warning,Severe,Immediate,2025-06-16T08:00:00-05:00
Donley,34.96540246,-100.8140501,20.0,wmoUnit:degC,84,26,,,,,,,,
Hopkins,33.14933822,-95.56414173,26.11111111111111,wmoUnit:degC,88,28,16093.44,wmoUnit:m,,,,,,
Lampasas,31.19627791,-98.24142711,28.88888888888889,wmoUnit:degC,72,9,16093.44,wmoUnit:m,,,,,,
Falls,31.25317017,-96.93579511,27.77777777777778,wmoUnit:degC,88,9,16093.44,wmoUnit:m,,,,,,
Stephens,32.73584155,-98.83612016,28.88888888888889,wmoUnit:degC,70,69,9656.064,wmoUnit:m,,,,,,
Travis,30.33423319,-97.78194654,30.555555555555557,wmoUnit:degC,77,3,16093.44,wmoUnit:m,,,,,,
Roberts,35.8385577,-100.8135689,21.11111111111111,wmoUnit:degC,81,36,,,,,,,,
Crosby,33.61459873,-101.2998612,24.444444444444443,wmoUnit:degC,84,14,16093.44,wmoUnit:m,,,,,,
Kerr,30.06153035,-99.35016969,28.333333333333332,wmoUnit:degC,72,0,16093.44,wmoUnit:m,,,,,,
Wood,32.78634374,-95.38206498,26.11111111111111,wmoUnit:degC,85,34,16093.44,wmoUnit:m,,,Flood Warning,Severe,Immediate,2025-06-16T11:30:00-05:00
Jack,33.23345819,-98.1725509,25.555555555555557,wmoUnit:degC,74,71,9656.064,wmoUnit:m,,,,,,
Marion,32.79797929,-94.35725239,27.22222222222222,wmoUnit:degC,85,45,16093.44,wmoUnit:m,,,Flood Warning,Severe,Immediate,2025-06-16T11:30:00-05:00
Hale,34.07051782,-101.8269082,26.11111111111111,wmoUnit:degC,69,10,16093.44,wmoUnit:m,,,,,,
Jeff Davis,30.71559322,-104.1403539,27.77777777777778,wmoUnit:degC,37,0,16093.44,wmoUnit:m,,,,,,
Tarrant,32.77185236,-97.29116473,26.666666666666668,wmoUnit:degC,82,56,9656.064,wmoUnit:m,,,,,,
Waller,30.01093722,-95.98768942,30.555555555555557,wmoUnit:degC,77,26,12488.509808349552,wmoUnit:m,,,,,,
Reagan,31.36617698,-101.5230108,28.333333333333332,wmoUnit:degC,63,0,16093.44,wmoUnit:m,,,,,,
Smith,32.37514553,-95.26909511,27.22222222222222,wmoUnit:degC,85,27,16093.44,wmoUnit:m,,,Flood Warning,Severe,Immediate,2025-06-16T11:30:00-05:00
Van Zandt,32.56368961,-95.8364862,27.77777777777778,wmoUnit:degC,82,25,16093.44,wmoUnit:m,,,,,,
Cooke,33.638465,-97.21247642,22.22222222222222,wmoUnit:degC,87,67,9656.064,wmoUnit:m,,,,,,
Zavala,28.86530621,-99.76102001,30.555555555555557,wmoUnit:degC,75,0,16093.44,wmoUnit:m,,,,,,
Hall,34.53074134,-100.6809876,24.444444444444443,wmoUnit:degC,93,33,16093.44,wmoUnit:m,,,,,,
Kendall,29.9446397,-98.71160511,27.77777777777778,wmoUnit:degC,82,2,16093.44,wmoUnit:m,,,,,,
Goliad,28.65708563,-97.42646082,30.0,wmoUnit:degC,77,20,16093.44,wmoUnit:m,,,,,,
Yoakum,33.17293501,-102.8278792,29.444444444444443,wmoUnit:degC,50,1,16093.44,wmoUnit:m,SV,A,Severe Thunderstorm Watch,Severe,Future,2025-06-16T00:00:00-05:00
Knox,33.60614755,-99.74144313,26.11111111111111,wmoUnit:degC,81,1,,,,,,,,
McLennan,31.55234489,-97.20184883,27.77777777777778,wmoUnit:degC,85,19,16093.44,wmoUnit:m,,,,,,
Brewster,29.81205836,-103.2518906,31.11111111111111,wmoUnit:degC,48,0,16093.44,wmoUnit:m,,,,,,
Panola,32.16222886,-94.30552858,26.666666666666668,wmoUnit:degC,88,30,16093.44,wmoUnit:m,,,,,,
Bandera,29.74724753,-99.24637282,27.77777777777778,wmoUnit:degC,77,2,16093.44,wmoUnit:m,,,,,,
Parmer,34.53014507,-102.784594,26.11111111111111,wmoUnit:degC,58,1,16093.44,wmoUnit:m,,,,,,
Rockwall,32.89786769,-96.40780584,26.666666666666668,wmoUnit:degC,85,43,16093.44,wmoUnit:m,,,,,,
Trinity,31.0885069,-95.13551682,29.444444444444443,wmoUnit:degC,80,18,16077.34619165045,wmoUnit:m,,,Flood Warning,Severe,Immediate,2025-06-16T08:00:00-05:00
Bosque,31.90050476,-97.63437613,27.77777777777778,wmoUnit:degC,82,37,16093.44,wmoUnit:m,,,,,,
Coke,31.88849293,-100.5298747,31.11111111111111,wmoUnit:degC,55,14,16093.44,wmoUnit:m,,,,,,
Franklin,33.17550691,-95.21841437,25.555555555555557,wmoUnit:degC,85,42,16093.44,wmoUnit:m,,,Flood Warning,Severe,Immediate,2025-06-16T11:45:00-05:00
Hill,31.99079033,-97.1324142,27.22222222222222,wmoUnit:degC,88,35,16093.44,wmoUnit:m,,,,,,
Calhoun,28.48966896,-96.64708119,31.11111111111111,wmoUnit:degC,77,9,16093.44,wmoUnit:m,,,Flood Warning,Severe,Immediate,2025-06-16T00:00:00-05:00
Irion,31.30393203,-100.9824126,30.0,wmoUnit:degC,59,0,16093.44,wmoUnit:m,,,,,,
Midland,31.86921148,-102.0315032,28.88888888888889,wmoUnit:degC,63,0,16093.44,wmoUnit:m,,,,,,
Brown,31.77432313,-98.99989649,29.444444444444443,wmoUnit:degC,67,42,16093.44,wmoUnit:m,,,,,,
Wilson,29.17315896,-98.08621015,29.444444444444443,wmoUnit:degC,75,17,16093.44,wmoUnit:m,,,Special Weather Statement,Moderate,Expected,2025-06-15T18:30:00-05:00
Oldham,35.40497586,-102.6029949,24.444444444444443,wmoUnit:degC,66,0,,,,,,,,
Freestone,31.70486443,-96.14918535,28.88888888888889,wmoUnit:degC,82,20,16093.44,wmoUnit:m,,,Flood Warning,Severe,Immediate,2025-06-16T07:45:00-05:00
Sabine,31.34321941,-93.85170439,28.88888888888889,wmoUnit:degC,82,18,14484.096,wmoUnit:m,,,,,,
Deaf Smith,34.96602014,-102.6048162,25.0,wmoUnit:degC,67,0,,,,,,,,
Angelina,31.25475875,-94.611742,28.333333333333332,wmoUnit:degC,85,17,16093.44,wmoUnit:m,,,Flood Warning,Severe,Immediate,2025-06-16T11:30:00-05:00
Kent,33.18284492,-100.7791031,26.666666666666668,wmoUnit:degC,78,25,16093.44,wmoUnit:m,,,,,,
Red River,33.62074539,-95.0501886,23.333333333333332,wmoUnit:degC,97,51,16093.44,wmoUnit:m,,,Flood Warning,Severe,Immediate,2025-06-16T11:30:00-05:00
Kinney,29.35000302,-100.4178441,29.444444444444443,wmoUnit:degC,70,2,16093.44,wmoUnit:m,,,,,,
Denton,33.205574,-97.11681154,27.22222222222222,wmoUnit:degC,69,62,9656.064,wmoUnit:m,,,,,,
Sutton,30.49747152,-100.5382263,27.22222222222222,wmoUnit:degC,67,0,16093.44,wmoUnit:m,,,,,,
Guadalupe,29.58257236,-97.94850308,29.444444444444443,wmoUnit:degC,80,10,16093.44,wmoUnit:m,,,Special Weather Statement,Moderate,Expected,2025-06-15T18:30:00-05:00
Winkler,31.85008609,-103.0484794,29.444444444444443,wmoUnit:degC,57,0,16093.44,wmoUnit:m,SV,A,Severe Thunderstorm Watch,Severe,Future,2025-06-16T00:00:00-05:00
Dimmit,28.42161168,-99.760574,31.666666666666668,wmoUnit:degC,66,0,14516.283616699264,wmoUnit:m,,,,,,
Wise,33.21585061,-97.65444124,25.555555555555557,wmoUnit:degC,74,69,9656.064,wmoUnit:m,,,,,,
Hemphill,35.83750155,-100.2704628,20.0,wmoUnit:degC,87,36,,,,,,,,
Potter,35.40128927,-101.8940484,24.444444444444443,wmoUnit:degC,60,1,,,,,,,,
Childress,34.52929257,-100.2075664,23.333333333333332,wmoUnit:degC,97,34,16093.44,wmoUnit:m,,,,,,
Willacy,26.47132899,-97.64303323,32.77777777777778,wmoUnit:degC,65,9,,,,,,,,
Bastrop,30.10353518,-97.31187705,30.555555555555557,wmoUnit:degC,77,20,16093.44,wmoUnit:m,,,,,,
Kimble,30.48676251,-99.74892716,30.0,wmoUnit:degC,61,0,16093.44,wmoUnit:m,,,,,,
Scurry,32.74720063,-100.9165071,27.77777777777778,wmoUnit:degC,67,0,16093.44,wmoUnit:m,,,,,,
Ochiltree,36.27846334,-100.815653,20.555555555555557,wmoUnit:degC,87,33,,,,,,,,
Hansford,36.27753179,-101.3545624,20.555555555555557,wmoUnit:degC,84,28,,,,,,,,
Hartley,35.83996755,-102.6028835,25.555555555555557,wmoUnit:degC,47,0,,,,,,,,
Cameron,26.13847728,-97.51499968,33.333333333333336,wmoUnit:degC,59,11,,,,,,,,
Matagorda,28.86711039,-95.98533866,30.555555555555557,wmoUnit:degC,82,28,16093.44,wmoUnit:m,,,,,,
Burnet,30.78843382,-98.18252382,28.333333333333332,wmoUnit:degC,77,1,16093.44,wmoUnit:m,,,,,,
Rains,32.87004212,-95.79347545,27.22222222222222,wmoUnit:degC,82,27,16093.44,wmoUnit:m,,,,,,
Hays,30.05782657,-98.03104087,28.88888888888889,wmoUnit:degC,77,4,16093.44,wmoUnit:m,,,,,,
Mason,30.71742293,-99.2263026,30.0,wmoUnit:degC,61,1,16093.44,wmoUnit:m,,,,,,
Ward,31.509424,-103.1024636,30.555555555555557,wmoUnit:degC,53,0,16093.44,wmoUnit:m,SV,A,Severe Thunderstorm Watch,Severe,Future,2025-06-16T00:00:00-05:00
Delta,33.38623601,-95.67221685,25.555555555555557,wmoUnit:degC,88,37,16093.44,wmoUnit:m,,,,,,
Nueces,27.72621549,-97.61767326,30.555555555555557,wmoUnit:degC,77,16,16093.44,wmoUnit:m,,,,,,
Callahan,32.2977738,-99.37359692,19.444444444444443,wmoUnit:degC,100,58,16093.44,wmoUnit:m,,,,,,
Bell,31.03778267,-97.47790776,28.88888888888889,wmoUnit:degC,80,5,16093.44,wmoUnit:m,,,,,,
Cherokee,31.83695632,-95.16515234,25.555555555555557,wmoUnit:degC,97,20,16093.44,wmoUnit:m,,,Flood Warning,Severe,Immediate,2025-06-16T11:30:00-05:00
Ellis,32.34839264,-96.79467417,28.333333333333332,wmoUnit:degC,82,41,16093.44,wmoUnit:m,,,,,,
Lubbock,33.6101944,-101.8205745,26.11111111111111,wmoUnit:degC,69,8,16093.44,wmoUnit:m,,,,,,
Terrell,30.22502597,-102.0764533,30.0,wmoUnit:degC,59,0,16093.44,wmoUnit:m,,,,,,
Crockett,30.72291931,-101.4118364,30.0,wmoUnit:degC,55,0,16093.44,wmoUnit:m,,,,,,
Atascosa,28.89418432,-98.52741302,31.11111111111111,wmoUnit:degC,66,5,16093.44,wmoUnit:m,,,Special Weather Statement,Moderate,Expected,2025-06-15T18:30:00-05:00
Ector,31.86908156,-102.5430907,28.333333333333332,wmoUnit:degC,63,0,16093.44,wmoUnit:m,,,,,,
Brazos,30.6610425,-96.3022943,30.555555555555557,wmoUnit:degC,80,21,15803.757588867158,wmoUnit:m,,,Flood Advisory,Minor,Expected,2025-06-15T19:00:00-05:00
Aransas,28.12709562,-96.99258951,29.444444444444443,wmoUnit:degC,88,13,16093.44,wmoUnit:m,,,,,,
Dallas,32.76653746,-96.77781862,28.88888888888889,wmoUnit:degC,74,46,16093.44,wmoUnit:m,,,,,,
Howard,32.30610232,-101.4355097,28.88888888888889,wmoUnit:degC,61,0,16093.44,wmoUnit:m,,,,,,
Motley,34.07409017,-100.7798961,24.444444444444443,wmoUnit:degC,78,27,16093.44,wmoUnit:m,,,,,,
San Augustine,31.39427005,-94.16809762,27.77777777777778,wmoUnit:degC,82,18,16093.44,wmoUnit:m,,,,,,
Maverick,28.74260943,-100.3144638,30.555555555555557,wmoUnit:degC,72,0,16093.44,wmoUnit:m,,,,,,
Erath,32.23640361,-98.21722756,27.22222222222222,wmoUnit:degC,77,68,9656.064,wmoUnit:m,,,,,,
Dickens,33.61663428,-100.7788138,24.444444444444443,wmoUnit:degC,78,26,16093.44,wmoUnit:m,,,,,,
Caldwell,29.83677935,-97.61983479,30.0,wmoUnit:degC,77,14,16093.44,wmoUnit:m,,,Flood Advisory,Minor,Expected,2025-06-15T19:15:00-05:00
Dawson,32.74258137,-101.9476136,28.88888888888889,wmoUnit:degC,61,0,16093.44,wmoUnit:m,,,,,,
Camp,32.97321771,-94.97860185,26.666666666666668,wmoUnit:degC,85,42,16093.44,wmoUnit:m,,,,,,
Duval,27.68133382,-98.50889672,29.444444444444443,wmoUnit:degC,75,7,16093.44,wmoUnit:m,,,,,,
Hunt,33.123531,-96.08550014,26.11111111111111,wmoUnit:degC,88,41,16093.44,wmoUnit:m,,,,,,
Mills,31.49524259,-98.59552736,27.77777777777778,wmoUnit:degC,77,19,16093.44,wmoUnit:m,,,,,,
Val Verde,29.89300587,-101.15171,28.333333333333332,wmoUnit:degC,70,0,16093.44,wmoUnit:m,,,,,,
Pecos,30.78100044,-102.7235743,29.444444444444443,wmoUnit:degC,57,0,16093.44,wmoUnit:m,,,,,,
Baylor,33.61648147,-99.21351964,25.0,wmoUnit:degC,81,3,,,,,,,,
Gregg,32.48036452,-94.81723694,27.22222222222222,wmoUnit:degC,82,34,16093.44,wmoUnit:m,,,Flood Warning,Severe,Immediate,2025-06-16T11:30:00-05:00
Cochran,33.60410808,-102.8285264,27.77777777777778,wmoUnit:degC,53,1,16093.44,wmoUnit:m,SV,A,Severe Thunderstorm Watch,Severe,Future,2025-06-16T00:00:00-05:00
Jasper,30.74391255,-94.02495849,28.333333333333332,wmoUnit:degC,85,36,12842.565150695822,wmoUnit:m,,,Flood Warning,Severe,Immediate,2025-06-16T11:15:00-05:00
Hamilton,31.70479181,-98.11066654,28.333333333333332,wmoUnit:degC,77,26,16093.44,wmoUnit:m,,,,,,
Castro,34.53000304,-102.2617608,24.444444444444443,wmoUnit:degC,64,4,16093.44,wmoUnit:m,,,,,,
Sterling,31.82786516,-101.0500699,31.666666666666668,wmoUnit:degC,54,0,16093.44,wmoUnit:m,,,,,,
Starr,26.56212627,-98.73834895,33.333333333333336,wmoUnit:degC,59,0,,,,,,,,
Crane,31.42846287,-102.5156425,29.444444444444443,wmoUnit:degC,61,0,16093.44,wmoUnit:m,,,,,,
Morris,33.11368507,-94.73205137,26.666666666666668,wmoUnit:degC,85,47,16093.44,wmoUnit:m,,,Flood Warning,Severe,Immediate,2025-06-16T11:45:00-05:00
Briscoe,34.53041048,-101.2085769,24.444444444444443,wmoUnit:degC,84,26,16093.44,wmoUnit:m,,,,,,
Tom Green,31.4044442,-100.4620678,28.333333333333332,wmoUnit:degC,70,10,16093.44,wmoUnit:m,,,,,,
Menard,30.88981785,-99.82061472,28.88888888888889,wmoUnit:degC,65,0,16093.44,wmoUnit:m,,,,,,
Parker,32.77852261,-97.80472194,26.666666666666668,wmoUnit:degC,79,68,9656.064,wmoUnit:m,,,,,,
Walker,30.73899492,-95.57224172,30.555555555555557,wmoUnit:degC,77,22,14564.563506958068,wmoUnit:m,,,Flood Warning,Severe,Immediate,2025-06-16T08:00:00-05:00
Brooks,27.0315669,-98.21874127,33.333333333333336,wmoUnit:degC,61,2,,,,,,,,
La Salle,28.34621032,-99.1034773,31.11111111111111,wmoUnit:degC,68,0,16093.44,wmoUnit:m,,,,,,
Edwards,29.98248216,-100.3048937,27.22222222222222,wmoUnit:degC,72,1,16093.44,wmoUnit:m,,,,,,
Lee,30.31065065,-96.96568735,29.444444444444443,wmoUnit:degC,75,22,16093.44,wmoUnit:m,,,,,,
Robertson,31.02705415,-96.51272568,27.77777777777778,wmoUnit:degC,91,5,16093.44,wmoUnit:m,,,Flood Warning,Severe,Immediate,2025-06-16T08:00:00-05:00
Young,33.17670764,-98.68781396,27.22222222222222,wmoUnit:degC,65,71,9656.064,wmoUnit:m,,,,,,
Bee,28.41736675,-97.74116811,30.0,wmoUnit:degC,77,18,16093.44,wmoUnit:m,,,,,,
Clay,33.78379717,-98.208958,21.666666666666668,wmoUnit:degC,89,29,,,,,,,,
San Jacinto,30.57948905,-95.16683273,29.444444444444443,wmoUnit:degC,82,26,15337.047890258802,wmoUnit:m,,,Flood Warning,Severe,Immediate,2025-06-16T08:00:00-05:00
Uvalde,29.35669829,-99.76203107,29.444444444444443,wmoUnit:degC,75,1,16093.44,wmoUnit:m,,,,,,
Haskell,33.17824805,-99.73029401,19.444444444444443,wmoUnit:degC,100,50,16093.44,wmoUnit:m,,,,,,
Somervell,32.22229511,-97.77456553,28.88888888888889,wmoUnit:degC,74,63,9656.064,wmoUnit:m,,,,,,
Bexar,29.44884523,-98.51966309,30.0,wmoUnit:degC,72,4,16093.44,wmoUnit:m,,,Special Weather Statement,Moderate,Expected,2025-06-15T18:30:00-05:00
Grayson,33.62684371,-96.67764864,22.22222222222222,wmoUnit:degC,87,60,9656.064,wmoUnit:m,,,,,,
Bailey,34.0684915,-102.8299069,26.666666666666668,wmoUnit:degC,57,1,16093.44,wmoUnit:m,,,,,,
Jones,32.73970429,-99.87850599,19.444444444444443,wmoUnit:degC,100,38,16093.44,wmoUnit:m,,,,,,
Jefferson,29.88425832,-94.1708778,28.88888888888889,wmoUnit:degC,82,46,16045.160109741197,wmoUnit:m,,,Flood Warning,Severe,Immediate,2025-06-16T11:15:00-05:00
Rusk,32.10803224,-94.76169577,27.22222222222222,wmoUnit:degC,88,27,16093.44,wmoUnit:m,,,,,,
Glasscock,31.8694238,-101.520742,28.88888888888889,wmoUnit:degC,63,0,16093.44,wmoUnit:m,,,,,,
Gillespie,30.31800246,-98.94627245,27.77777777777778,wmoUnit:degC,77,0,16093.44,wmoUnit:m,,,,,,
Fisher,32.74305155,-100.4019503,20.555555555555557,wmoUnit:degC,100,31,16093.44,wmoUnit:m,,,,,,
Henderson,32.21188078,-95.85356847,27.22222222222222,wmoUnit:degC,82,24,16093.44,wmoUnit:m,,,Flood Warning,Severe,Immediate,2025-06-16T07:45:00-05:00
Shackelford,32.7360276,-99.35403034,18.333333333333332,wmoUnit:degC,100,61,16093.44,wmoUnit:m,,,,,,
Palo Pinto,32.75316856,-98.31299522,27.22222222222222,wmoUnit:degC,77,69,9656.064,wmoUnit:m,,,,,,
Wilbarger,34.08044953,-99.24089568,22.22222222222222,wmoUnit:degC,82,6,,,,,,,,
Floyd,34.07239775,-101.3033037,26.11111111111111,wmoUnit:degC,73,19,16093.44,wmoUnit:m,,,,,,
Orange,30.12807126,-93.89653794,28.88888888888889,wmoUnit:degC,82,44,16093.44,wmoUnit:m,,,Flood Warning,Severe,Immediate,2025-06-16T11:15:00-05:00
Runnels,31.83105393,-99.97624799,31.666666666666668,wmoUnit:degC,56,23,16093.44,wmoUnit:m,,,,,,
Coleman,31.77329421,-99.45362579,30.0,wmoUnit:degC,61,29,16093.44,wmoUnit:m,,,,,,
Martin,32.30605847,-101.9512464,28.88888888888889,wmoUnit:degC,63,0,16093.44,wmoUnit:m,,,,,,
Wheeler,35.40129002,-100.2697634,19.444444444444443,wmoUnit:degC,93,34,,,,,,,,
Culberson,31.44709817,-104.5177421,30.0,wmoUnit:degC,31,0,16093.44,wmoUnit:m,SV,A,Severe Thunderstorm Warning,Severe,Immediate,2025-06-15T18:15:00-05:00
Mitchell,32.30636024,-100.9211128,30.555555555555557,wmoUnit:degC,59,1,16093.44,wmoUnit:m,,,,,,
Hudspeth,31.45613738,-105.3869428,22.77777777777778,wmoUnit:degC,43,0,16093.44,wmoUnit:m,HT,Y,Heat Advisory,Moderate,Expected,2025-06-16T08:00:00-06:00
Upshur,32.7362827,-94.94132011,27.22222222222222,wmoUnit:degC,85,38,16093.44,wmoUnit:m,,,Flood Warning,Severe,Immediate,2025-06-16T11:30:00-05:00
Liberty,30.15153187,-94.8120925,31.666666666666668,wmoUnit:degC,70,27,15675.010191650448,wmoUnit:m,,,Flood Warning,Severe,Immediate,2025-06-16T08:00:00-05:00
Williamson,30.64834941,-97.60105467,30.0,wmoUnit:degC,77,3,16093.44,wmoUnit:m,,,,,,
Nacogdoches,31.61604108,-94.6158776,26.666666666666668,wmoUnit:degC,91,20,16093.44,wmoUnit:m,,,Flood Warning,Severe,Immediate,2025-06-16T11:30:00-05:00
Loving,31.84912973,-103.5799063,28.88888888888889,wmoUnit:degC,61,0,16093.44,wmoUnit:m,SV,A,Severe Thunderstorm Watch,Severe,Future,2025-06-16T00:00:00-05:00
Jim Wells,27.73131099,-98.0898649,30.555555555555557,wmoUnit:degC,75,9,16093.44,wmoUnit:m,,,,,,
Upton,31.36853957,-102.0430005,27.22222222222222,wmoUnit:degC,69,0,16093.44,wmoUnit:m,,,,,,
Newton,30.78619977,-93.74462993,27.77777777777778,wmoUnit:degC,85,35,14355.34860278313,wmoUnit:m,,,Flood Warning,Severe,Immediate,2025-06-16T11:15:00-05:00
Lamar,33.66746186,-95.57110784,23.333333333333332,wmoUnit:degC,93,41,16093.44,wmoUnit:m,,,,,,
Polk,30.79250963,-94.82994949,31.11111111111111,wmoUnit:degC,70,26,15208.300493041934,wmoUnit:m,,,Flood Warning,Severe,Immediate,2025-06-16T08:00:00-05:00
Collin,33.18789055,-96.57248871,27.77777777777778,wmoUnit:degC,74,49,16093.44,wmoUnit:m,,,,,,
Hardeman,34.28865227,-99.7453851,23.333333333333332,wmoUnit:degC,81,18,,,,,,,,
McMullen,28.35351091,-98.56842256,30.0,wmoUnit:degC,77,6,16093.44,wmoUnit:m,,,,,,
Cottle,34.0776571,-100.2786983,23.333333333333332,wmoUnit:degC,93,35,16093.44,wmoUnit:m,,,,,,
Frio,28.86726774,-99.10826004,31.666666666666668,wmoUnit:degC,66,0,16093.44,wmoUnit:m,,,Special Weather Statement,Moderate,Expected,2025-06-15T18:30:00-05:00
Gray,35.40130666,-100.812475,20.555555555555557,wmoUnit:degC,78,34,,,,,,,,
Dallam,36.27777107,-102.6021647,24.444444444444443,wmoUnit:degC,43,0,,,,,,,,
Kenedy,26.92409448,-97.68137783,32.77777777777778,wmoUnit:degC,68,16,,,,,,,,
Fort Bend,29.52763253,-95.77090562,31.11111111111111,wmoUnit:degC,72,37,13647.236383300737,wmoUnit:m,,,Flood Warning,Severe,Immediate,2025-06-16T08:00:00-05:00
Armstrong,34.96522076,-101.3572412,23.333333333333332,wmoUnit:degC,71,13,,,,,,,,
Collingsworth,34.96498493,-100.2700733,18.333333333333332,wmoUnit:degC,97,33,,,,,,,,
Cass,33.07750446,-94.34348771,26.11111111111111,wmoUnit:degC,88,49,16093.44,wmoUnit:m,,,Flood Warning,Severe,Immediate,2025-06-16T11:30:00-05:00
Sherman,36.27765824,-101.8933822,22.22222222222222,wmoUnit:degC,73,6,,,,,,,,
Terry,33.17373729,-102.335157,27.22222222222222,wmoUnit:degC,59,2,16093.44,wmoUnit:m,,,,,,
Limestone,31.54541898,-96.58056718,27.77777777777778,wmoUnit:degC,88,17,16093.44,wmoUnit:m,,,,,,
Real,29.83182711,-99.82215881,27.22222222222222,wmoUnit:degC,72,1,16093.44,wmoUnit:m,,,,,,
Lynn,33.17685487,-101.8160235,26.666666666666668,wmoUnit:degC,67,5,16093.44,wmoUnit:m,,,,,,
Lavaca,29.38437003,-96.93020993,29.444444444444443,wmoUnit:degC,85,44,16093.44,wmoUnit:m,,,,,,
Nolan,32.3034718,-100.4060989,21.666666666666668,wmoUnit:degC,90,20,16093.44,wmoUnit:m,,,,,,
Gaines,32.74074537,-102.6351246,28.88888888888889,wmoUnit:degC,59,0,16093.44,wmoUnit:m,SV,A,Severe Thunderstorm Watch,Severe,Future,2025-06-16T00:00:00-05:00
Montgomery,30.30022409,-95.50301411,31.666666666666668,wmoUnit:degC,75,26,14403.628493041933,wmoUnit:m,,,Flood Advisory,Minor,Expected,2025-06-15T18:15:00-05:00
Concho,31.32645211,-99.86413426,28.88888888888889,wmoUnit:degC,67,12,16093.44,wmoUnit:m,,,,,,
Hardin,30.33238431,-94.39021394,28.333333333333332,wmoUnit:degC,85,29,15948.59879443358,wmoUnit:m,,,Flood Warning,Severe,Immediate,2025-06-16T11:15:00-05:00
Harris,29.85967144,-95.39782106,31.666666666666668,wmoUnit:degC,70,35,14757.68460278313,wmoUnit:m,,,Flood Advisory,Minor,Expected,2025-06-15T18:15:00-05:00
Leon,31.29655719,-95.99554292,29.444444444444443,wmoUnit:degC,82,8,16093.44,wmoUnit:m,,,Flood Warning,Severe,Immediate,2025-06-16T08:00:00-05:00
Bowie,33.44572786,-94.42324298,25.555555555555557,wmoUnit:degC,91,52,16093.44,wmoUnit:m,,,Flood Warning,Severe,Immediate,2025-06-16T11:30:00-05:00
Kaufman,32.59927808,-96.28779341,28.333333333333332,wmoUnit:degC,80,39,16093.44,wmoUnit:m,,,,,,
Anderson,31.81321543,-95.65251774,27.77777777777778,wmoUnit:degC,82,20,16093.44,wmoUnit:m,,,Flood Warning,Severe,Immediate,2025-06-16T07:45:00-05:00
San Saba,31.15520543,-98.81754295,29.444444444444443,wmoUnit:degC,67,4,16093.44,wmoUnit:m,,,,,,
Schleicher,30.89661056,-100.538097,28.333333333333332,wmoUnit:degC,61,0,16093.44,wmoUnit:m,,,,,,
Colorado,29.6208542,-96.52630821,30.0,wmoUnit:degC,80,34,16093.44,wmoUnit:m,,,,,,
Milam,30.78625299,-96.97683495,28.333333333333332,wmoUnit:degC,88,4,16093.44,wmoUnit:m,,,,,,
Live Oak,28.3514375,-98.12474493,31.11111111111111,wmoUnit:degC,72,12,16093.44,wmoUnit:m,,,,,,
Borden,32.7436916,-101.4317533,28.88888888888889,wmoUnit:degC,63,0,16093.44,wmoUnit:m,,,,,,
McCulloch,31.19896752,-99.34754972,30.0,wmoUnit:degC,61,5,16093.44,wmoUnit:m,,,,,,
Johnson,32.37899918,-97.36660504,27.77777777777778,wmoUnit:degC,82,50,16093.44,wmoUnit:m,,,,,,
Montague,33.67496328,-97.72466993,21.11111111111111,wmoUnit:degC,87,66,9656.064,wmoUnit:m,,,,,,
Stonewall,33.17842158,-100.255259,25.555555555555557,wmoUnit:degC,84,35,16093.44,wmoUnit:m,,,,,,
Comal,29.80816362,-98.27814516,27.77777777777778,wmoUnit:degC,82,3,16093.44,wmoUnit:m,,,Flood Advisory,Minor,Expected,2025-06-15T20:30:00-05:00
Eastland,32.32739258,-98.8325713,28.333333333333332,wmoUnit:degC,72,68,9656.064,wmoUnit:m,,,,,,
Comanche,31.9490639,-98.55841538,28.88888888888889,wmoUnit:degC,72,55,16093.44,wmoUnit:m,,,,,,
King,33.61641863,-100.2558584,24.444444444444443,wmoUnit:degC,93,35,16093.44,wmoUnit:m,,,,,,
Washington,30.2145299,-96.40356575,30.555555555555557,wmoUnit:degC,77,24,16093.44,wmoUnit:m,,,,,,
Webb,27.76102524,-99.33170164,30.0,wmoUnit:degC,68,0,16093.44,wmoUnit:m,,,,,,
Fayette,29.87683207,-96.91968047,30.555555555555557,wmoUnit:degC,77,33,16093.44,wmoUnit:m,,,,,,
Harrison,32.54814898,-94.37155736,25.555555555555557,wmoUnit:degC,97,40,16093.44,wmoUnit:m,,,,,,
Presidio,29.99977786,-104.2405552,28.333333333333332,wmoUnit:degC,44,0,16093.44,wmoUnit:m,,,,,,
Austin,29.88711223,-96.27791829,30.555555555555557,wmoUnit:degC,75,28,14950.805698608354,wmoUnit:m,,,,,,
Randall,34.96594288,-101.8968527,24.444444444444443,wmoUnit:degC,76,0,,,,,,,,
Hood,32.43107878,-97.83280338,27.77777777777778,wmoUnit:degC,77,68,9656.064,wmoUnit:m,,,,,,
Victoria,28.79640594,-96.97176602,30.555555555555557,wmoUnit:degC,82,6,16093.44,wmoUnit:m,,,Flood Warning,Severe,Immediate,2025-06-16T00:00:00-05:00
Hutchinson,35.84000866,-101.3547257,21.11111111111111,wmoUnit:degC,78,22,,,,,,,,
Coryell,31.39087578,-97.7991883,28.88888888888889,wmoUnit:degC,80,14,16093.44,wmoUnit:m,,,,,,
Jackson,28.95603133,-96.57883268,30.555555555555557,wmoUnit:degC,80,38,15481.889095825225,wmoUnit:m,,,,,,
Taylor,32.30138229,-99.89003941,17.22222222222222,wmoUnit:degC,100,32,16093.44,wmoUnit:m,,,,,,
Zapata,27.00089072,-99.16860134,32.77777777777778,wmoUnit:degC,56,2,,,,,,,,
San Patricio,28.00922186,-97.51859857,30.555555555555557,wmoUnit:degC,82,15,16093.44,wmoUnit:m,,,,,,
Grimes,30.54360689,-95.98557334,31.11111111111111,wmoUnit:degC,77,22,15240.488109741196,wmoUnit:m,,,Flood Warning,Severe,Immediate,2025-06-16T08:00:00-05:00
Lamb,34.06861242,-102.3517095,25.555555555555557,wmoUnit:degC,60,4,16093.44,wmoUnit:m,,,,,,
