countyName,latitude,longitude,temperature,temperature_unit,relativeHumidity,precipitationProbability,visibility,visibility_unit,hazard_phenomenon,hazard_significance,alert_event,alert_severity,alert_urgency,alert_expires
Foard,33.97408519,-99.77871109,18.333333333333332,wmoUnit:degC,94,16,,,,,,,,
Blanco,30.26636128,-98.39974086,25.0,wmoUnit:degC,89,16,16093.44,wmoUnit:m,TO,A,Tornado Watch,Extreme,Future,2025-05-26T22:00:00-05:00
Hockley,33.60750375,-102.3430919,18.333333333333332,wmoUnit:degC,70,10,16093.44,wmoUnit:m,,,,,,
Llano,30.70566579,-98.68387398,22.22222222222222,wmoUnit:degC,87,22,16093.44,wmoUnit:m,TO,A,Tornado Watch,Extreme,Future,2025-05-26T22:00:00-05:00
Swisher,34.53064989,-101.734951,16.666666666666668,wmoUnit:degC,93,14,16093.44,wmoUnit:m,,,,,,
Titus,33.2160906,-94.96509786,19.444444444444443,wmoUnit:degC,100,95,4683.191178131122,wmoUnit:m,FA,A,Flood Warning,Severe,Immediate,2025-05-27T09:45:00-05:00
Navarro,32.04695429,-96.47248134,20.0,wmoUnit:degC,93,100,9479.0359451294,wmoUnit:m,FA,A,Flood Warning,Severe,Immediate,2025-05-27T08:45:00-05:00
Brazoria,29.19345387,-95.45578479,28.88888888888889,wmoUnit:degC,82,8,16093.44,wmoUnit:m,,,Rip Current Statement,Moderate,Expected,2025-05-26T23:00:00-05:00
Hidalgo,26.396627,-98.18088681,30.555555555555557,wmoUnit:degC,70,0,,,,,Special Weather Statement,Moderate,Expected,2025-05-26T19:00:00-05:00
Archer,33.61539176,-98.68783437,19.444444444444443,wmoUnit:degC,91,55,,,,,,,,
Refugio,28.32681413,-97.16546961,27.77777777777778,wmoUnit:degC,85,18,11378.062356262244,wmoUnit:m,,,,,,
Andrews,32.30506283,-102.6378839,18.333333333333332,wmoUnit:degC,87,0,16093.44,wmoUnit:m,,,,,,
Galveston,29.39424415,-94.96474975,30.0,wmoUnit:degC,80,9,16093.44,wmoUnit:m,,,Rip Current Statement,Moderate,Expected,2025-05-26T23:00:00-05:00
De Witt,29.08201599,-97.35666976,28.333333333333332,wmoUnit:degC,79,3,16093.44,wmoUnit:m,,,,,,
Gonzales,29.45641495,-97.49279927,27.77777777777778,wmoUnit:degC,81,7,16093.44,wmoUnit:m,,,,,,
Wharton,29.2778362,-96.22197375,28.333333333333332,wmoUnit:degC,82,9,16093.44,wmoUnit:m,,,,,,
Fannin,33.59396919,-96.10656755,18.88888888888889,wmoUnit:degC,97,100,6276.441753478953,wmoUnit:m,FA,A,,,,
Madison,30.96564645,-95.92818441,20.555555555555557,wmoUnit:degC,87,50,16093.44,wmoUnit:m,,,,,,
Moore,35.83768863,-101.8929556,14.444444444444445,wmoUnit:degC,93,76,,,,,,,,
Tyler,30.7712607,-94.37651432,25.555555555555557,wmoUnit:degC,91,6,11088.379945129402,wmoUnit:m,,,,,,
Lipscomb,36.27778432,-100.27317,15.555555555555555,wmoUnit:degC,93,54,,,,,,,,
Burleson,30.49246139,-96.62109399,26.666666666666668,wmoUnit:degC,79,33,16093.44,wmoUnit:m,,,,,,
Jim Hogg,27.04340499,-98.6972921,29.444444444444443,wmoUnit:degC,72,0,,,,,Special Weather Statement,Moderate,Expected,2025-05-26T19:00:00-05:00
Throckmorton,33.17753907,-99.21236832,19.444444444444443,wmoUnit:degC,93,31,11265.408,wmoUnit:m,,,,,,
Kleberg,27.43274395,-97.72889778,27.22222222222222,wmoUnit:degC,88,8,13373.649315307619,wmoUnit:m,,,,,,
Shelby,31.79242191,-94.14495261,18.333333333333332,wmoUnit:degC,97,54,9656.064,wmoUnit:m,FA,A,Flood Watch,Severe,Future,2025-05-27T07:00:00-05:00
Garza,33.17991074,-101.2984496,18.88888888888889,wmoUnit:degC,84,11,16093.44,wmoUnit:m,,,,,,
Karnes,28.90493782,-97.85960621,28.333333333333332,wmoUnit:degC,72,4,16093.44,wmoUnit:m,,,,,,
Reeves,31.32307061,-103.693143,20.555555555555557,wmoUnit:degC,68,0,16093.44,wmoUnit:m,,,,,,
Houston,31.31764137,-95.42225367,19.444444444444443,wmoUnit:degC,100,68,9656.064,wmoUnit:m,,,,,,
El Paso,31.7686226,-106.2352229,16.666666666666668,wmoUnit:degC,15,0,16093.44,wmoUnit:m,,,,,,
Carson,35.40346802,-101.3542037,15.0,wmoUnit:degC,96,58,,,,,,,,
Medina,29.35520493,-99.11008331,27.77777777777778,wmoUnit:degC,77,15,16093.44,wmoUnit:m,TO,A,Tornado Watch,Extreme,Future,2025-05-26T22:00:00-05:00
Wichita,33.98421585,-98.70153389,18.88888888888889,wmoUnit:degC,92,47,,,,,,,,
Chambers,29.73912276,-94.60891308,28.88888888888889,wmoUnit:degC,80,10,16093.44,wmoUnit:m,,,,,,
Donley,34.96540246,-100.8140501,17.22222222222222,wmoUnit:degC,93,27,,,,,,,,
Hopkins,33.14933822,-95.56414173,20.0,wmoUnit:degC,100,100,9656.064,wmoUnit:m,FA,A,Flood Watch,Severe,Future,2025-05-26T20:30:00-05:00
Lampasas,31.19627791,-98.24142711,23.88888888888889,wmoUnit:degC,87,41,16093.44,wmoUnit:m,,,,,,
Falls,31.25317017,-96.93579511,25.0,wmoUnit:degC,90,40,12810.378301391645,wmoUnit:m,FA,A,Flood Watch,Severe,Future,2025-05-26T20:30:00-05:00
Stephens,32.73584155,-98.83612016,18.88888888888889,wmoUnit:degC,100,99,9656.064,wmoUnit:m,,,Special Weather Statement,Moderate,Expected,2025-05-26T16:30:00-05:00
Travis,30.33423319,-97.78194654,26.11111111111111,wmoUnit:degC,85,13,9656.064,wmoUnit:m,TO,A,Tornado Watch,Extreme,Future,2025-05-26T22:00:00-05:00
Roberts,35.8385577,-100.8135689,15.555555555555555,wmoUnit:degC,96,55,,,,,,,,
Crosby,33.61459873,-101.2998612,17.77777777777778,wmoUnit:degC,87,11,16093.44,wmoUnit:m,,,,,,
Kerr,30.06153035,-99.35016969,26.666666666666668,wmoUnit:degC,75,22,16093.44,wmoUnit:m,TO,A,Tornado Watch,Extreme,Future,2025-05-26T22:00:00-05:00
Wood,32.78634374,-95.38206498,20.0,wmoUnit:degC,93,95,7885.785753478953,wmoUnit:m,FA,A,Flood Warning,Severe,Expected,2025-05-27T09:30:00-05:00
Jack,33.23345819,-98.1725509,17.77777777777778,wmoUnit:degC,97,100,9656.064,wmoUnit:m,,,Special Weather Statement,Moderate,Expected,2025-05-26T16:30:00-05:00
Marion,32.79797929,-94.35725239,20.0,wmoUnit:degC,97,94,6356.908876739477,wmoUnit:m,FA,A,Flood Warning,Severe,Expected,2025-05-27T09:45:00-05:00
Hale,34.07051782,-101.8269082,17.77777777777778,wmoUnit:degC,81,11,16093.44,wmoUnit:m,,,,,,
Jeff Davis,30.71559322,-104.1403539,20.555555555555557,wmoUnit:degC,16,0,16093.44,wmoUnit:m,,,,,,
Tarrant,32.77185236,-97.29116473,19.444444444444443,wmoUnit:degC,90,100,6276.441753478953,wmoUnit:m,FA,A,Flood Advisory,Minor,Expected,2025-05-26T18:30:00-05:00
Waller,30.01093722,-95.98768942,27.22222222222222,wmoUnit:degC,85,16,11265.408,wmoUnit:m,,,,,,
Reagan,31.36617698,-101.5230108,25.0,wmoUnit:degC,64,4,16093.44,wmoUnit:m,TO,A,Tornado Watch,Extreme,Future,2025-05-26T22:00:00-05:00
Smith,32.37514553,-95.26909511,19.444444444444443,wmoUnit:degC,100,91,6356.908876739477,wmoUnit:m,FA,A,Flood Warning,Severe,Immediate,2025-05-27T13:45:00-05:00
Van Zandt,32.56368961,-95.8364862,19.444444444444443,wmoUnit:degC,90,100,9656.064,wmoUnit:m,FA,A,Flood Watch,Severe,Future,2025-05-26T20:30:00-05:00
Cooke,33.638465,-97.21247642,18.333333333333332,wmoUnit:degC,97,100,6276.441753478953,wmoUnit:m,FA,A,,,,
Zavala,28.86530621,-99.76102001,28.333333333333332,wmoUnit:degC,77,12,16093.44,wmoUnit:m,TO,A,Tornado Watch,Extreme,Future,2025-05-26T22:00:00-05:00
Hall,34.53074134,-100.6809876,20.0,wmoUnit:degC,87,10,16093.44,wmoUnit:m,,,,,,
Kendall,29.9446397,-98.71160511,25.0,wmoUnit:degC,91,19,16093.44,wmoUnit:m,TO,A,Tornado Watch,Extreme,Future,2025-05-26T22:00:00-05:00
Goliad,28.65708563,-97.42646082,26.666666666666668,wmoUnit:degC,85,27,13663.330191650448,wmoUnit:m,,,,,,
Yoakum,33.17293501,-102.8278792,17.77777777777778,wmoUnit:degC,75,9,16093.44,wmoUnit:m,,,,,,
Knox,33.60614755,-99.74144313,18.88888888888889,wmoUnit:degC,95,18,,,,,,,,
McLennan,31.55234489,-97.20184883,18.88888888888889,wmoUnit:degC,97,87,9656.064,wmoUnit:m,FA,A,Flood Watch,Severe,Future,2025-05-26T20:30:00-05:00
Brewster,29.81205836,-103.2518906,26.11111111111111,wmoUnit:degC,22,0,16093.44,wmoUnit:m,,,,,,
Panola,32.16222886,-94.30552858,20.0,wmoUnit:degC,97,82,9656.064,wmoUnit:m,FA,A,Flood Watch,Severe,Future,2025-05-27T07:00:00-05:00
Bandera,29.74724753,-99.24637282,24.444444444444443,wmoUnit:degC,88,26,16093.44,wmoUnit:m,TO,A,Tornado Watch,Extreme,Future,2025-05-26T22:00:00-05:00
Parmer,34.53014507,-102.784594,15.0,wmoUnit:degC,93,17,16093.44,wmoUnit:m,,,,,,
Rockwall,32.89786769,-96.40780584,18.88888888888889,wmoUnit:degC,100,100,6276.441753478953,wmoUnit:m,FA,A,Flood Warning,Severe,Immediate,2025-05-27T08:15:00-05:00
Trinity,31.0885069,-95.13551682,21.666666666666668,wmoUnit:degC,84,49,16093.44,wmoUnit:m,,,,,,
Bosque,31.90050476,-97.63437613,19.444444444444443,wmoUnit:degC,97,100,9656.064,wmoUnit:m,FA,A,Flood Watch,Severe,Future,2025-05-26T20:30:00-05:00
Coke,31.88849293,-100.5298747,21.666666666666668,wmoUnit:degC,76,20,16093.44,wmoUnit:m,TO,A,Tornado Watch,Extreme,Future,2025-05-26T22:00:00-05:00
Franklin,33.17550691,-95.21841437,19.444444444444443,wmoUnit:degC,100,94,4683.191178131122,wmoUnit:m,FA,A,Flood Warning,Severe,Immediate,2025-05-27T09:45:00-05:00
Hill,31.99079033,-97.1324142,18.88888888888889,wmoUnit:degC,100,100,9656.064,wmoUnit:m,FA,A,Flood Watch,Severe,Future,2025-05-26T20:30:00-05:00
Calhoun,28.48966896,-96.64708119,28.333333333333332,wmoUnit:degC,85,17,13792.077588867158,wmoUnit:m,,,,,,
Irion,31.30393203,-100.9824126,24.444444444444443,wmoUnit:degC,71,7,16093.44,wmoUnit:m,TO,A,Severe Thunderstorm Warning,Severe,Immediate,2025-05-26T16:45:00-05:00
Midland,31.86921148,-102.0315032,21.666666666666668,wmoUnit:degC,76,1,16093.44,wmoUnit:m,,,,,,
Brown,31.77432313,-98.99989649,20.555555555555557,wmoUnit:degC,84,36,11265.408,wmoUnit:m,,,,,,
Wilson,29.17315896,-98.08621015,27.77777777777778,wmoUnit:degC,74,6,16093.44,wmoUnit:m,TO,A,Tornado Watch,Extreme,Future,2025-05-26T22:00:00-05:00
Oldham,35.40497586,-102.6029949,14.444444444444445,wmoUnit:degC,96,64,,,,,,,,
Freestone,31.70486443,-96.14918535,25.0,wmoUnit:degC,90,51,11265.408,wmoUnit:m,FA,A,Flood Watch,Severe,Future,2025-05-26T20:30:00-05:00
Sabine,31.34321941,-93.85170439,27.22222222222222,wmoUnit:degC,79,19,12746.00460278313,wmoUnit:m,FA,A,Flood Watch,Severe,Future,2025-05-27T07:00:00-05:00
Deaf Smith,34.96602014,-102.6048162,13.88888888888889,wmoUnit:degC,100,53,,,,,,,,
Angelina,31.25475875,-94.611742,21.666666666666668,wmoUnit:degC,87,33,16093.44,wmoUnit:m,FA,A,Flood Watch,Severe,Future,2025-05-27T07:00:00-05:00
Kent,33.18284492,-100.7791031,18.88888888888889,wmoUnit:degC,87,13,16093.44,wmoUnit:m,,,,,,
Red River,33.62074539,-95.0501886,19.444444444444443,wmoUnit:degC,97,94,4055.546849304177,wmoUnit:m,FA,A,Flood Warning,Severe,Immediate,2025-05-27T14:45:00-05:00
Kinney,29.35000302,-100.4178441,26.666666666666668,wmoUnit:degC,63,16,16093.44,wmoUnit:m,,,,,,
Denton,33.205574,-97.11681154,18.88888888888889,wmoUnit:degC,97,100,6276.441753478953,wmoUnit:m,FA,A,Flood Warning,Severe,Immediate,2025-05-27T08:45:00-05:00
Sutton,30.49747152,-100.5382263,26.11111111111111,wmoUnit:degC,67,8,16093.44,wmoUnit:m,TO,A,Tornado Watch,Extreme,Future,2025-05-26T22:00:00-05:00
Guadalupe,29.58257236,-97.94850308,26.666666666666668,wmoUnit:degC,83,10,16093.44,wmoUnit:m,TO,A,Tornado Watch,Extreme,Future,2025-05-26T22:00:00-05:00
Winkler,31.85008609,-103.0484794,18.88888888888889,wmoUnit:degC,84,0,16093.44,wmoUnit:m,,,,,,
Dimmit,28.42161168,-99.760574,27.22222222222222,wmoUnit:degC,82,2,16093.44,wmoUnit:m,,,,,,
Wise,33.21585061,-97.65444124,17.77777777777778,wmoUnit:degC,100,100,7934.065643737756,wmoUnit:m,,,,,,
Hemphill,35.83750155,-100.2704628,16.666666666666668,wmoUnit:degC,93,47,,,,,,,,
Potter,35.40128927,-101.8940484,14.444444444444445,wmoUnit:degC,93,74,,,,,,,,
Childress,34.52929257,-100.2075664,19.444444444444443,wmoUnit:degC,87,9,16093.44,wmoUnit:m,,,,,,
Willacy,26.47132899,-97.64303323,30.0,wmoUnit:degC,75,1,,,,,Special Weather Statement,Moderate,Expected,2025-05-26T19:00:00-05:00
Bastrop,30.10353518,-97.31187705,28.333333333333332,wmoUnit:degC,77,8,16093.44,wmoUnit:m,,,,,,
Kimble,30.48676251,-99.74892716,27.22222222222222,wmoUnit:degC,69,10,16093.44,wmoUnit:m,TO,A,Severe Thunderstorm Warning,Severe,Immediate,2025-05-26T16:45:00-05:00
Scurry,32.74720063,-100.9165071,18.88888888888889,wmoUnit:degC,93,13,11265.408,wmoUnit:m,,,,,,
Ochiltree,36.27846334,-100.815653,14.444444444444445,wmoUnit:degC,96,63,,,,,,,,
Hansford,36.27753179,-101.3545624,14.444444444444445,wmoUnit:degC,93,66,,,,,,,,
Hartley,35.83996755,-102.6028835,14.444444444444445,wmoUnit:degC,90,62,,,,,,,,
Cameron,26.13847728,-97.51499968,30.555555555555557,wmoUnit:degC,70,1,,,,,Special Weather Statement,Moderate,Expected,2025-05-26T19:00:00-05:00
Matagorda,28.86711039,-95.98533866,28.88888888888889,wmoUnit:degC,85,8,16093.44,wmoUnit:m,,,Rip Current Statement,Moderate,Expected,2025-05-26T23:00:00-05:00
Burnet,30.78843382,-98.18252382,16.666666666666668,wmoUnit:degC,100,27,9656.064,wmoUnit:m,TO,A,Tornado Watch,Extreme,Future,2025-05-26T22:00:00-05:00
Rains,32.87004212,-95.79347545,20.555555555555557,wmoUnit:degC,90,100,9462.942904174775,wmoUnit:m,FA,A,Flood Watch,Severe,Future,2025-05-26T20:30:00-05:00
Hays,30.05782657,-98.03104087,26.11111111111111,wmoUnit:degC,85,13,16093.44,wmoUnit:m,TO,A,Tornado Watch,Extreme,Future,2025-05-26T22:00:00-05:00
Mason,30.71742293,-99.2263026,23.88888888888889,wmoUnit:degC,79,24,16093.44,wmoUnit:m,TO,A,Tornado Watch,Extreme,Future,2025-05-26T22:00:00-05:00
Ward,31.509424,-103.1024636,20.0,wmoUnit:degC,73,0,16093.44,wmoUnit:m,,,,,,
Delta,33.38623601,-95.67221685,20.0,wmoUnit:degC,100,100,7934.065643737756,wmoUnit:m,FA,A,Flood Watch,Severe,Future,2025-05-26T20:30:00-05:00
Nueces,27.72621549,-97.61767326,27.22222222222222,wmoUnit:degC,88,9,14033.480109741196,wmoUnit:m,,,,,,
Callahan,32.2977738,-99.37359692,19.444444444444443,wmoUnit:degC,84,32,11265.408,wmoUnit:m,,,,,,
Bell,31.03778267,-97.47790776,26.666666666666668,wmoUnit:degC,85,27,16093.44,wmoUnit:m,FA,A,Flood Watch,Severe,Future,2025-05-26T20:30:00-05:00
Cherokee,31.83695632,-95.16515234,19.444444444444443,wmoUnit:degC,100,87,4683.191178131122,wmoUnit:m,FA,A,Flood Warning,Severe,Immediate,2025-05-27T13:45:00-05:00
Ellis,32.34839264,-96.79467417,20.0,wmoUnit:degC,93,100,3958.9863013916456,wmoUnit:m,FA,A,Flood Watch,Severe,Future,2025-05-26T20:30:00-05:00
Lubbock,33.6101944,-101.8205745,18.88888888888889,wmoUnit:degC,78,10,16093.44,wmoUnit:m,,,,,,
Terrell,30.22502597,-102.0764533,26.666666666666668,wmoUnit:degC,62,1,16093.44,wmoUnit:m,,,,,,
Crockett,30.72291931,-101.4118364,26.11111111111111,wmoUnit:degC,62,5,16093.44,wmoUnit:m,TO,A,Tornado Watch,Extreme,Future,2025-05-26T22:00:00-05:00
Atascosa,28.89418432,-98.52741302,27.22222222222222,wmoUnit:degC,76,5,16093.44,wmoUnit:m,TO,A,Tornado Watch,Extreme,Future,2025-05-26T22:00:00-05:00
Ector,31.86908156,-102.5430907,19.444444444444443,wmoUnit:degC,84,0,16093.44,wmoUnit:m,,,,,,
Brazos,30.6610425,-96.3022943,22.22222222222222,wmoUnit:degC,81,36,16093.44,wmoUnit:m,,,,,,
Aransas,28.12709562,-96.99258951,27.77777777777778,wmoUnit:degC,91,13,10283.707945129401,wmoUnit:m,SC,Y,,,,
Dallas,32.76653746,-96.77781862,19.444444444444443,wmoUnit:degC,93,100,6276.441753478953,wmoUnit:m,FA,A,Flood Advisory,Minor,Expected,2025-05-26T18:30:00-05:00
Howard,32.30610232,-101.4355097,19.444444444444443,wmoUnit:degC,84,6,16093.44,wmoUnit:m,,,,,,
Motley,34.07409017,-100.7798961,19.444444444444443,wmoUnit:degC,87,11,16093.44,wmoUnit:m,,,,,,
San Augustine,31.39427005,-94.16809762,23.88888888888889,wmoUnit:degC,82,32,16093.44,wmoUnit:m,FA,A,Flood Watch,Severe,Future,2025-05-27T07:00:00-05:00
Maverick,28.74260943,-100.3144638,28.333333333333332,wmoUnit:degC,76,6,16093.44,wmoUnit:m,,,,,,
Erath,32.23640361,-98.21722756,17.77777777777778,wmoUnit:degC,93,100,3975.079726043654,wmoUnit:m,,,,,,
Dickens,33.61663428,-100.7788138,19.444444444444443,wmoUnit:degC,87,12,16093.44,wmoUnit:m,,,,,,
Caldwell,29.83677935,-97.61983479,27.77777777777778,wmoUnit:degC,83,10,16093.44,wmoUnit:m,,,,,,
Dawson,32.74258137,-101.9476136,18.333333333333332,wmoUnit:degC,87,2,16093.44,wmoUnit:m,,,,,,
Camp,32.97321771,-94.97860185,18.88888888888889,wmoUnit:degC,100,95,4683.191178131122,wmoUnit:m,FA,A,Flood Watch,Severe,Future,2025-05-27T07:00:00-05:00
Duval,27.68133382,-98.50889672,25.555555555555557,wmoUnit:degC,94,9,14532.375890258803,wmoUnit:m,,,,,,
Hunt,33.123531,-96.08550014,19.444444444444443,wmoUnit:degC,97,100,7934.065643737756,wmoUnit:m,FA,A,Flood Warning,Severe,Immediate,2025-05-27T08:15:00-05:00
Mills,31.49524259,-98.59552736,19.444444444444443,wmoUnit:degC,97,53,16093.44,wmoUnit:m,,,,,,
Val Verde,29.89300587,-101.15171,26.11111111111111,wmoUnit:degC,72,4,16093.44,wmoUnit:m,,,,,,
Pecos,30.78100044,-102.7235743,21.11111111111111,wmoUnit:degC,61,0,16093.44,wmoUnit:m,,,,,,
Baylor,33.61648147,-99.21351964,18.88888888888889,wmoUnit:degC,93,28,,,,,,,,
Gregg,32.48036452,-94.81723694,20.0,wmoUnit:degC,97,93,6356.908876739477,wmoUnit:m,FA,A,Flood Warning,Severe,Immediate,2025-05-27T14:15:00-05:00
Cochran,33.60410808,-102.8285264,18.88888888888889,wmoUnit:degC,68,10,16093.44,wmoUnit:m,,,,,,
Jasper,30.74391255,-94.02495849,26.11111111111111,wmoUnit:degC,88,5,11088.379945129402,wmoUnit:m,,,,,,
Hamilton,31.70479181,-98.11066654,18.333333333333332,wmoUnit:degC,93,100,9656.064,wmoUnit:m,,,,,,
Castro,34.53000304,-102.2617608,16.666666666666668,wmoUnit:degC,90,16,16093.44,wmoUnit:m,,,,,,
Sterling,31.82786516,-101.0500699,22.77777777777778,wmoUnit:degC,76,11,16093.44,wmoUnit:m,TO,A,Severe Thunderstorm Warning,Severe,Immediate,2025-05-26T16:45:00-05:00
Starr,26.56212627,-98.73834895,30.0,wmoUnit:degC,73,0,,,,,Special Weather Statement,Moderate,Expected,2025-05-26T19:00:00-05:00
Crane,31.42846287,-102.5156425,21.666666666666668,wmoUnit:degC,66,0,16093.44,wmoUnit:m,,,,,,
Morris,33.11368507,-94.73205137,19.444444444444443,wmoUnit:degC,97,95,4055.546849304177,wmoUnit:m,FA,A,Flood Warning,Severe,Immediate,2025-05-27T09:45:00-05:00
Briscoe,34.53041048,-101.2085769,16.666666666666668,wmoUnit:degC,97,13,16093.44,wmoUnit:m,,,,,,
Tom Green,31.4044442,-100.4620678,22.77777777777778,wmoUnit:degC,79,16,16093.44,wmoUnit:m,TO,A,Severe Thunderstorm Warning,Severe,Immediate,2025-05-26T16:45:00-05:00
Menard,30.88981785,-99.82061472,25.0,wmoUnit:degC,76,19,16093.44,wmoUnit:m,TO,A,Tornado Warning,Extreme,Immediate,2025-05-26T16:45:00-05:00
Parker,32.77852261,-97.80472194,17.77777777777778,wmoUnit:degC,100,100,6276.441753478953,wmoUnit:m,,,Flood Advisory,Minor,Expected,2025-05-26T18:30:00-05:00
Walker,30.73899492,-95.57224172,22.77777777777778,wmoUnit:degC,79,35,16093.44,wmoUnit:m,,,,,,
Brooks,27.0315669,-98.21874127,30.0,wmoUnit:degC,72,0,,,,,Special Weather Statement,Moderate,Expected,2025-05-26T19:00:00-05:00
La Salle,28.34621032,-99.1034773,26.666666666666668,wmoUnit:degC,85,23,16077.34619165045,wmoUnit:m,,,,,,
Edwards,29.98248216,-100.3048937,26.11111111111111,wmoUnit:degC,57,12,16093.44,wmoUnit:m,TO,A,Tornado Watch,Extreme,Future,2025-05-26T22:00:00-05:00
Lee,30.31065065,-96.96568735,26.666666666666668,wmoUnit:degC,81,9,16093.44,wmoUnit:m,,,,,,
Robertson,31.02705415,-96.51272568,26.11111111111111,wmoUnit:degC,88,27,11265.408,wmoUnit:m,FA,A,Flood Watch,Severe,Future,2025-05-26T20:30:00-05:00
Young,33.17670764,-98.68781396,18.88888888888889,wmoUnit:degC,97,100,9656.064,wmoUnit:m,,,Special Weather Statement,Moderate,Expected,2025-05-26T16:30:00-05:00
Bee,28.41736675,-97.74116811,26.666666666666668,wmoUnit:degC,85,24,14049.572383300736,wmoUnit:m,,,,,,
Clay,33.78379717,-98.208958,18.333333333333332,wmoUnit:degC,93,64,,,,,,,,
San Jacinto,30.57948905,-95.16683273,26.11111111111111,wmoUnit:degC,79,29,14564.563506958068,wmoUnit:m,,,,,,
Uvalde,29.35669829,-99.76203107,26.11111111111111,wmoUnit:degC,83,34,16093.44,wmoUnit:m,TO,A,Tornado Watch,Extreme,Future,2025-05-26T22:00:00-05:00
Haskell,33.17824805,-99.73029401,20.0,wmoUnit:degC,87,26,11265.408,wmoUnit:m,,,,,,
Somervell,32.22229511,-97.77456553,17.77777777777778,wmoUnit:degC,100,100,2558.85701371765,wmoUnit:m,,,,,,
Bexar,29.44884523,-98.51966309,27.22222222222222,wmoUnit:degC,79,12,16093.44,wmoUnit:m,TO,A,Tornado Watch,Extreme,Future,2025-05-26T22:00:00-05:00
Grayson,33.62684371,-96.67764864,17.77777777777778,wmoUnit:degC,100,100,3975.079726043654,wmoUnit:m,FA,A,,,,
Bailey,34.0684915,-102.8299069,17.22222222222222,wmoUnit:degC,81,12,16093.44,wmoUnit:m,,,,,,
Jones,32.73970429,-99.87850599,19.444444444444443,wmoUnit:degC,90,26,11265.408,wmoUnit:m,,,,,,
Jefferson,29.88425832,-94.1708778,27.22222222222222,wmoUnit:degC,85,3,16093.44,wmoUnit:m,,,,,,
Rusk,32.10803224,-94.76169577,20.555555555555557,wmoUnit:degC,90,86,4683.191178131122,wmoUnit:m,FA,A,Flood Warning,Severe,Immediate,2025-05-27T14:15:00-05:00
Glasscock,31.8694238,-101.520742,22.22222222222222,wmoUnit:degC,76,4,16093.44,wmoUnit:m,TO,A,Tornado Watch,Extreme,Future,2025-05-26T22:00:00-05:00
Gillespie,30.31800246,-98.94627245,25.555555555555557,wmoUnit:degC,84,21,16093.44,wmoUnit:m,TO,A,Tornado Watch,Extreme,Future,2025-05-26T22:00:00-05:00
Fisher,32.74305155,-100.4019503,20.0,wmoUnit:degC,87,13,11265.408,wmoUnit:m,,,,,,
Henderson,32.21188078,-95.85356847,19.444444444444443,wmoUnit:degC,87,100,9479.0359451294,wmoUnit:m,FA,A,Flood Warning,Severe,Immediate,2025-05-27T08:45:00-05:00
Shackelford,32.7360276,-99.35403034,18.88888888888889,wmoUnit:degC,97,33,11265.408,wmoUnit:m,,,,,,
Palo Pinto,32.75316856,-98.31299522,17.77777777777778,wmoUnit:degC,100,100,7934.065643737756,wmoUnit:m,,,Special Weather Statement,Moderate,Expected,2025-05-26T16:30:00-05:00
Wilbarger,34.08044953,-99.24089568,18.333333333333332,wmoUnit:degC,95,26,,,,,,,,
Floyd,34.07239775,-101.3033037,17.77777777777778,wmoUnit:degC,87,11,16093.44,wmoUnit:m,,,,,,
Orange,30.12807126,-93.89653794,27.22222222222222,wmoUnit:degC,85,7,16093.44,wmoUnit:m,,,Flood Warning,Severe,Immediate,2025-05-27T10:15:00-05:00
Runnels,31.83105393,-99.97624799,22.22222222222222,wmoUnit:degC,73,28,12746.00460278313,wmoUnit:m,TO,A,Tornado Watch,Extreme,Future,2025-05-26T22:00:00-05:00
Coleman,31.77329421,-99.45362579,21.11111111111111,wmoUnit:degC,76,30,11265.408,wmoUnit:m,TO,A,Tornado Watch,Extreme,Future,2025-05-26T22:00:00-05:00
Martin,32.30605847,-101.9512464,19.444444444444443,wmoUnit:degC,81,2,16093.44,wmoUnit:m,,,,,,
Wheeler,35.40129002,-100.2697634,18.333333333333332,wmoUnit:degC,87,37,,,,,,,,
Culberson,31.44709817,-104.5177421,17.77777777777778,wmoUnit:degC,67,0,16093.44,wmoUnit:m,,,,,,
Mitchell,32.30636024,-100.9211128,21.666666666666668,wmoUnit:degC,84,12,14548.469698608355,wmoUnit:m,,,,,,
Hudspeth,31.45613738,-105.3869428,15.555555555555555,wmoUnit:degC,20,0,16093.44,wmoUnit:m,,,,,,
Upshur,32.7362827,-94.94132011,19.444444444444443,wmoUnit:degC,97,97,4683.191178131122,wmoUnit:m,FA,A,Flood Watch,Severe,Future,2025-05-27T07:00:00-05:00
Liberty,30.15153187,-94.8120925,29.444444444444443,wmoUnit:degC,70,18,11265.408,wmoUnit:m,,,,,,
Williamson,30.64834941,-97.60105467,21.11111111111111,wmoUnit:degC,90,24,4055.546849304177,wmoUnit:m,,,,,,
Nacogdoches,31.61604108,-94.6158776,20.0,wmoUnit:degC,93,65,9656.064,wmoUnit:m,FA,A,Flood Watch,Severe,Future,2025-05-27T07:00:00-05:00
Loving,31.84912973,-103.5799063,19.444444444444443,wmoUnit:degC,75,0,16093.44,wmoUnit:m,,,,,,
Jim Wells,27.73131099,-98.0898649,26.666666666666668,wmoUnit:degC,85,9,13454.115287475512,wmoUnit:m,,,,,,
Upton,31.36853957,-102.0430005,24.444444444444443,wmoUnit:degC,74,0,16093.44,wmoUnit:m,TO,A,Tornado Watch,Extreme,Future,2025-05-26T22:00:00-05:00
Newton,30.78619977,-93.74462993,25.555555555555557,wmoUnit:degC,91,5,11088.379945129402,wmoUnit:m,,,Flood Warning,Severe,Immediate,2025-05-27T10:15:00-05:00
Lamar,33.66746186,-95.57110784,19.444444444444443,wmoUnit:degC,100,100,9656.064,wmoUnit:m,FA,A,,,,
Polk,30.79250963,-94.82994949,25.555555555555557,wmoUnit:degC,79,32,16093.44,wmoUnit:m,,,,,,
Collin,33.18789055,-96.57248871,18.88888888888889,wmoUnit:degC,97,100,9656.064,wmoUnit:m,FA,A,Flood Watch,Severe,Future,2025-05-26T20:30:00-05:00
Hardeman,34.28865227,-99.7453851,18.333333333333332,wmoUnit:degC,93,20,,,,,,,,
McMullen,28.35351091,-98.56842256,26.666666666666668,wmoUnit:degC,85,23,15964.69260278313,wmoUnit:m,,,,,,
Cottle,34.0776571,-100.2786983,20.0,wmoUnit:degC,84,11,16093.44,wmoUnit:m,,,,,,
Frio,28.86726774,-99.10826004,27.77777777777778,wmoUnit:degC,79,4,16093.44,wmoUnit:m,TO,A,Tornado Watch,Extreme,Future,2025-05-26T22:00:00-05:00
Gray,35.40130666,-100.812475,17.22222222222222,wmoUnit:degC,93,42,,,,,,,,
Dallam,36.27777107,-102.6021647,12.222222222222221,wmoUnit:degC,100,46,,,,,,,,
Kenedy,26.92409448,-97.68137783,30.0,wmoUnit:degC,75,1,,,,,Special Weather Statement,Moderate,Expected,2025-05-26T19:00:00-05:00
Fort Bend,29.52763253,-95.77090562,28.88888888888889,wmoUnit:degC,80,9,11265.408,wmoUnit:m,,,,,,
Armstrong,34.96522076,-101.3572412,15.0,wmoUnit:degC,100,37,,,,,,,,
Collingsworth,34.96498493,-100.2700733,18.333333333333332,wmoUnit:degC,87,28,,,,,,,,
Cass,33.07750446,-94.34348771,19.444444444444443,wmoUnit:degC,97,95,4055.546849304177,wmoUnit:m,FA,A,Flood Warning,Severe,Expected,2025-05-27T09:45:00-05:00
Sherman,36.27765824,-101.8933822,13.88888888888889,wmoUnit:degC,96,69,,,,,,,,
Terry,33.17373729,-102.335157,19.444444444444443,wmoUnit:degC,68,8,16093.44,wmoUnit:m,,,,,,
Limestone,31.54541898,-96.58056718,25.0,wmoUnit:degC,90,60,9656.064,wmoUnit:m,FA,A,Flood Watch,Severe,Future,2025-05-26T20:30:00-05:00
Real,29.83182711,-99.82215881,25.0,wmoUnit:degC,73,25,16093.44,wmoUnit:m,TO,A,Tornado Watch,Extreme,Future,2025-05-26T22:00:00-05:00
Lynn,33.17685487,-101.8160235,18.333333333333332,wmoUnit:degC,84,9,16093.44,wmoUnit:m,,,,,,
Lavaca,29.38437003,-96.93020993,28.333333333333332,wmoUnit:degC,79,5,16093.44,wmoUnit:m,,,,,,
Nolan,32.3034718,-100.4060989,20.0,wmoUnit:degC,84,22,11265.408,wmoUnit:m,,,,,,
Gaines,32.74074537,-102.6351246,17.77777777777778,wmoUnit:degC,84,2,11265.408,wmoUnit:m,,,,,,
Montgomery,30.30022409,-95.50301411,28.333333333333332,wmoUnit:degC,77,23,16093.44,wmoUnit:m,,,,,,
Concho,31.32645211,-99.86413426,21.11111111111111,wmoUnit:degC,81,27,16093.44,wmoUnit:m,TO,A,Tornado Warning,Extreme,Immediate,2025-05-26T16:45:00-05:00
Hardin,30.33238431,-94.39021394,26.11111111111111,wmoUnit:degC,88,4,12746.00460278313,wmoUnit:m,,,,,,
Harris,29.85967144,-95.39782106,28.333333333333332,wmoUnit:degC,77,13,16093.44,wmoUnit:m,,,,,,
Leon,31.29655719,-95.99554292,26.11111111111111,wmoUnit:degC,91,36,11265.408,wmoUnit:m,FA,A,Flood Watch,Severe,Future,2025-05-26T20:30:00-05:00
Bowie,33.44572786,-94.42324298,19.444444444444443,wmoUnit:degC,100,96,3283.0616986083546,wmoUnit:m,FA,A,Flood Warning,Severe,Immediate,2025-05-27T14:45:00-05:00
Kaufman,32.59927808,-96.28779341,21.11111111111111,wmoUnit:degC,87,100,3202.594575347831,wmoUnit:m,FA,A,Flood Watch,Severe,Future,2025-05-26T20:30:00-05:00
Anderson,31.81321543,-95.65251774,23.88888888888889,wmoUnit:degC,100,85,6276.441753478953,wmoUnit:m,FA,A,Flood Warning,Severe,Immediate,2025-05-27T13:45:00-05:00
San Saba,31.15520543,-98.81754295,20.0,wmoUnit:degC,84,31,16093.44,wmoUnit:m,TO,A,Tornado Watch,Extreme,Future,2025-05-26T22:00:00-05:00
Schleicher,30.89661056,-100.538097,26.11111111111111,wmoUnit:degC,69,10,16093.44,wmoUnit:m,TO,A,Tornado Watch,Extreme,Future,2025-05-26T22:00:00-05:00
Colorado,29.6208542,-96.52630821,27.22222222222222,wmoUnit:degC,82,12,14548.469698608355,wmoUnit:m,,,,,,
Milam,30.78625299,-96.97683495,26.666666666666668,wmoUnit:degC,85,19,11265.408,wmoUnit:m,FA,A,Flood Watch,Severe,Future,2025-05-26T20:30:00-05:00
Live Oak,28.3514375,-98.12474493,26.666666666666668,wmoUnit:degC,88,24,15465.795287475512,wmoUnit:m,,,,,,
Borden,32.7436916,-101.4317533,18.88888888888889,wmoUnit:degC,87,6,14548.469698608355,wmoUnit:m,,,,,,
McCulloch,31.19896752,-99.34754972,20.0,wmoUnit:degC,87,29,16093.44,wmoUnit:m,TO,A,Tornado Watch,Extreme,Future,2025-05-26T22:00:00-05:00
Johnson,32.37899918,-97.36660504,17.77777777777778,wmoUnit:degC,100,100,3202.594575347831,wmoUnit:m,FA,A,Flood Watch,Severe,Future,2025-05-26T20:30:00-05:00
Montague,33.67496328,-97.72466993,17.22222222222222,wmoUnit:degC,100,100,9656.064,wmoUnit:m,FA,A,,,,
Stonewall,33.17842158,-100.255259,20.0,wmoUnit:degC,90,15,11265.408,wmoUnit:m,,,,,,
Comal,29.80816362,-98.27814516,25.0,wmoUnit:degC,88,14,16093.44,wmoUnit:m,TO,A,Tornado Watch,Extreme,Future,2025-05-26T22:00:00-05:00
Eastland,32.32739258,-98.8325713,18.333333333333332,wmoUnit:degC,93,71,9656.064,wmoUnit:m,,,,,,
Comanche,31.9490639,-98.55841538,16.666666666666668,wmoUnit:degC,100,86,9656.064,wmoUnit:m,,,,,,
King,33.61641863,-100.2558584,20.0,wmoUnit:degC,87,13,16093.44,wmoUnit:m,,,,,,
Washington,30.2145299,-96.40356575,26.666666666666668,wmoUnit:degC,82,23,16093.44,wmoUnit:m,,,,,,
Webb,27.76102524,-99.33170164,27.22222222222222,wmoUnit:degC,79,7,16093.44,wmoUnit:m,,,,,,
Fayette,29.87683207,-96.91968047,28.333333333333332,wmoUnit:degC,80,9,16093.44,wmoUnit:m,,,,,,
Harrison,32.54814898,-94.37155736,19.444444444444443,wmoUnit:degC,100,92,6356.908876739477,wmoUnit:m,FA,A,Flood Watch,Severe,Future,2025-05-27T07:00:00-05:00
Presidio,29.99977786,-104.2405552,22.77777777777778,wmoUnit:degC,9,0,16093.44,wmoUnit:m,,,,,,
Austin,29.88711223,-96.27791829,27.22222222222222,wmoUnit:degC,82,14,11265.408,wmoUnit:m,,,,,,
Randall,34.96594288,-101.8968527,15.0,wmoUnit:degC,93,49,,,,,,,,
Hood,32.43107878,-97.83280338,18.88888888888889,wmoUnit:degC,93,100,1786.3718630218268,wmoUnit:m,,,,,,
Victoria,28.79640594,-96.97176602,27.22222222222222,wmoUnit:degC,88,27,14484.096,wmoUnit:m,,,,,,
Hutchinson,35.84000866,-101.3547257,15.0,wmoUnit:degC,93,69,,,,,,,,
Coryell,31.39087578,-97.7991883,21.666666666666668,wmoUnit:degC,87,81,9656.064,wmoUnit:m,FA,A,Flood Watch,Severe,Future,2025-05-26T20:30:00-05:00
Jackson,28.95603133,-96.57883268,28.88888888888889,wmoUnit:degC,82,9,14548.469698608355,wmoUnit:m,,,,,,
Taylor,32.30138229,-99.89003941,20.0,wmoUnit:degC,84,27,11265.408,wmoUnit:m,,,,,,
Zapata,27.00089072,-99.16860134,30.0,wmoUnit:degC,67,0,,,,,Special Weather Statement,Moderate,Expected,2025-05-26T19:00:00-05:00
San Patricio,28.00922186,-97.51859857,27.77777777777778,wmoUnit:degC,88,13,13470.209095825225,wmoUnit:m,,,,,,
Grimes,30.54360689,-95.98557334,25.0,wmoUnit:degC,85,31,16093.44,wmoUnit:m,,,,,,
Lamb,34.06861242,-102.3517095,17.22222222222222,wmoUnit:degC,87,11,16093.44,wmoUnit:m,,,,,,
