countyName,latitude,longitude,temperature,temperature_unit,relativeHumidity,precipitationProbability,visibility,visibility_unit,hazard_phenomenon,hazard_significance,alert_event,alert_severity,alert_urgency,alert_expires
Foard,33.97408519,-99.77871109,30.555555555555557,wmoUnit:degC,23,0,,,,,,,,
Blanco,30.26636128,-98.39974086,31.11111111111111,wmoUnit:degC,57,0,16093.44,wmoUnit:m,HT,Y,Extreme Heat Warning,Severe,Expected,2025-05-14T21:00:00-05:00
Hockley,33.60750375,-102.3430919,30.555555555555557,wmoUnit:degC,13,1,16093.44,wmoUnit:m,WI,Y,,,,
Llano,30.70566579,-98.68387398,37.22222222222222,wmoUnit:degC,29,0,16093.44,wmoUnit:m,HT,Y,Extreme Heat Warning,Severe,Expected,2025-05-14T21:00:00-05:00
Swisher,34.53064989,-101.734951,28.88888888888889,wmoUnit:degC,23,0,16093.44,wmoUnit:m,WI,Y,,,,
Titus,33.2160906,-94.96509786,30.555555555555557,wmoUnit:degC,59,0,16093.44,wmoUnit:m,,,,,,
Navarro,32.04695429,-96.47248134,28.88888888888889,wmoUnit:degC,65,1,16093.44,wmoUnit:m,HT,Y,Heat Advisory,Moderate,Expected,2025-05-14T21:00:00-05:00
Brazoria,29.19345387,-95.45578479,27.22222222222222,wmoUnit:degC,82,0,16093.44,wmoUnit:m,,,Beach Hazards Statement,Moderate,Expected,2025-05-15T19:00:00-05:00
Hidalgo,26.396627,-98.18088681,35.55555555555556,wmoUnit:degC,44,0,,,,,,,,
Archer,33.61539176,-98.68783437,31.11111111111111,wmoUnit:degC,29,0,,,,,,,,
Refugio,28.32681413,-97.16546961,31.666666666666668,wmoUnit:degC,56,2,15819.85139721687,wmoUnit:m,,,,,,
Andrews,32.30506283,-102.6378839,29.444444444444443,wmoUnit:degC,21,0,14548.469698608355,wmoUnit:m,,,,,,
Galveston,29.39424415,-94.96474975,26.666666666666668,wmoUnit:degC,72,1,16093.44,wmoUnit:m,,,Beach Hazards Statement,Moderate,Expected,2025-05-15T19:00:00-05:00
De Witt,29.08201599,-97.35666976,32.22222222222222,wmoUnit:degC,56,0,16093.44,wmoUnit:m,HT,Y,Heat Advisory,Moderate,Expected,2025-05-14T21:00:00-05:00
Gonzales,29.45641495,-97.49279927,30.555555555555557,wmoUnit:degC,65,0,16093.44,wmoUnit:m,HT,Y,Extreme Heat Warning,Severe,Expected,2025-05-14T21:00:00-05:00
Wharton,29.2778362,-96.22197375,27.77777777777778,wmoUnit:degC,72,1,16093.44,wmoUnit:m,,,,,,
Fannin,33.59396919,-96.10656755,32.22222222222222,wmoUnit:degC,44,0,16093.44,wmoUnit:m,,,,,,
Madison,30.96564645,-95.92818441,26.11111111111111,wmoUnit:degC,82,1,16093.44,wmoUnit:m,HT,Y,,,,
Moore,35.83768863,-101.8929556,27.22222222222222,wmoUnit:degC,15,0,,,,,,,,
Tyler,30.7712607,-94.37651432,21.666666666666668,wmoUnit:degC,84,2,13743.797698608354,wmoUnit:m,,,Flood Warning,Severe,Immediate,2025-05-15T11:00:00-05:00
Lipscomb,36.27778432,-100.27317,28.88888888888889,wmoUnit:degC,19,0,,,,,,,,
Burleson,30.49246139,-96.62109399,26.666666666666668,wmoUnit:degC,77,1,16093.44,wmoUnit:m,HT,Y,,,,
Jim Hogg,27.04340499,-98.6972921,36.111111111111114,wmoUnit:degC,37,0,,,,,,,,
Throckmorton,33.17753907,-99.21236832,31.666666666666668,wmoUnit:degC,26,0,16093.44,wmoUnit:m,,,,,,
Kleberg,27.43274395,-97.72889778,33.888888888888886,wmoUnit:degC,51,1,16093.44,wmoUnit:m,HT,Y,Heat Advisory,Moderate,Expected,2025-05-15T05:00:00-05:00
Shelby,31.79242191,-94.14495261,27.22222222222222,wmoUnit:degC,56,0,16093.44,wmoUnit:m,,,,,,
Garza,33.17991074,-101.2984496,33.888888888888886,wmoUnit:degC,14,1,16093.44,wmoUnit:m,,,,,,
Karnes,28.90493782,-97.85960621,32.22222222222222,wmoUnit:degC,52,0,16093.44,wmoUnit:m,HT,Y,Extreme Heat Warning,Severe,Expected,2025-05-14T21:00:00-05:00
Reeves,31.32307061,-103.693143,32.22222222222222,wmoUnit:degC,11,0,16093.44,wmoUnit:m,DU,Y,Blowing Dust Advisory,Moderate,Expected,2025-05-14T20:00:00-06:00
Houston,31.31764137,-95.42225367,26.11111111111111,wmoUnit:degC,85,2,16093.44,wmoUnit:m,,,Flood Warning,Severe,Immediate,2025-05-15T11:00:00-05:00
El Paso,31.7686226,-106.2352229,26.11111111111111,wmoUnit:degC,20,2,15658.916383300735,wmoUnit:m,DU,Y,Wind Advisory,Moderate,Expected,2025-05-14T21:00:00-06:00
Carson,35.40346802,-101.3542037,26.11111111111111,wmoUnit:degC,20,0,,,,,,,,
Medina,29.35520493,-99.11008331,30.0,wmoUnit:degC,61,0,16093.44,wmoUnit:m,HT,Y,Extreme Heat Warning,Severe,Expected,2025-05-15T04:00:00-05:00
Wichita,33.98421585,-98.70153389,30.555555555555557,wmoUnit:degC,27,0,,,,,,,,
Chambers,29.73912276,-94.60891308,28.333333333333332,wmoUnit:degC,67,2,16093.44,wmoUnit:m,,,Flood Warning,Severe,Immediate,2025-05-15T04:45:00-05:00
Donley,34.96540246,-100.8140501,28.333333333333332,wmoUnit:degC,21,0,,,,,,,,
Hopkins,33.14933822,-95.56414173,30.555555555555557,wmoUnit:degC,57,1,16093.44,wmoUnit:m,,,,,,
Lampasas,31.19627791,-98.24142711,32.22222222222222,wmoUnit:degC,42,1,16093.44,wmoUnit:m,HT,Y,Heat Advisory,Moderate,Expected,2025-05-14T21:00:00-05:00
Falls,31.25317017,-96.93579511,27.77777777777778,wmoUnit:degC,69,2,16093.44,wmoUnit:m,HT,Y,Heat Advisory,Moderate,Expected,2025-05-14T21:00:00-05:00
Stephens,32.73584155,-98.83612016,33.333333333333336,wmoUnit:degC,25,0,12697.7239451294,wmoUnit:m,,,,,,
Travis,30.33423319,-97.78194654,30.555555555555557,wmoUnit:degC,63,0,16093.44,wmoUnit:m,HT,Y,Extreme Heat Warning,Severe,Expected,2025-05-14T21:00:00-05:00
Roberts,35.8385577,-100.8135689,28.88888888888889,wmoUnit:degC,18,0,,,,,,,,
Crosby,33.61459873,-101.2998612,31.666666666666668,wmoUnit:degC,16,1,16093.44,wmoUnit:m,,,,,,
Kerr,30.06153035,-99.35016969,34.44444444444444,wmoUnit:degC,44,0,16093.44,wmoUnit:m,HT,Y,Extreme Heat Warning,Severe,Expected,2025-05-14T21:00:00-05:00
Wood,32.78634374,-95.38206498,29.444444444444443,wmoUnit:degC,61,0,16093.44,wmoUnit:m,,,Flood Warning,Severe,Immediate,2025-05-15T02:00:00-05:00
Jack,33.23345819,-98.1725509,32.77777777777778,wmoUnit:degC,29,0,16093.44,wmoUnit:m,,,,,,
Marion,32.79797929,-94.35725239,30.0,wmoUnit:degC,61,0,16093.44,wmoUnit:m,,,,,,
Hale,34.07051782,-101.8269082,29.444444444444443,wmoUnit:degC,20,1,16093.44,wmoUnit:m,WI,Y,,,,
Jeff Davis,30.71559322,-104.1403539,22.22222222222222,wmoUnit:degC,19,0,9656.064,wmoUnit:m,,,,,,
Tarrant,32.77185236,-97.29116473,35.0,wmoUnit:degC,33,0,16093.44,wmoUnit:m,OzoneActionDay,,,,,
Waller,30.01093722,-95.98768942,27.22222222222222,wmoUnit:degC,79,0,16093.44,wmoUnit:m,,,,,,
Reagan,31.36617698,-101.5230108,31.11111111111111,wmoUnit:degC,17,0,16093.44,wmoUnit:m,,,,,,
Smith,32.37514553,-95.26909511,29.444444444444443,wmoUnit:degC,63,0,16093.44,wmoUnit:m,,,Flood Warning,Severe,Immediate,2025-05-15T11:00:00-05:00
Van Zandt,32.56368961,-95.8364862,29.444444444444443,wmoUnit:degC,63,2,16093.44,wmoUnit:m,,,,,,
Cooke,33.638465,-97.21247642,33.333333333333336,wmoUnit:degC,32,0,16093.44,wmoUnit:m,,,,,,
Zavala,28.86530621,-99.76102001,31.11111111111111,wmoUnit:degC,57,0,16093.44,wmoUnit:m,HT,Y,Extreme Heat Warning,Severe,Expected,2025-05-14T21:00:00-05:00
Hall,34.53074134,-100.6809876,32.77777777777778,wmoUnit:degC,20,0,16093.44,wmoUnit:m,,,,,,
Kendall,29.9446397,-98.71160511,30.0,wmoUnit:degC,65,0,16093.44,wmoUnit:m,HT,Y,Extreme Heat Warning,Severe,Expected,2025-05-14T21:00:00-05:00
Goliad,28.65708563,-97.42646082,33.333333333333336,wmoUnit:degC,47,2,16077.34619165045,wmoUnit:m,,,,,,
Yoakum,33.17293501,-102.8278792,30.0,wmoUnit:degC,14,1,16093.44,wmoUnit:m,WI,Y,,,,
Knox,33.60614755,-99.74144313,31.666666666666668,wmoUnit:degC,21,0,,,,,,,,
McLennan,31.55234489,-97.20184883,28.333333333333332,wmoUnit:degC,65,1,16093.44,wmoUnit:m,HT,Y,Heat Advisory,Moderate,Expected,2025-05-14T21:00:00-05:00
Brewster,29.81205836,-103.2518906,35.55555555555556,wmoUnit:degC,9,0,16093.44,wmoUnit:m,,,Heat Advisory,Moderate,Expected,2025-05-14T20:00:00-06:00
Panola,32.16222886,-94.30552858,29.444444444444443,wmoUnit:degC,59,0,16093.44,wmoUnit:m,,,,,,
Bandera,29.74724753,-99.24637282,30.0,wmoUnit:degC,63,0,16093.44,wmoUnit:m,HT,Y,Extreme Heat Warning,Severe,Expected,2025-05-14T21:00:00-05:00
Parmer,34.53014507,-102.784594,28.333333333333332,wmoUnit:degC,18,0,16093.44,wmoUnit:m,WI,Y,,,,
Rockwall,32.89786769,-96.40780584,31.11111111111111,wmoUnit:degC,48,1,16093.44,wmoUnit:m,OzoneActionDay,,,,,
Trinity,31.0885069,-95.13551682,26.666666666666668,wmoUnit:degC,77,2,16029.066301391646,wmoUnit:m,,,Flood Warning,Severe,Immediate,2025-05-15T11:00:00-05:00
Bosque,31.90050476,-97.63437613,31.666666666666668,wmoUnit:degC,48,1,16093.44,wmoUnit:m,,,,,,
Coke,31.88849293,-100.5298747,32.77777777777778,wmoUnit:degC,18,0,16093.44,wmoUnit:m,,,,,,
Franklin,33.17550691,-95.21841437,30.555555555555557,wmoUnit:degC,59,0,16093.44,wmoUnit:m,,,,,,
Hill,31.99079033,-97.1324142,27.77777777777778,wmoUnit:degC,72,1,16093.44,wmoUnit:m,HT,Y,Heat Advisory,Moderate,Expected,2025-05-14T21:00:00-05:00
Calhoun,28.48966896,-96.64708119,30.0,wmoUnit:degC,68,1,16077.34619165045,wmoUnit:m,,,,,,
Irion,31.30393203,-100.9824126,32.77777777777778,wmoUnit:degC,18,0,16093.44,wmoUnit:m,,,,,,
Midland,31.86921148,-102.0315032,32.77777777777778,wmoUnit:degC,14,0,16093.44,wmoUnit:m,,,,,,
Brown,31.77432313,-98.99989649,35.0,wmoUnit:degC,20,0,16093.44,wmoUnit:m,,,,,,
Wilson,29.17315896,-98.08621015,31.666666666666668,wmoUnit:degC,57,0,16093.44,wmoUnit:m,HT,Y,Extreme Heat Warning,Severe,Expected,2025-05-15T04:00:00-05:00
Oldham,35.40497586,-102.6029949,26.11111111111111,wmoUnit:degC,23,0,,,,,,,,
Freestone,31.70486443,-96.14918535,28.88888888888889,wmoUnit:degC,67,2,16093.44,wmoUnit:m,HT,Y,Flood Warning,Severe,Immediate,2025-05-15T02:00:00-05:00
Sabine,31.34321941,-93.85170439,30.555555555555557,wmoUnit:degC,53,0,16093.44,wmoUnit:m,,,,,,
Deaf Smith,34.96602014,-102.6048162,25.0,wmoUnit:degC,24,0,,,,,,,,
Angelina,31.25475875,-94.611742,29.444444444444443,wmoUnit:degC,61,0,16093.44,wmoUnit:m,,,Flood Warning,Severe,Immediate,2025-05-15T11:00:00-05:00
Kent,33.18284492,-100.7791031,35.55555555555556,wmoUnit:degC,15,1,16093.44,wmoUnit:m,,,,,,
Red River,33.62074539,-95.0501886,30.555555555555557,wmoUnit:degC,57,0,16093.44,wmoUnit:m,,,,,,
Kinney,29.35000302,-100.4178441,32.22222222222222,wmoUnit:degC,44,0,16093.44,wmoUnit:m,HT,Y,Extreme Heat Warning,Severe,Expected,2025-05-14T21:00:00-05:00
Denton,33.205574,-97.11681154,35.55555555555556,wmoUnit:degC,30,0,16093.44,wmoUnit:m,OzoneActionDay,,,,,
Sutton,30.49747152,-100.5382263,33.888888888888886,wmoUnit:degC,18,0,16093.44,wmoUnit:m,,,,,,
Guadalupe,29.58257236,-97.94850308,31.666666666666668,wmoUnit:degC,59,0,16093.44,wmoUnit:m,HT,Y,Extreme Heat Warning,Severe,Expected,2025-05-14T21:00:00-05:00
Winkler,31.85008609,-103.0484794,30.555555555555557,wmoUnit:degC,16,0,16093.44,wmoUnit:m,,,,,,
Dimmit,28.42161168,-99.760574,33.888888888888886,wmoUnit:degC,46,0,16093.44,wmoUnit:m,HT,Y,Extreme Heat Warning,Severe,Expected,2025-05-14T21:00:00-05:00
Wise,33.21585061,-97.65444124,34.44444444444444,wmoUnit:degC,25,0,16093.44,wmoUnit:m,OzoneActionDay,,,,,
Hemphill,35.83750155,-100.2704628,27.22222222222222,wmoUnit:degC,27,0,,,,,,,,
Potter,35.40128927,-101.8940484,27.22222222222222,wmoUnit:degC,18,0,,,,,,,,
Childress,34.52929257,-100.2075664,32.77777777777778,wmoUnit:degC,23,0,16093.44,wmoUnit:m,,,,,,
Willacy,26.47132899,-97.64303323,33.333333333333336,wmoUnit:degC,51,0,,,,,Rip Current Statement,Moderate,Expected,2025-05-15T07:00:00-05:00
Bastrop,30.10353518,-97.31187705,31.666666666666668,wmoUnit:degC,57,0,16093.44,wmoUnit:m,HT,Y,Extreme Heat Warning,Severe,Expected,2025-05-14T21:00:00-05:00
Kimble,30.48676251,-99.74892716,36.111111111111114,wmoUnit:degC,18,0,16093.44,wmoUnit:m,HT,Y,,,,
Scurry,32.74720063,-100.9165071,32.77777777777778,wmoUnit:degC,14,0,16093.44,wmoUnit:m,,,,,,
Ochiltree,36.27846334,-100.815653,29.444444444444443,wmoUnit:degC,13,0,,,,,,,,
Hansford,36.27753179,-101.3545624,28.88888888888889,wmoUnit:degC,13,0,,,,,,,,
Hartley,35.83996755,-102.6028835,28.333333333333332,wmoUnit:degC,11,0,,,,,,,,
Cameron,26.13847728,-97.51499968,33.333333333333336,wmoUnit:degC,50,0,,,,,Rip Current Statement,Moderate,Expected,2025-05-15T07:00:00-05:00
Matagorda,28.86711039,-95.98533866,27.22222222222222,wmoUnit:degC,85,0,16093.44,wmoUnit:m,,,Beach Hazards Statement,Moderate,Expected,2025-05-15T19:00:00-05:00
Burnet,30.78843382,-98.18252382,30.555555555555557,wmoUnit:degC,59,0,16093.44,wmoUnit:m,HT,Y,Extreme Heat Warning,Severe,Expected,2025-05-14T21:00:00-05:00
Rains,32.87004212,-95.79347545,30.0,wmoUnit:degC,63,1,16093.44,wmoUnit:m,,,,,,
Hays,30.05782657,-98.03104087,29.444444444444443,wmoUnit:degC,67,0,16093.44,wmoUnit:m,HT,Y,Extreme Heat Warning,Severe,Expected,2025-05-14T21:00:00-05:00
Mason,30.71742293,-99.2263026,37.22222222222222,wmoUnit:degC,15,0,16093.44,wmoUnit:m,HT,Y,,,,
Ward,31.509424,-103.1024636,31.666666666666668,wmoUnit:degC,13,0,16093.44,wmoUnit:m,,,,,,
Delta,33.38623601,-95.67221685,30.555555555555557,wmoUnit:degC,53,1,16093.44,wmoUnit:m,,,,,,
Nueces,27.72621549,-97.61767326,33.888888888888886,wmoUnit:degC,51,1,16093.44,wmoUnit:m,HT,Y,Heat Advisory,Moderate,Expected,2025-05-15T05:00:00-05:00
Callahan,32.2977738,-99.37359692,32.22222222222222,wmoUnit:degC,22,0,16093.44,wmoUnit:m,,,,,,
Bell,31.03778267,-97.47790776,29.444444444444443,wmoUnit:degC,63,1,16093.44,wmoUnit:m,HT,Y,Heat Advisory,Moderate,Expected,2025-05-14T21:00:00-05:00
Cherokee,31.83695632,-95.16515234,27.77777777777778,wmoUnit:degC,69,0,16093.44,wmoUnit:m,,,Flood Warning,Severe,Immediate,2025-05-15T11:00:00-05:00
Ellis,32.34839264,-96.79467417,29.444444444444443,wmoUnit:degC,61,1,16093.44,wmoUnit:m,OzoneActionDay,,,,,
Lubbock,33.6101944,-101.8205745,32.22222222222222,wmoUnit:degC,13,1,16093.44,wmoUnit:m,WI,Y,,,,
Terrell,30.22502597,-102.0764533,34.44444444444444,wmoUnit:degC,14,0,16093.44,wmoUnit:m,HT,Y,Heat Advisory,Moderate,Expected,2025-05-14T20:00:00-06:00
Crockett,30.72291931,-101.4118364,33.333333333333336,wmoUnit:degC,17,0,16093.44,wmoUnit:m,,,,,,
Atascosa,28.89418432,-98.52741302,30.0,wmoUnit:degC,61,0,16093.44,wmoUnit:m,HT,Y,Extreme Heat Warning,Severe,Expected,2025-05-15T04:00:00-05:00
Ector,31.86908156,-102.5430907,31.11111111111111,wmoUnit:degC,13,0,16093.44,wmoUnit:m,,,,,,
Brazos,30.6610425,-96.3022943,25.555555555555557,wmoUnit:degC,82,3,16093.44,wmoUnit:m,HT,Y,,,,
Aransas,28.12709562,-96.99258951,27.22222222222222,wmoUnit:degC,82,1,15691.104,wmoUnit:m,SC,Y,,,,
Dallas,32.76653746,-96.77781862,32.77777777777778,wmoUnit:degC,40,0,16093.44,wmoUnit:m,OzoneActionDay,,,,,
Howard,32.30610232,-101.4355097,38.333333333333336,wmoUnit:degC,9,0,16093.44,wmoUnit:m,,,,,,
Motley,34.07409017,-100.7798961,32.77777777777778,wmoUnit:degC,20,1,16093.44,wmoUnit:m,,,,,,
San Augustine,31.39427005,-94.16809762,29.444444444444443,wmoUnit:degC,57,0,16093.44,wmoUnit:m,,,,,,
Maverick,28.74260943,-100.3144638,32.77777777777778,wmoUnit:degC,49,0,16093.44,wmoUnit:m,HT,Y,Extreme Heat Warning,Severe,Expected,2025-05-14T21:00:00-05:00
Erath,32.23640361,-98.21722756,32.77777777777778,wmoUnit:degC,31,0,16093.44,wmoUnit:m,,,,,,
Dickens,33.61663428,-100.7788138,33.888888888888886,wmoUnit:degC,17,1,16093.44,wmoUnit:m,,,,,,
Caldwell,29.83677935,-97.61983479,30.555555555555557,wmoUnit:degC,65,0,16093.44,wmoUnit:m,HT,Y,Extreme Heat Warning,Severe,Expected,2025-05-14T21:00:00-05:00
Dawson,32.74258137,-101.9476136,32.22222222222222,wmoUnit:degC,14,0,16093.44,wmoUnit:m,,,,,,
Camp,32.97321771,-94.97860185,30.0,wmoUnit:degC,59,0,16093.44,wmoUnit:m,,,,,,
Duval,27.68133382,-98.50889672,33.888888888888886,wmoUnit:degC,43,0,16093.44,wmoUnit:m,HT,Y,Heat Advisory,Moderate,Expected,2025-05-15T05:00:00-05:00
Hunt,33.123531,-96.08550014,31.11111111111111,wmoUnit:degC,55,1,16093.44,wmoUnit:m,OzoneActionDay,,,,,
Mills,31.49524259,-98.59552736,32.22222222222222,wmoUnit:degC,35,0,16093.44,wmoUnit:m,,,,,,
Val Verde,29.89300587,-101.15171,33.888888888888886,wmoUnit:degC,33,0,16093.44,wmoUnit:m,HT,Y,Extreme Heat Warning,Severe,Expected,2025-05-14T21:00:00-05:00
Pecos,30.78100044,-102.7235743,31.11111111111111,wmoUnit:degC,16,0,16093.44,wmoUnit:m,,,,,,
Baylor,33.61648147,-99.21351964,31.11111111111111,wmoUnit:degC,24,0,,,,,,,,
Gregg,32.48036452,-94.81723694,29.444444444444443,wmoUnit:degC,61,0,16093.44,wmoUnit:m,,,Flood Warning,Severe,Immediate,2025-05-15T11:00:00-05:00
Cochran,33.60410808,-102.8285264,30.0,wmoUnit:degC,14,1,16093.44,wmoUnit:m,WI,Y,,,,
Jasper,30.74391255,-94.02495849,21.666666666666668,wmoUnit:degC,87,1,13373.649315307619,wmoUnit:m,,,,,,
Hamilton,31.70479181,-98.11066654,31.666666666666668,wmoUnit:degC,41,1,16093.44,wmoUnit:m,,,,,,
Castro,34.53000304,-102.2617608,28.333333333333332,wmoUnit:degC,19,0,16093.44,wmoUnit:m,WI,Y,,,,
Sterling,31.82786516,-101.0500699,32.77777777777778,wmoUnit:degC,18,0,16093.44,wmoUnit:m,,,,,,
Starr,26.56212627,-98.73834895,36.666666666666664,wmoUnit:degC,39,0,,,,,,,,
Crane,31.42846287,-102.5156425,31.11111111111111,wmoUnit:degC,16,0,16093.44,wmoUnit:m,,,,,,
Morris,33.11368507,-94.73205137,30.0,wmoUnit:degC,61,0,16093.44,wmoUnit:m,,,,,,
Briscoe,34.53041048,-101.2085769,27.77777777777778,wmoUnit:degC,23,0,16093.44,wmoUnit:m,,,,,,
Tom Green,31.4044442,-100.4620678,33.333333333333336,wmoUnit:degC,21,0,16093.44,wmoUnit:m,,,,,,
Menard,30.88981785,-99.82061472,35.0,wmoUnit:degC,17,0,16093.44,wmoUnit:m,HT,Y,,,,
Parker,32.77852261,-97.80472194,33.888888888888886,wmoUnit:degC,27,0,16093.44,wmoUnit:m,OzoneActionDay,,,,,
Walker,30.73899492,-95.57224172,27.22222222222222,wmoUnit:degC,72,2,16093.44,wmoUnit:m,,,Flood Warning,Severe,Immediate,2025-05-15T04:45:00-05:00
Brooks,27.0315669,-98.21874127,36.111111111111114,wmoUnit:degC,40,0,,,,,,,,
La Salle,28.34621032,-99.1034773,35.55555555555556,wmoUnit:degC,39,0,16093.44,wmoUnit:m,HT,Y,Heat Advisory,Moderate,Expected,2025-05-15T05:00:00-05:00
Edwards,29.98248216,-100.3048937,33.333333333333336,wmoUnit:degC,33,0,16093.44,wmoUnit:m,HT,Y,Extreme Heat Warning,Severe,Expected,2025-05-14T21:00:00-05:00
Lee,30.31065065,-96.96568735,29.444444444444443,wmoUnit:degC,65,0,16093.44,wmoUnit:m,HT,Y,Heat Advisory,Moderate,Expected,2025-05-14T21:00:00-05:00
Robertson,31.02705415,-96.51272568,27.77777777777778,wmoUnit:degC,74,2,16093.44,wmoUnit:m,HT,Y,Heat Advisory,Moderate,Expected,2025-05-14T21:00:00-05:00
Young,33.17670764,-98.68781396,33.333333333333336,wmoUnit:degC,28,0,16093.44,wmoUnit:m,,,,,,
Bee,28.41736675,-97.74116811,33.333333333333336,wmoUnit:degC,46,1,16077.34619165045,wmoUnit:m,,,,,,
Clay,33.78379717,-98.208958,30.555555555555557,wmoUnit:degC,32,0,,,,,,,,
San Jacinto,30.57948905,-95.16683273,26.11111111111111,wmoUnit:degC,74,2,16093.44,wmoUnit:m,,,Flood Warning,Severe,Immediate,2025-05-15T04:45:00-05:00
Uvalde,29.35669829,-99.76203107,30.555555555555557,wmoUnit:degC,55,0,16093.44,wmoUnit:m,HT,Y,Extreme Heat Warning,Severe,Expected,2025-05-15T04:00:00-05:00
Haskell,33.17824805,-99.73029401,32.22222222222222,wmoUnit:degC,20,0,16093.44,wmoUnit:m,,,,,,
Somervell,32.22229511,-97.77456553,32.22222222222222,wmoUnit:degC,41,0,16093.44,wmoUnit:m,,,,,,
Bexar,29.44884523,-98.51966309,31.11111111111111,wmoUnit:degC,59,0,16093.44,wmoUnit:m,HT,Y,Extreme Heat Warning,Severe,Expected,2025-05-15T04:00:00-05:00
Grayson,33.62684371,-96.67764864,32.77777777777778,wmoUnit:degC,37,0,16093.44,wmoUnit:m,,,,,,
Bailey,34.0684915,-102.8299069,28.88888888888889,wmoUnit:degC,20,0,16093.44,wmoUnit:m,WI,Y,,,,
Jones,32.73970429,-99.87850599,32.77777777777778,wmoUnit:degC,20,0,16093.44,wmoUnit:m,,,,,,
Jefferson,29.88425832,-94.1708778,22.77777777777778,wmoUnit:degC,87,2,16093.44,wmoUnit:m,,,,,,
Rusk,32.10803224,-94.76169577,28.88888888888889,wmoUnit:degC,63,0,16093.44,wmoUnit:m,,,,,,
Glasscock,31.8694238,-101.520742,32.77777777777778,wmoUnit:degC,13,0,16093.44,wmoUnit:m,,,,,,
Gillespie,30.31800246,-98.94627245,31.666666666666668,wmoUnit:degC,52,0,16093.44,wmoUnit:m,HT,Y,Extreme Heat Warning,Severe,Expected,2025-05-14T21:00:00-05:00
Fisher,32.74305155,-100.4019503,33.333333333333336,wmoUnit:degC,18,0,16093.44,wmoUnit:m,,,,,,
Henderson,32.21188078,-95.85356847,28.88888888888889,wmoUnit:degC,63,2,16093.44,wmoUnit:m,OzoneActionDay,,,,,
Shackelford,32.7360276,-99.35403034,32.77777777777778,wmoUnit:degC,21,0,16093.44,wmoUnit:m,,,,,,
Palo Pinto,32.75316856,-98.31299522,34.44444444444444,wmoUnit:degC,23,0,16093.44,wmoUnit:m,,,,,,
Wilbarger,34.08044953,-99.24089568,30.555555555555557,wmoUnit:degC,25,0,,,,,,,,
Floyd,34.07239775,-101.3033037,31.666666666666668,wmoUnit:degC,19,1,16093.44,wmoUnit:m,,,,,,
Orange,30.12807126,-93.89653794,22.77777777777778,wmoUnit:degC,84,1,15835.94520556642,wmoUnit:m,,,Flood Warning,Severe,Immediate,2025-05-14T20:15:00-05:00
Runnels,31.83105393,-99.97624799,33.333333333333336,wmoUnit:degC,21,0,16093.44,wmoUnit:m,,,,,,
Coleman,31.77329421,-99.45362579,33.888888888888886,wmoUnit:degC,19,0,16093.44,wmoUnit:m,,,,,,
Martin,32.30605847,-101.9512464,33.333333333333336,wmoUnit:degC,12,0,16093.44,wmoUnit:m,,,,,,
Wheeler,35.40129002,-100.2697634,29.444444444444443,wmoUnit:degC,20,0,,,,,,,,
Culberson,31.44709817,-104.5177421,26.666666666666668,wmoUnit:degC,12,0,9656.064,wmoUnit:m,DU,Y,Wind Advisory,Moderate,Expected,2025-05-14T20:00:00-06:00
Mitchell,32.30636024,-100.9211128,36.666666666666664,wmoUnit:degC,13,0,16093.44,wmoUnit:m,,,,,,
Hudspeth,31.45613738,-105.3869428,26.666666666666668,wmoUnit:degC,20,2,16093.44,wmoUnit:m,DU,Y,Wind Advisory,Moderate,Expected,2025-05-14T21:00:00-06:00
Upshur,32.7362827,-94.94132011,28.88888888888889,wmoUnit:degC,59,0,16093.44,wmoUnit:m,,,Flood Warning,Severe,Immediate,2025-05-15T11:00:00-05:00
Liberty,30.15153187,-94.8120925,27.22222222222222,wmoUnit:degC,65,2,16093.44,wmoUnit:m,,,Flood Warning,Severe,Immediate,2025-05-15T04:45:00-05:00
Williamson,30.64834941,-97.60105467,30.0,wmoUnit:degC,68,0,16093.44,wmoUnit:m,HT,Y,Extreme Heat Warning,Severe,Expected,2025-05-14T21:00:00-05:00
Nacogdoches,31.61604108,-94.6158776,28.88888888888889,wmoUnit:degC,65,0,16093.44,wmoUnit:m,,,Flood Warning,Severe,Immediate,2025-05-15T11:00:00-05:00
Loving,31.84912973,-103.5799063,31.11111111111111,wmoUnit:degC,13,0,16093.44,wmoUnit:m,DU,Y,Blowing Dust Advisory,Moderate,Expected,2025-05-14T20:00:00-06:00
Jim Wells,27.73131099,-98.0898649,33.888888888888886,wmoUnit:degC,49,1,16093.44,wmoUnit:m,HT,Y,Heat Advisory,Moderate,Expected,2025-05-15T05:00:00-05:00
Upton,31.36853957,-102.0430005,30.555555555555557,wmoUnit:degC,21,0,16093.44,wmoUnit:m,,,,,,
Newton,30.78619977,-93.74462993,21.11111111111111,wmoUnit:degC,87,1,12971.313315307618,wmoUnit:m,,,Flood Warning,Severe,Immediate,2025-05-14T20:15:00-05:00
Lamar,33.66746186,-95.57110784,31.666666666666668,wmoUnit:degC,47,1,16093.44,wmoUnit:m,,,,,,
Polk,30.79250963,-94.82994949,27.22222222222222,wmoUnit:degC,72,2,16012.972493041932,wmoUnit:m,,,Flood Warning,Severe,Immediate,2025-05-15T11:00:00-05:00
Collin,33.18789055,-96.57248871,35.55555555555556,wmoUnit:degC,35,0,16093.44,wmoUnit:m,OzoneActionDay,,,,,
Hardeman,34.28865227,-99.7453851,30.555555555555557,wmoUnit:degC,23,0,,,,,,,,
McMullen,28.35351091,-98.56842256,35.0,wmoUnit:degC,43,0,16093.44,wmoUnit:m,HT,Y,Heat Advisory,Moderate,Expected,2025-05-15T05:00:00-05:00
Cottle,34.0776571,-100.2786983,32.77777777777778,wmoUnit:degC,24,1,16093.44,wmoUnit:m,,,,,,
Frio,28.86726774,-99.10826004,31.666666666666668,wmoUnit:degC,54,0,16093.44,wmoUnit:m,HT,Y,Extreme Heat Warning,Severe,Expected,2025-05-15T04:00:00-05:00
Gray,35.40130666,-100.812475,28.88888888888889,wmoUnit:degC,19,0,,,,,,,,
Dallam,36.27777107,-102.6021647,27.22222222222222,wmoUnit:degC,13,0,,,,,,,,
Kenedy,26.92409448,-97.68137783,35.0,wmoUnit:degC,45,0,,,,,Rip Current Statement,Moderate,Expected,2025-05-15T07:00:00-05:00
Fort Bend,29.52763253,-95.77090562,28.333333333333332,wmoUnit:degC,74,0,16093.44,wmoUnit:m,,,,,,
Armstrong,34.96522076,-101.3572412,26.666666666666668,wmoUnit:degC,24,0,,,,,,,,
Collingsworth,34.96498493,-100.2700733,28.88888888888889,wmoUnit:degC,23,0,,,,,,,,
Cass,33.07750446,-94.34348771,28.88888888888889,wmoUnit:degC,63,0,16093.44,wmoUnit:m,,,,,,
Sherman,36.27765824,-101.8933822,27.77777777777778,wmoUnit:degC,13,0,,,,,,,,
Terry,33.17373729,-102.335157,31.11111111111111,wmoUnit:degC,12,1,16093.44,wmoUnit:m,WI,Y,,,,
Limestone,31.54541898,-96.58056718,27.77777777777778,wmoUnit:degC,65,2,16093.44,wmoUnit:m,HT,Y,Heat Advisory,Moderate,Expected,2025-05-14T21:00:00-05:00
Real,29.83182711,-99.82215881,33.333333333333336,wmoUnit:degC,40,0,16093.44,wmoUnit:m,HT,Y,Extreme Heat Warning,Severe,Expected,2025-05-14T21:00:00-05:00
Lynn,33.17685487,-101.8160235,31.666666666666668,wmoUnit:degC,17,1,16093.44,wmoUnit:m,WI,Y,,,,
Lavaca,29.38437003,-96.93020993,31.666666666666668,wmoUnit:degC,64,0,16093.44,wmoUnit:m,HT,Y,Heat Advisory,Moderate,Expected,2025-05-14T21:00:00-05:00
Nolan,32.3034718,-100.4060989,32.22222222222222,wmoUnit:degC,18,0,16093.44,wmoUnit:m,,,,,,
Gaines,32.74074537,-102.6351246,31.11111111111111,wmoUnit:degC,16,0,9559.503452087469,wmoUnit:m,WI,Y,Wind Advisory,Moderate,Expected,2025-05-14T20:00:00-06:00
Montgomery,30.30022409,-95.50301411,27.22222222222222,wmoUnit:degC,77,1,16093.44,wmoUnit:m,,,,,,
Concho,31.32645211,-99.86413426,35.0,wmoUnit:degC,17,0,16093.44,wmoUnit:m,,,,,,
Hardin,30.33238431,-94.39021394,22.22222222222222,wmoUnit:degC,84,2,15353.141698608355,wmoUnit:m,,,,,,
Harris,29.85967144,-95.39782106,27.77777777777778,wmoUnit:degC,72,1,16093.44,wmoUnit:m,,,,,,
Leon,31.29655719,-95.99554292,28.333333333333332,wmoUnit:degC,77,2,16093.44,wmoUnit:m,HT,Y,Flood Warning,Severe,Immediate,2025-05-15T02:00:00-05:00
Bowie,33.44572786,-94.42324298,29.444444444444443,wmoUnit:degC,65,0,16093.44,wmoUnit:m,,,,,,
Kaufman,32.59927808,-96.28779341,29.444444444444443,wmoUnit:degC,59,1,16093.44,wmoUnit:m,OzoneActionDay,,,,,
Anderson,31.81321543,-95.65251774,27.77777777777778,wmoUnit:degC,72,2,16093.44,wmoUnit:m,,,Flood Warning,Severe,Immediate,2025-05-15T02:00:00-05:00
San Saba,31.15520543,-98.81754295,36.111111111111114,wmoUnit:degC,17,0,16093.44,wmoUnit:m,HT,Y,,,,
Schleicher,30.89661056,-100.538097,32.77777777777778,wmoUnit:degC,18,0,16093.44,wmoUnit:m,,,,,,
Colorado,29.6208542,-96.52630821,27.77777777777778,wmoUnit:degC,69,0,16093.44,wmoUnit:m,,,,,,
Milam,30.78625299,-96.97683495,30.0,wmoUnit:degC,61,2,16093.44,wmoUnit:m,HT,Y,Heat Advisory,Moderate,Expected,2025-05-14T21:00:00-05:00
Live Oak,28.3514375,-98.12474493,34.44444444444444,wmoUnit:degC,46,1,16093.44,wmoUnit:m,HT,Y,Heat Advisory,Moderate,Expected,2025-05-15T05:00:00-05:00
Borden,32.7436916,-101.4317533,32.77777777777778,wmoUnit:degC,14,0,16093.44,wmoUnit:m,,,,,,
McCulloch,31.19896752,-99.34754972,34.44444444444444,wmoUnit:degC,17,0,16093.44,wmoUnit:m,HT,Y,,,,
Johnson,32.37899918,-97.36660504,31.11111111111111,wmoUnit:degC,52,0,16093.44,wmoUnit:m,OzoneActionDay,,,,,
Montague,33.67496328,-97.72466993,32.77777777777778,wmoUnit:degC,29,0,16093.44,wmoUnit:m,,,,,,
Stonewall,33.17842158,-100.255259,35.0,wmoUnit:degC,18,1,14484.096,wmoUnit:m,,,,,,
Comal,29.80816362,-98.27814516,29.444444444444443,wmoUnit:degC,65,0,16093.44,wmoUnit:m,HT,Y,Extreme Heat Warning,Severe,Expected,2025-05-14T21:00:00-05:00
Eastland,32.32739258,-98.8325713,32.77777777777778,wmoUnit:degC,27,0,16093.44,wmoUnit:m,,,,,,
Comanche,31.9490639,-98.55841538,33.888888888888886,wmoUnit:degC,28,0,16093.44,wmoUnit:m,,,,,,
King,33.61641863,-100.2558584,32.77777777777778,wmoUnit:degC,25,1,16093.44,wmoUnit:m,,,,,,
Washington,30.2145299,-96.40356575,26.11111111111111,wmoUnit:degC,77,1,16093.44,wmoUnit:m,HT,Y,,,,
Webb,27.76102524,-99.33170164,36.111111111111114,wmoUnit:degC,34,0,16093.44,wmoUnit:m,HT,Y,Heat Advisory,Moderate,Expected,2025-05-15T05:00:00-05:00
Fayette,29.87683207,-96.91968047,31.11111111111111,wmoUnit:degC,63,0,16093.44,wmoUnit:m,HT,Y,Heat Advisory,Moderate,Expected,2025-05-14T21:00:00-05:00
Harrison,32.54814898,-94.37155736,29.444444444444443,wmoUnit:degC,63,0,16093.44,wmoUnit:m,,,,,,
Presidio,29.99977786,-104.2405552,28.333333333333332,wmoUnit:degC,11,0,16093.44,wmoUnit:m,,,,,,
Austin,29.88711223,-96.27791829,27.77777777777778,wmoUnit:degC,74,0,16093.44,wmoUnit:m,,,,,,
Randall,34.96594288,-101.8968527,25.555555555555557,wmoUnit:degC,29,0,,,,,,,,
Hood,32.43107878,-97.83280338,34.44444444444444,wmoUnit:degC,28,0,16093.44,wmoUnit:m,OzoneActionDay,,,,,
Victoria,28.79640594,-96.97176602,32.77777777777778,wmoUnit:degC,54,2,16093.44,wmoUnit:m,,,,,,
Hutchinson,35.84000866,-101.3547257,28.88888888888889,wmoUnit:degC,15,0,,,,,,,,
Coryell,31.39087578,-97.7991883,31.11111111111111,wmoUnit:degC,54,1,16093.44,wmoUnit:m,HT,Y,Heat Advisory,Moderate,Expected,2025-05-14T21:00:00-05:00
Jackson,28.95603133,-96.57883268,27.22222222222222,wmoUnit:degC,82,2,16093.44,wmoUnit:m,,,,,,
Taylor,32.30138229,-99.89003941,32.77777777777778,wmoUnit:degC,18,0,16093.44,wmoUnit:m,,,,,,
Zapata,27.00089072,-99.16860134,37.22222222222222,wmoUnit:degC,32,0,,,,,,,,
San Patricio,28.00922186,-97.51859857,32.77777777777778,wmoUnit:degC,56,1,16077.34619165045,wmoUnit:m,HT,Y,Heat Advisory,Moderate,Expected,2025-05-15T05:00:00-05:00
Grimes,30.54360689,-95.98557334,26.666666666666668,wmoUnit:degC,82,3,16093.44,wmoUnit:m,HT,Y,,,,
Lamb,34.06861242,-102.3517095,28.333333333333332,wmoUnit:degC,21,1,16093.44,wmoUnit:m,WI,Y,,,,
