countyName,latitude,longitude,temperature,temperature_unit,relativeHumidity,precipitationProbability,visibility,visibility_unit,hazard_phenomenon,hazard_significance,alert_event,alert_severity,alert_urgency,alert_expires
Foard,33.97408519,-99.77871109,32.22222222222222,wmoUnit:degC,47,43,,,SV,A,,,,
Blanco,30.26636128,-98.39974086,24.444444444444443,wmoUnit:degC,85,1,16093.44,wmoUnit:m,,,,,,
Hockley,33.60750375,-102.3430919,18.333333333333332,wmoUnit:degC,90,25,16093.44,wmoUnit:m,,,,,,
Llano,30.70566579,-98.68387398,25.555555555555557,wmoUnit:degC,77,3,16093.44,wmoUnit:m,,,,,,
Swisher,34.53064989,-101.734951,18.333333333333332,wmoUnit:degC,90,28,16093.44,wmoUnit:m,,,,,,
Titus,33.2160906,-94.96509786,24.444444444444443,wmoUnit:degC,87,3,16093.44,wmoUnit:m,,,,,,
Navarro,32.04695429,-96.47248134,25.555555555555557,wmoUnit:degC,85,0,16093.44,wmoUnit:m,,,,,,
Brazoria,29.19345387,-95.45578479,25.0,wmoUnit:degC,90,0,15224.394301391645,wmoUnit:m,,,,,,
Hidalgo,26.396627,-98.18088681,27.22222222222222,wmoUnit:degC,87,1,,,,,,,,
Archer,33.61539176,-98.68783437,31.11111111111111,wmoUnit:degC,64,12,,,FA,A,Flood Watch,Severe,Future,2025-06-04T07:00:00-05:00
Refugio,28.32681413,-97.16546961,26.11111111111111,wmoUnit:degC,91,2,14451.908383300735,wmoUnit:m,,,,,,
Andrews,32.30506283,-102.6378839,22.77777777777778,wmoUnit:degC,73,44,16093.44,wmoUnit:m,,,,,,
Galveston,29.39424415,-94.96474975,26.11111111111111,wmoUnit:degC,85,0,15594.542684692382,wmoUnit:m,,,,,,
De Witt,29.08201599,-97.35666976,25.0,wmoUnit:degC,92,1,16093.44,wmoUnit:m,,,,,,
Gonzales,29.45641495,-97.49279927,25.555555555555557,wmoUnit:degC,92,1,16093.44,wmoUnit:m,,,,,,
Wharton,29.2778362,-96.22197375,23.88888888888889,wmoUnit:degC,94,0,14789.870684692381,wmoUnit:m,,,,,,
Fannin,33.59396919,-96.10656755,25.0,wmoUnit:degC,90,3,16093.44,wmoUnit:m,,,,,,
Madison,30.96564645,-95.92818441,24.444444444444443,wmoUnit:degC,87,0,16093.44,wmoUnit:m,,,Flood Warning,Severe,Immediate,2025-06-03T15:15:00-05:00
Moore,35.83768863,-101.8929556,16.666666666666668,wmoUnit:degC,84,15,,,,,,,,
Tyler,30.7712607,-94.37651432,22.77777777777778,wmoUnit:degC,93,0,16093.44,wmoUnit:m,,,,,,
Lipscomb,36.27778432,-100.27317,18.88888888888889,wmoUnit:degC,87,48,,,,,,,,
Burleson,30.49246139,-96.62109399,25.0,wmoUnit:degC,85,0,16029.066301391646,wmoUnit:m,,,,,,
Jim Hogg,27.04340499,-98.6972921,25.0,wmoUnit:degC,92,1,,,,,,,,
Throckmorton,33.17753907,-99.21236832,25.555555555555557,wmoUnit:degC,79,27,16093.44,wmoUnit:m,,,,,,
Kleberg,27.43274395,-97.72889778,27.22222222222222,wmoUnit:degC,88,1,15401.421588867157,wmoUnit:m,,,,,,
Shelby,31.79242191,-94.14495261,23.333333333333332,wmoUnit:degC,93,3,16093.44,wmoUnit:m,,,,,,
Garza,33.17991074,-101.2984496,19.444444444444443,wmoUnit:degC,93,46,16093.44,wmoUnit:m,,,,,,
Karnes,28.90493782,-97.85960621,25.555555555555557,wmoUnit:degC,87,1,16093.44,wmoUnit:m,,,,,,
Reeves,31.32307061,-103.693143,25.555555555555557,wmoUnit:degC,60,24,16093.44,wmoUnit:m,,,,,,
Houston,31.31764137,-95.42225367,23.88888888888889,wmoUnit:degC,97,0,16093.44,wmoUnit:m,,,Flood Warning,Severe,Immediate,2025-06-03T16:45:00-05:00
El Paso,31.7686226,-106.2352229,24.444444444444443,wmoUnit:degC,42,1,15723.291616699264,wmoUnit:m,,,,,,
Carson,35.40346802,-101.3542037,16.666666666666668,wmoUnit:degC,93,40,,,,,,,,
Medina,29.35520493,-99.11008331,25.0,wmoUnit:degC,88,1,16093.44,wmoUnit:m,,,,,,
Wichita,33.98421585,-98.70153389,31.666666666666668,wmoUnit:degC,56,18,,,FA,A,Flood Watch,Severe,Future,2025-06-04T07:00:00-05:00
Chambers,29.73912276,-94.60891308,25.555555555555557,wmoUnit:degC,94,0,15224.394301391645,wmoUnit:m,,,,,,
Donley,34.96540246,-100.8140501,20.555555555555557,wmoUnit:degC,87,39,,,,,,,,
Hopkins,33.14933822,-95.56414173,25.555555555555557,wmoUnit:degC,88,1,16093.44,wmoUnit:m,,,,,,
Lampasas,31.19627791,-98.24142711,25.0,wmoUnit:degC,82,1,16093.44,wmoUnit:m,,,,,,
Falls,31.25317017,-96.93579511,25.0,wmoUnit:degC,88,0,16093.44,wmoUnit:m,,,,,,
Stephens,32.73584155,-98.83612016,27.22222222222222,wmoUnit:degC,63,7,16093.44,wmoUnit:m,,,,,,
Travis,30.33423319,-97.78194654,26.11111111111111,wmoUnit:degC,85,1,16093.44,wmoUnit:m,,,,,,
Roberts,35.8385577,-100.8135689,17.77777777777778,wmoUnit:degC,90,49,,,,,,,,
Crosby,33.61459873,-101.2998612,20.0,wmoUnit:degC,93,42,16093.44,wmoUnit:m,,,,,,
Kerr,30.06153035,-99.35016969,23.88888888888889,wmoUnit:degC,80,5,16093.44,wmoUnit:m,,,,,,
Wood,32.78634374,-95.38206498,24.444444444444443,wmoUnit:degC,90,3,16093.44,wmoUnit:m,,,,,,
Jack,33.23345819,-98.1725509,26.11111111111111,wmoUnit:degC,74,5,16093.44,wmoUnit:m,,,,,,
Marion,32.79797929,-94.35725239,23.88888888888889,wmoUnit:degC,90,0,16093.44,wmoUnit:m,,,,,,
Hale,34.07051782,-101.8269082,20.0,wmoUnit:degC,87,28,16093.44,wmoUnit:m,,,,,,
Jeff Davis,30.71559322,-104.1403539,18.88888888888889,wmoUnit:degC,58,17,16093.44,wmoUnit:m,,,,,,
Tarrant,32.77185236,-97.29116473,27.22222222222222,wmoUnit:degC,74,2,16093.44,wmoUnit:m,,,,,,
Waller,30.01093722,-95.98768942,24.444444444444443,wmoUnit:degC,94,0,16061.252383300736,wmoUnit:m,,,,,,
Reagan,31.36617698,-101.5230108,23.88888888888889,wmoUnit:degC,71,49,16093.44,wmoUnit:m,,,,,,
Smith,32.37514553,-95.26909511,24.444444444444443,wmoUnit:degC,87,1,16093.44,wmoUnit:m,,,,,,
Van Zandt,32.56368961,-95.8364862,25.0,wmoUnit:degC,88,0,16093.44,wmoUnit:m,,,,,,
Cooke,33.638465,-97.21247642,26.11111111111111,wmoUnit:degC,77,4,16093.44,wmoUnit:m,,,,,,
Zavala,28.86530621,-99.76102001,26.666666666666668,wmoUnit:degC,87,2,16093.44,wmoUnit:m,,,,,,
Hall,34.53074134,-100.6809876,22.77777777777778,wmoUnit:degC,76,52,16093.44,wmoUnit:m,,,,,,
Kendall,29.9446397,-98.71160511,24.444444444444443,wmoUnit:degC,88,1,16093.44,wmoUnit:m,,,,,,
Goliad,28.65708563,-97.42646082,25.0,wmoUnit:degC,94,2,14886.432,wmoUnit:m,,,,,,
Yoakum,33.17293501,-102.8278792,18.88888888888889,wmoUnit:degC,78,23,16093.44,wmoUnit:m,,,,,,
Knox,33.60614755,-99.74144313,35.0,wmoUnit:degC,37,30,,,,,,,,
McLennan,31.55234489,-97.20184883,25.555555555555557,wmoUnit:degC,82,1,16093.44,wmoUnit:m,,,,,,
Brewster,29.81205836,-103.2518906,25.555555555555557,wmoUnit:degC,58,18,16093.44,wmoUnit:m,,,,,,
Panola,32.16222886,-94.30552858,24.444444444444443,wmoUnit:degC,90,1,16093.44,wmoUnit:m,,,,,,
Bandera,29.74724753,-99.24637282,24.444444444444443,wmoUnit:degC,84,2,16093.44,wmoUnit:m,,,,,,
Parmer,34.53014507,-102.784594,15.0,wmoUnit:degC,100,11,12746.00460278313,wmoUnit:m,,,,,,
Rockwall,32.89786769,-96.40780584,26.666666666666668,wmoUnit:degC,79,0,16093.44,wmoUnit:m,,,,,,
Trinity,31.0885069,-95.13551682,24.444444444444443,wmoUnit:degC,94,0,16093.44,wmoUnit:m,,,Flood Warning,Severe,Immediate,2025-06-03T16:45:00-05:00
Bosque,31.90050476,-97.63437613,26.11111111111111,wmoUnit:degC,79,3,16093.44,wmoUnit:m,,,,,,
Coke,31.88849293,-100.5298747,26.11111111111111,wmoUnit:degC,64,48,16093.44,wmoUnit:m,,,,,,
Franklin,33.17550691,-95.21841437,24.444444444444443,wmoUnit:degC,90,3,16093.44,wmoUnit:m,,,,,,
Hill,31.99079033,-97.1324142,25.555555555555557,wmoUnit:degC,82,1,16093.44,wmoUnit:m,,,,,,
Calhoun,28.48966896,-96.64708119,27.22222222222222,wmoUnit:degC,91,1,15530.168986084027,wmoUnit:m,,,,,,
Irion,31.30393203,-100.9824126,25.555555555555557,wmoUnit:degC,64,43,16093.44,wmoUnit:m,,,,,,
Midland,31.86921148,-102.0315032,23.88888888888889,wmoUnit:degC,71,46,16093.44,wmoUnit:m,,,,,,
Brown,31.77432313,-98.99989649,25.555555555555557,wmoUnit:degC,82,20,16093.44,wmoUnit:m,,,,,,
Wilson,29.17315896,-98.08621015,25.555555555555557,wmoUnit:degC,88,1,16093.44,wmoUnit:m,,,,,,
Oldham,35.40497586,-102.6029949,17.77777777777778,wmoUnit:degC,84,9,,,,,,,,
Freestone,31.70486443,-96.14918535,24.444444444444443,wmoUnit:degC,82,0,16093.44,wmoUnit:m,,,,,,
Sabine,31.34321941,-93.85170439,23.88888888888889,wmoUnit:degC,90,1,16093.44,wmoUnit:m,,,,,,
Deaf Smith,34.96602014,-102.6048162,15.555555555555555,wmoUnit:degC,96,20,,,,,,,,
Angelina,31.25475875,-94.611742,24.444444444444443,wmoUnit:degC,87,0,16093.44,wmoUnit:m,,,Flood Warning,Severe,Immediate,2025-06-03T16:45:00-05:00
Kent,33.18284492,-100.7791031,21.11111111111111,wmoUnit:degC,90,55,9656.064,wmoUnit:m,,,,,,
Red River,33.62074539,-95.0501886,24.444444444444443,wmoUnit:degC,87,1,16093.44,wmoUnit:m,,,,,,
Kinney,29.35000302,-100.4178441,26.11111111111111,wmoUnit:degC,79,7,16093.44,wmoUnit:m,,,,,,
Denton,33.205574,-97.11681154,28.333333333333332,wmoUnit:degC,70,3,16093.44,wmoUnit:m,,,,,,
Sutton,30.49747152,-100.5382263,26.11111111111111,wmoUnit:degC,69,31,16093.44,wmoUnit:m,,,Flood Advisory,Minor,Expected,2025-06-03T09:15:00-05:00
Guadalupe,29.58257236,-97.94850308,25.555555555555557,wmoUnit:degC,90,1,16093.44,wmoUnit:m,,,,,,
Winkler,31.85008609,-103.0484794,23.333333333333332,wmoUnit:degC,74,38,16093.44,wmoUnit:m,,,,,,
Dimmit,28.42161168,-99.760574,27.22222222222222,wmoUnit:degC,79,1,16093.44,wmoUnit:m,,,,,,
Wise,33.21585061,-97.65444124,26.666666666666668,wmoUnit:degC,74,3,16093.44,wmoUnit:m,,,,,,
Hemphill,35.83750155,-100.2704628,20.555555555555557,wmoUnit:degC,81,56,,,,,,,,
Potter,35.40128927,-101.8940484,17.22222222222222,wmoUnit:degC,97,22,,,,,,,,
Childress,34.52929257,-100.2075664,22.77777777777778,wmoUnit:degC,79,58,9656.064,wmoUnit:m,,,,,,
Willacy,26.47132899,-97.64303323,26.11111111111111,wmoUnit:degC,93,1,,,,,,,,
Bastrop,30.10353518,-97.31187705,25.0,wmoUnit:degC,91,1,16093.44,wmoUnit:m,,,,,,
Kimble,30.48676251,-99.74892716,25.555555555555557,wmoUnit:degC,74,21,16093.44,wmoUnit:m,,,Flood Advisory,Minor,Expected,2025-06-03T09:30:00-05:00
Scurry,32.74720063,-100.9165071,23.333333333333332,wmoUnit:degC,74,49,16093.44,wmoUnit:m,,,,,,
Ochiltree,36.27846334,-100.815653,17.77777777777778,wmoUnit:degC,84,38,,,,,,,,
Hansford,36.27753179,-101.3545624,18.333333333333332,wmoUnit:degC,75,25,,,,,,,,
Hartley,35.83996755,-102.6028835,17.22222222222222,wmoUnit:degC,97,5,,,,,,,,
Cameron,26.13847728,-97.51499968,27.22222222222222,wmoUnit:degC,89,2,,,,,,,,
Matagorda,28.86711039,-95.98533866,25.555555555555557,wmoUnit:degC,91,0,15127.832986084028,wmoUnit:m,,,,,,
Burnet,30.78843382,-98.18252382,24.444444444444443,wmoUnit:degC,86,1,16093.44,wmoUnit:m,,,,,,
Rains,32.87004212,-95.79347545,25.0,wmoUnit:degC,88,0,16093.44,wmoUnit:m,,,,,,
Hays,30.05782657,-98.03104087,24.444444444444443,wmoUnit:degC,90,1,16093.44,wmoUnit:m,,,,,,
Mason,30.71742293,-99.2263026,25.0,wmoUnit:degC,79,15,16093.44,wmoUnit:m,,,Flood Advisory,Minor,Expected,2025-06-03T09:30:00-05:00
Ward,31.509424,-103.1024636,25.0,wmoUnit:degC,67,36,16093.44,wmoUnit:m,,,,,,
Delta,33.38623601,-95.67221685,25.0,wmoUnit:degC,90,2,16093.44,wmoUnit:m,,,,,,
Nueces,27.72621549,-97.61767326,27.22222222222222,wmoUnit:degC,88,0,15546.262794433578,wmoUnit:m,,,,,,
Callahan,32.2977738,-99.37359692,25.555555555555557,wmoUnit:degC,71,25,16093.44,wmoUnit:m,,,,,,
Bell,31.03778267,-97.47790776,25.555555555555557,wmoUnit:degC,85,1,16093.44,wmoUnit:m,,,,,,
Cherokee,31.83695632,-95.16515234,24.444444444444443,wmoUnit:degC,87,1,16093.44,wmoUnit:m,,,Flood Warning,Severe,Immediate,2025-06-03T16:45:00-05:00
Ellis,32.34839264,-96.79467417,25.555555555555557,wmoUnit:degC,82,0,16093.44,wmoUnit:m,,,,,,
Lubbock,33.6101944,-101.8205745,20.0,wmoUnit:degC,87,30,16093.44,wmoUnit:m,,,,,,
Terrell,30.22502597,-102.0764533,26.11111111111111,wmoUnit:degC,62,31,16093.44,wmoUnit:m,,,,,,
Crockett,30.72291931,-101.4118364,26.666666666666668,wmoUnit:degC,52,40,16093.44,wmoUnit:m,,,Flood Advisory,Minor,Expected,2025-06-03T09:15:00-05:00
Atascosa,28.89418432,-98.52741302,26.11111111111111,wmoUnit:degC,86,0,16093.44,wmoUnit:m,,,,,,
Ector,31.86908156,-102.5430907,23.333333333333332,wmoUnit:degC,74,45,16093.44,wmoUnit:m,,,,,,
Brazos,30.6610425,-96.3022943,24.444444444444443,wmoUnit:degC,85,0,16093.44,wmoUnit:m,,,Flood Warning,Severe,Immediate,2025-06-03T15:15:00-05:00
Aransas,28.12709562,-96.99258951,27.77777777777778,wmoUnit:degC,88,2,14307.068712524488,wmoUnit:m,,,,,,
Dallas,32.76653746,-96.77781862,27.22222222222222,wmoUnit:degC,77,0,16093.44,wmoUnit:m,,,,,,
Howard,32.30610232,-101.4355097,23.333333333333332,wmoUnit:degC,71,47,16093.44,wmoUnit:m,,,,,,
Motley,34.07409017,-100.7798961,22.77777777777778,wmoUnit:degC,68,53,16093.44,wmoUnit:m,,,,,,
San Augustine,31.39427005,-94.16809762,23.333333333333332,wmoUnit:degC,93,1,16093.44,wmoUnit:m,,,,,,
Maverick,28.74260943,-100.3144638,28.333333333333332,wmoUnit:degC,78,3,16093.44,wmoUnit:m,,,,,,
Erath,32.23640361,-98.21722756,25.555555555555557,wmoUnit:degC,76,5,16093.44,wmoUnit:m,,,,,,
Dickens,33.61663428,-100.7788138,22.77777777777778,wmoUnit:degC,76,54,16093.44,wmoUnit:m,,,,,,
Caldwell,29.83677935,-97.61983479,25.555555555555557,wmoUnit:degC,95,1,16093.44,wmoUnit:m,,,,,,
Dawson,32.74258137,-101.9476136,21.666666666666668,wmoUnit:degC,81,46,16093.44,wmoUnit:m,,,,,,
Camp,32.97321771,-94.97860185,24.444444444444443,wmoUnit:degC,87,3,16093.44,wmoUnit:m,,,,,,
Duval,27.68133382,-98.50889672,25.555555555555557,wmoUnit:degC,94,0,15143.926794433579,wmoUnit:m,,,,,,
Hunt,33.123531,-96.08550014,26.11111111111111,wmoUnit:degC,79,1,16093.44,wmoUnit:m,,,,,,
Mills,31.49524259,-98.59552736,25.0,wmoUnit:degC,85,2,16093.44,wmoUnit:m,,,,,,
Val Verde,29.89300587,-101.15171,26.11111111111111,wmoUnit:degC,74,19,16093.44,wmoUnit:m,,,,,,
Pecos,30.78100044,-102.7235743,23.88888888888889,wmoUnit:degC,71,43,16093.44,wmoUnit:m,,,,,,
Baylor,33.61648147,-99.21351964,31.11111111111111,wmoUnit:degC,55,16,,,,,,,,
Gregg,32.48036452,-94.81723694,24.444444444444443,wmoUnit:degC,90,2,16093.44,wmoUnit:m,,,,,,
Cochran,33.60410808,-102.8285264,17.22222222222222,wmoUnit:degC,90,19,16093.44,wmoUnit:m,,,,,,
Jasper,30.74391255,-94.02495849,23.88888888888889,wmoUnit:degC,92,0,16093.44,wmoUnit:m,,,,,,
Hamilton,31.70479181,-98.11066654,25.555555555555557,wmoUnit:degC,82,2,16093.44,wmoUnit:m,,,,,,
Castro,34.53000304,-102.2617608,17.22222222222222,wmoUnit:degC,90,19,16093.44,wmoUnit:m,,,,,,
Sterling,31.82786516,-101.0500699,26.11111111111111,wmoUnit:degC,64,44,16093.44,wmoUnit:m,,,,,,
Starr,26.56212627,-98.73834895,25.555555555555557,wmoUnit:degC,91,1,,,,,,,,
Crane,31.42846287,-102.5156425,24.444444444444443,wmoUnit:degC,74,43,16093.44,wmoUnit:m,,,,,,
Morris,33.11368507,-94.73205137,24.444444444444443,wmoUnit:degC,87,2,16093.44,wmoUnit:m,,,,,,
Briscoe,34.53041048,-101.2085769,21.666666666666668,wmoUnit:degC,76,39,16093.44,wmoUnit:m,,,,,,
Tom Green,31.4044442,-100.4620678,26.11111111111111,wmoUnit:degC,72,43,14468.002191650448,wmoUnit:m,,,Flood Advisory,Minor,Expected,2025-06-03T09:15:00-05:00
Menard,30.88981785,-99.82061472,25.555555555555557,wmoUnit:degC,74,25,16093.44,wmoUnit:m,,,Flood Advisory,Minor,Expected,2025-06-03T09:30:00-05:00
Parker,32.77852261,-97.80472194,25.555555555555557,wmoUnit:degC,76,3,16093.44,wmoUnit:m,,,,,,
Walker,30.73899492,-95.57224172,25.0,wmoUnit:degC,79,0,16093.44,wmoUnit:m,,,Flood Warning,Severe,Immediate,2025-06-03T15:15:00-05:00
Brooks,27.0315669,-98.21874127,25.555555555555557,wmoUnit:degC,94,1,,,,,,,,
La Salle,28.34621032,-99.1034773,27.22222222222222,wmoUnit:degC,79,1,16077.34619165045,wmoUnit:m,,,,,,
Edwards,29.98248216,-100.3048937,23.88888888888889,wmoUnit:degC,83,14,16093.44,wmoUnit:m,,,Flood Advisory,Minor,Expected,2025-06-03T11:30:00-05:00
Lee,30.31065065,-96.96568735,24.444444444444443,wmoUnit:degC,86,1,16093.44,wmoUnit:m,,,,,,
Robertson,31.02705415,-96.51272568,24.444444444444443,wmoUnit:degC,87,0,16093.44,wmoUnit:m,,,Flood Warning,Severe,Immediate,2025-06-04T02:30:00-05:00
Young,33.17670764,-98.68781396,27.77777777777778,wmoUnit:degC,69,19,16093.44,wmoUnit:m,,,,,,
Bee,28.41736675,-97.74116811,25.555555555555557,wmoUnit:degC,91,0,14886.432,wmoUnit:m,,,,,,
Clay,33.78379717,-98.208958,31.11111111111111,wmoUnit:degC,62,11,,,FA,A,Flood Watch,Severe,Future,2025-06-04T07:00:00-05:00
San Jacinto,30.57948905,-95.16683273,23.333333333333332,wmoUnit:degC,90,0,15755.477698608354,wmoUnit:m,,,Flood Warning,Severe,Immediate,2025-06-03T15:15:00-05:00
Uvalde,29.35669829,-99.76203107,25.555555555555557,wmoUnit:degC,83,3,16093.44,wmoUnit:m,,,,,,
Haskell,33.17824805,-99.73029401,27.22222222222222,wmoUnit:degC,67,46,16093.44,wmoUnit:m,,,,,,
Somervell,32.22229511,-97.77456553,26.666666666666668,wmoUnit:degC,74,3,16093.44,wmoUnit:m,,,,,,
Bexar,29.44884523,-98.51966309,25.555555555555557,wmoUnit:degC,87,1,16093.44,wmoUnit:m,,,,,,
Grayson,33.62684371,-96.67764864,26.11111111111111,wmoUnit:degC,82,5,16093.44,wmoUnit:m,,,,,,
Bailey,34.0684915,-102.8299069,16.11111111111111,wmoUnit:degC,93,15,12746.00460278313,wmoUnit:m,,,,,,
Jones,32.73970429,-99.87850599,27.22222222222222,wmoUnit:degC,63,43,16093.44,wmoUnit:m,,,,,,
Jefferson,29.88425832,-94.1708778,23.88888888888889,wmoUnit:degC,91,0,16093.44,wmoUnit:m,,,,,,
Rusk,32.10803224,-94.76169577,25.0,wmoUnit:degC,85,1,16093.44,wmoUnit:m,,,,,,
Glasscock,31.8694238,-101.520742,23.333333333333332,wmoUnit:degC,74,48,16093.44,wmoUnit:m,,,,,,
Gillespie,30.31800246,-98.94627245,23.333333333333332,wmoUnit:degC,86,3,16093.44,wmoUnit:m,,,,,,
Fisher,32.74305155,-100.4019503,28.88888888888889,wmoUnit:degC,44,49,16093.44,wmoUnit:m,,,,,,
Henderson,32.21188078,-95.85356847,25.555555555555557,wmoUnit:degC,82,0,16093.44,wmoUnit:m,,,,,,
Shackelford,32.7360276,-99.35403034,26.11111111111111,wmoUnit:degC,67,28,16093.44,wmoUnit:m,,,,,,
Palo Pinto,32.75316856,-98.31299522,25.555555555555557,wmoUnit:degC,76,4,16093.44,wmoUnit:m,,,,,,
Wilbarger,34.08044953,-99.24089568,32.77777777777778,wmoUnit:degC,48,25,,,,,,,,
Floyd,34.07239775,-101.3033037,20.0,wmoUnit:degC,87,38,16093.44,wmoUnit:m,,,,,,
Orange,30.12807126,-93.89653794,24.444444444444443,wmoUnit:degC,87,0,16093.44,wmoUnit:m,,,,,,
Runnels,31.83105393,-99.97624799,26.11111111111111,wmoUnit:degC,69,43,16093.44,wmoUnit:m,,,Flood Advisory,Minor,Expected,2025-06-03T09:15:00-05:00
Coleman,31.77329421,-99.45362579,26.11111111111111,wmoUnit:degC,69,23,16093.44,wmoUnit:m,,,Flood Advisory,Minor,Expected,2025-06-03T09:15:00-05:00
Martin,32.30605847,-101.9512464,23.333333333333332,wmoUnit:degC,71,47,16093.44,wmoUnit:m,,,,,,
Wheeler,35.40129002,-100.2697634,21.11111111111111,wmoUnit:degC,90,53,,,,,,,,
Culberson,31.44709817,-104.5177421,22.22222222222222,wmoUnit:degC,49,11,16093.44,wmoUnit:m,,,,,,
Mitchell,32.30636024,-100.9211128,24.444444444444443,wmoUnit:degC,66,46,16093.44,wmoUnit:m,,,,,,
Hudspeth,31.45613738,-105.3869428,21.666666666666668,wmoUnit:degC,55,1,16012.972493041932,wmoUnit:m,,,,,,
Upshur,32.7362827,-94.94132011,24.444444444444443,wmoUnit:degC,87,3,16093.44,wmoUnit:m,,,,,,
Liberty,30.15153187,-94.8120925,24.444444444444443,wmoUnit:degC,87,0,15626.730301391646,wmoUnit:m,,,,,,
Williamson,30.64834941,-97.60105467,25.555555555555557,wmoUnit:degC,86,1,16093.44,wmoUnit:m,,,,,,
Nacogdoches,31.61604108,-94.6158776,24.444444444444443,wmoUnit:degC,90,0,16093.44,wmoUnit:m,,,Flood Warning,Severe,Immediate,2025-06-03T16:45:00-05:00
Loving,31.84912973,-103.5799063,24.444444444444443,wmoUnit:degC,69,27,16093.44,wmoUnit:m,,,,,,
Jim Wells,27.73131099,-98.0898649,26.11111111111111,wmoUnit:degC,94,0,13228.808109741198,wmoUnit:m,,,,,,
Upton,31.36853957,-102.0430005,24.444444444444443,wmoUnit:degC,71,48,16093.44,wmoUnit:m,,,,,,
Newton,30.78619977,-93.74462993,23.88888888888889,wmoUnit:degC,91,0,16093.44,wmoUnit:m,,,,,,
Lamar,33.66746186,-95.57110784,25.555555555555557,wmoUnit:degC,85,3,16093.44,wmoUnit:m,,,,,,
Polk,30.79250963,-94.82994949,24.444444444444443,wmoUnit:degC,82,0,16093.44,wmoUnit:m,,,Flood Warning,Severe,Immediate,2025-06-03T16:45:00-05:00
Collin,33.18789055,-96.57248871,27.22222222222222,wmoUnit:degC,79,2,16093.44,wmoUnit:m,,,,,,
Hardeman,34.28865227,-99.7453851,30.555555555555557,wmoUnit:degC,61,63,,,SV,A,,,,
McMullen,28.35351091,-98.56842256,26.11111111111111,wmoUnit:degC,88,0,15916.412712524489,wmoUnit:m,,,,,,
Cottle,34.0776571,-100.2786983,25.0,wmoUnit:degC,64,57,9656.064,wmoUnit:m,,,,,,
Frio,28.86726774,-99.10826004,25.555555555555557,wmoUnit:degC,87,1,16093.44,wmoUnit:m,,,,,,
Gray,35.40130666,-100.812475,18.333333333333332,wmoUnit:degC,87,46,,,,,,,,
Dallam,36.27777107,-102.6021647,17.22222222222222,wmoUnit:degC,93,5,,,,,,,,
Kenedy,26.92409448,-97.68137783,25.555555555555557,wmoUnit:degC,93,1,,,,,,,,
Fort Bend,29.52763253,-95.77090562,25.555555555555557,wmoUnit:degC,91,0,15691.104,wmoUnit:m,,,,,,
Armstrong,34.96522076,-101.3572412,18.333333333333332,wmoUnit:degC,90,42,,,,,,,,
Collingsworth,34.96498493,-100.2700733,21.666666666666668,wmoUnit:degC,84,51,,,,,,,,
Cass,33.07750446,-94.34348771,23.88888888888889,wmoUnit:degC,84,0,16093.44,wmoUnit:m,,,,,,
Sherman,36.27765824,-101.8933822,18.88888888888889,wmoUnit:degC,70,12,,,,,,,,
Terry,33.17373729,-102.335157,18.333333333333332,wmoUnit:degC,90,28,16093.44,wmoUnit:m,,,,,,
Limestone,31.54541898,-96.58056718,24.444444444444443,wmoUnit:degC,85,0,16093.44,wmoUnit:m,,,,,,
Real,29.83182711,-99.82215881,23.88888888888889,wmoUnit:degC,84,6,16093.44,wmoUnit:m,,,,,,
Lynn,33.17685487,-101.8160235,18.88888888888889,wmoUnit:degC,90,33,16093.44,wmoUnit:m,,,,,,
Lavaca,29.38437003,-96.93020993,24.444444444444443,wmoUnit:degC,94,2,16093.44,wmoUnit:m,,,,,,
Nolan,32.3034718,-100.4060989,25.555555555555557,wmoUnit:degC,58,49,14468.002191650448,wmoUnit:m,,,,,,
Gaines,32.74074537,-102.6351246,21.666666666666668,wmoUnit:degC,81,40,16093.44,wmoUnit:m,,,,,,
Montgomery,30.30022409,-95.50301411,23.88888888888889,wmoUnit:degC,84,0,16093.44,wmoUnit:m,,,,,,
Concho,31.32645211,-99.86413426,25.555555555555557,wmoUnit:degC,76,32,16093.44,wmoUnit:m,,,Flood Advisory,Minor,Expected,2025-06-03T09:30:00-05:00
Hardin,30.33238431,-94.39021394,23.333333333333332,wmoUnit:degC,90,0,16093.44,wmoUnit:m,,,,,,
Harris,29.85967144,-95.39782106,26.11111111111111,wmoUnit:degC,79,0,15948.59879443358,wmoUnit:m,,,,,,
Leon,31.29655719,-95.99554292,23.88888888888889,wmoUnit:degC,84,0,16093.44,wmoUnit:m,,,Flood Warning,Severe,Immediate,2025-06-04T02:30:00-05:00
Bowie,33.44572786,-94.42324298,23.88888888888889,wmoUnit:degC,87,1,16093.44,wmoUnit:m,,,,,,
Kaufman,32.59927808,-96.28779341,26.666666666666668,wmoUnit:degC,79,0,16093.44,wmoUnit:m,,,,,,
Anderson,31.81321543,-95.65251774,23.88888888888889,wmoUnit:degC,87,0,16093.44,wmoUnit:m,,,Flood Warning,Severe,Immediate,2025-06-03T16:45:00-05:00
San Saba,31.15520543,-98.81754295,25.0,wmoUnit:degC,82,12,16093.44,wmoUnit:m,,,,,,
Schleicher,30.89661056,-100.538097,26.11111111111111,wmoUnit:degC,69,36,16093.44,wmoUnit:m,,,Flood Advisory,Minor,Expected,2025-06-03T09:15:00-05:00
Colorado,29.6208542,-96.52630821,23.88888888888889,wmoUnit:degC,94,0,15160.02060278313,wmoUnit:m,,,,,,
Milam,30.78625299,-96.97683495,24.444444444444443,wmoUnit:degC,87,0,16093.44,wmoUnit:m,,,,,,
Live Oak,28.3514375,-98.12474493,26.11111111111111,wmoUnit:degC,91,0,15079.553095825224,wmoUnit:m,,,,,,
Borden,32.7436916,-101.4317533,22.77777777777778,wmoUnit:degC,76,49,16093.44,wmoUnit:m,,,,,,
McCulloch,31.19896752,-99.34754972,24.444444444444443,wmoUnit:degC,82,21,16093.44,wmoUnit:m,,,Flood Advisory,Minor,Expected,2025-06-03T09:30:00-05:00
Johnson,32.37899918,-97.36660504,26.11111111111111,wmoUnit:degC,79,2,16093.44,wmoUnit:m,,,,,,
Montague,33.67496328,-97.72466993,25.555555555555557,wmoUnit:degC,76,5,16093.44,wmoUnit:m,,,,,,
Stonewall,33.17842158,-100.255259,23.333333333333332,wmoUnit:degC,84,56,9656.064,wmoUnit:m,,,,,,
Comal,29.80816362,-98.27814516,24.444444444444443,wmoUnit:degC,91,1,16093.44,wmoUnit:m,,,,,,
Eastland,32.32739258,-98.8325713,26.11111111111111,wmoUnit:degC,67,5,16093.44,wmoUnit:m,,,,,,
Comanche,31.9490639,-98.55841538,25.555555555555557,wmoUnit:degC,76,5,16093.44,wmoUnit:m,,,,,,
King,33.61641863,-100.2558584,25.0,wmoUnit:degC,69,56,9656.064,wmoUnit:m,,,,,,
Washington,30.2145299,-96.40356575,24.444444444444443,wmoUnit:degC,85,0,15884.225095825224,wmoUnit:m,,,,,,
Webb,27.76102524,-99.33170164,27.22222222222222,wmoUnit:degC,77,0,16093.44,wmoUnit:m,,,,,,
Fayette,29.87683207,-96.91968047,24.444444444444443,wmoUnit:degC,92,1,16093.44,wmoUnit:m,,,,,,
Harrison,32.54814898,-94.37155736,24.444444444444443,wmoUnit:degC,87,0,16093.44,wmoUnit:m,,,,,,
Presidio,29.99977786,-104.2405552,22.22222222222222,wmoUnit:degC,49,12,16093.44,wmoUnit:m,,,,,,
Austin,29.88711223,-96.27791829,23.88888888888889,wmoUnit:degC,94,0,15546.262794433578,wmoUnit:m,,,,,,
Randall,34.96594288,-101.8968527,16.11111111111111,wmoUnit:degC,100,31,,,,,,,,
Hood,32.43107878,-97.83280338,26.666666666666668,wmoUnit:degC,74,3,16093.44,wmoUnit:m,,,,,,
Victoria,28.79640594,-96.97176602,25.555555555555557,wmoUnit:degC,94,1,15160.02060278313,wmoUnit:m,,,,,,
Hutchinson,35.84000866,-101.3547257,18.333333333333332,wmoUnit:degC,75,33,,,,,,,,
Coryell,31.39087578,-97.7991883,26.11111111111111,wmoUnit:degC,79,1,16093.44,wmoUnit:m,,,,,,
Jackson,28.95603133,-96.57883268,26.11111111111111,wmoUnit:degC,91,0,14999.085588867158,wmoUnit:m,,,,,,
Taylor,32.30138229,-99.89003941,24.444444444444443,wmoUnit:degC,74,42,16093.44,wmoUnit:m,,,,,,
Zapata,27.00089072,-99.16860134,26.11111111111111,wmoUnit:degC,84,1,,,,,,,,
San Patricio,28.00922186,-97.51859857,27.22222222222222,wmoUnit:degC,91,0,15063.459287475513,wmoUnit:m,,,,,,
Grimes,30.54360689,-95.98557334,24.444444444444443,wmoUnit:degC,85,0,16093.44,wmoUnit:m,,,Flood Warning,Severe,Immediate,2025-06-03T15:15:00-05:00
Lamb,34.06861242,-102.3517095,18.88888888888889,wmoUnit:degC,90,22,16093.44,wmoUnit:m,,,,,,
