countyName,latitude,longitude,temperature,temperature_unit,relativeHumidity,precipitationProbability,visibility,visibility_unit,hazard_phenomenon,hazard_significance,alert_event,alert_severity,alert_urgency,alert_expires
Foard,33.97408519,-99.77871109,15.555555555555555,wmoUnit:degC,81,0,,,,,,,,
Blanco,30.26636128,-98.39974086,23.333333333333332,wmoUnit:degC,94,39,11265.408,wmoUnit:m,,,,,,
Hockley,33.60750375,-102.3430919,12.777777777777779,wmoUnit:degC,83,2,15900.318904174776,wmoUnit:m,,,,,,
Llano,30.70566579,-98.68387398,20.555555555555557,wmoUnit:degC,98,17,13566.770411132842,wmoUnit:m,,,,,,
Swisher,34.53064989,-101.734951,12.222222222222221,wmoUnit:degC,77,1,16093.44,wmoUnit:m,,,,,,
Titus,33.2160906,-94.96509786,21.11111111111111,wmoUnit:degC,97,39,14548.469698608355,wmoUnit:m,,,,,,
Navarro,32.04695429,-96.47248134,22.77777777777778,wmoUnit:degC,87,14,16029.066301391646,wmoUnit:m,,,Flood Warning,Severe,Immediate,2025-06-05T07:45:00-05:00
Brazoria,29.19345387,-95.45578479,25.555555555555557,wmoUnit:degC,94,5,15932.504986084026,wmoUnit:m,,,,,,
Hidalgo,26.396627,-98.18088681,27.22222222222222,wmoUnit:degC,89,0,,,,,,,,
Archer,33.61539176,-98.68783437,16.666666666666668,wmoUnit:degC,87,1,,,,,,,,
Refugio,28.32681413,-97.16546961,26.11111111111111,wmoUnit:degC,88,1,15385.32931530762,wmoUnit:m,,,,,,
Andrews,32.30506283,-102.6378839,13.88888888888889,wmoUnit:degC,80,22,16093.44,wmoUnit:m,,,,,,
Galveston,29.39424415,-94.96474975,26.666666666666668,wmoUnit:degC,85,10,16061.252383300736,wmoUnit:m,,,,,,
De Witt,29.08201599,-97.35666976,25.0,wmoUnit:degC,95,13,11265.408,wmoUnit:m,,,,,,
Gonzales,29.45641495,-97.49279927,25.555555555555557,wmoUnit:degC,97,28,11265.408,wmoUnit:m,,,,,,
Wharton,29.2778362,-96.22197375,24.444444444444443,wmoUnit:degC,100,10,13969.106411132843,wmoUnit:m,,,,,,
Fannin,33.59396919,-96.10656755,21.666666666666668,wmoUnit:degC,93,12,13083.966904174777,wmoUnit:m,,,,,,
Madison,30.96564645,-95.92818441,24.444444444444443,wmoUnit:degC,97,54,14130.039890258802,wmoUnit:m,,,,,,
Moore,35.83768863,-101.8929556,10.0,wmoUnit:degC,83,27,,,,,,,,
Tyler,30.7712607,-94.37651432,22.22222222222222,wmoUnit:degC,93,4,14468.002191650448,wmoUnit:m,,,,,,
Lipscomb,36.27778432,-100.27317,9.444444444444445,wmoUnit:degC,80,1,,,,,,,,
Burleson,30.49246139,-96.62109399,25.555555555555557,wmoUnit:degC,91,57,15594.542684692382,wmoUnit:m,,,,,,
Jim Hogg,27.04340499,-98.6972921,25.555555555555557,wmoUnit:degC,94,0,,,,,,,,
Throckmorton,33.17753907,-99.21236832,16.11111111111111,wmoUnit:degC,84,0,,,,,,,,
Kleberg,27.43274395,-97.72889778,26.666666666666668,wmoUnit:degC,91,0,14226.601205566421,wmoUnit:m,,,,,,
Shelby,31.79242191,-94.14495261,21.11111111111111,wmoUnit:degC,93,6,14564.563506958068,wmoUnit:m,,,,,,
Garza,33.17991074,-101.2984496,14.444444444444445,wmoUnit:degC,83,0,16093.44,wmoUnit:m,,,,,,
Karnes,28.90493782,-97.85960621,25.555555555555557,wmoUnit:degC,91,8,11265.408,wmoUnit:m,,,,,,
Reeves,31.32307061,-103.693143,20.0,wmoUnit:degC,58,6,16093.44,wmoUnit:m,,,,,,
Houston,31.31764137,-95.42225367,23.333333333333332,wmoUnit:degC,97,39,12971.313315307618,wmoUnit:m,,,Flood Warning,Severe,Immediate,2025-06-05T01:00:00-05:00
El Paso,31.7686226,-106.2352229,21.11111111111111,wmoUnit:degC,39,2,16093.44,wmoUnit:m,,,,,,
Carson,35.40346802,-101.3542037,9.444444444444445,wmoUnit:degC,93,8,,,,,,,,
Medina,29.35520493,-99.11008331,24.444444444444443,wmoUnit:degC,94,31,11587.276493041933,wmoUnit:m,,,,,,
Wichita,33.98421585,-98.70153389,16.11111111111111,wmoUnit:degC,87,0,,,,,,,,
Chambers,29.73912276,-94.60891308,25.555555555555557,wmoUnit:degC,85,6,16077.34619165045,wmoUnit:m,,,Flood Warning,Severe,Immediate,2025-06-05T02:30:00-05:00
Donley,34.96540246,-100.8140501,12.777777777777779,wmoUnit:degC,90,2,,,,,,,,
Hopkins,33.14933822,-95.56414173,22.77777777777778,wmoUnit:degC,87,43,9656.064,wmoUnit:m,,,,,,
Lampasas,31.19627791,-98.24142711,21.11111111111111,wmoUnit:degC,100,30,16029.066301391646,wmoUnit:m,,,,,,
Falls,31.25317017,-96.93579511,23.88888888888889,wmoUnit:degC,87,54,9656.064,wmoUnit:m,,,,,,
Stephens,32.73584155,-98.83612016,17.77777777777778,wmoUnit:degC,90,6,13566.770411132842,wmoUnit:m,,,,,,
Travis,30.33423319,-97.78194654,26.11111111111111,wmoUnit:degC,91,41,11265.408,wmoUnit:m,,,,,,
Roberts,35.8385577,-100.8135689,10.0,wmoUnit:degC,89,3,,,,,,,,
Crosby,33.61459873,-101.2998612,13.333333333333334,wmoUnit:degC,83,0,15546.262794433578,wmoUnit:m,,,,,,
Kerr,30.06153035,-99.35016969,18.88888888888889,wmoUnit:degC,93,48,11265.408,wmoUnit:m,,,,,,
Wood,32.78634374,-95.38206498,21.11111111111111,wmoUnit:degC,100,36,12746.00460278313,wmoUnit:m,,,Flood Warning,Severe,Expected,2025-06-05T01:00:00-05:00
Jack,33.23345819,-98.1725509,17.77777777777778,wmoUnit:degC,84,5,15884.225095825224,wmoUnit:m,,,,,,
Marion,32.79797929,-94.35725239,21.11111111111111,wmoUnit:degC,97,9,16093.44,wmoUnit:m,,,,,,
Hale,34.07051782,-101.8269082,12.222222222222221,wmoUnit:degC,83,1,15691.104,wmoUnit:m,,,,,,
Jeff Davis,30.71559322,-104.1403539,12.222222222222221,wmoUnit:degC,94,3,16093.44,wmoUnit:m,,,,,,
Tarrant,32.77185236,-97.29116473,21.11111111111111,wmoUnit:degC,87,5,14596.749588867156,wmoUnit:m,,,,,,
Waller,30.01093722,-95.98768942,25.555555555555557,wmoUnit:degC,91,20,13067.873095825224,wmoUnit:m,,,,,,
Reagan,31.36617698,-101.5230108,17.22222222222222,wmoUnit:degC,79,9,16093.44,wmoUnit:m,,,,,,
Smith,32.37514553,-95.26909511,22.22222222222222,wmoUnit:degC,90,28,12746.00460278313,wmoUnit:m,,,Flood Warning,Severe,Expected,2025-06-05T01:00:00-05:00
Van Zandt,32.56368961,-95.8364862,22.77777777777778,wmoUnit:degC,81,31,9656.064,wmoUnit:m,,,,,,
Cooke,33.638465,-97.21247642,19.444444444444443,wmoUnit:degC,90,5,12311.481753478953,wmoUnit:m,,,,,,
Zavala,28.86530621,-99.76102001,26.11111111111111,wmoUnit:degC,96,8,16093.44,wmoUnit:m,,,,,,
Hall,34.53074134,-100.6809876,15.0,wmoUnit:degC,72,0,16093.44,wmoUnit:m,,,,,,
Kendall,29.9446397,-98.71160511,23.333333333333332,wmoUnit:degC,92,57,11265.408,wmoUnit:m,,,,,,
Goliad,28.65708563,-97.42646082,25.0,wmoUnit:degC,94,1,14049.572383300736,wmoUnit:m,,,,,,
Yoakum,33.17293501,-102.8278792,12.777777777777779,wmoUnit:degC,86,2,15996.878684692381,wmoUnit:m,,,,,,
Knox,33.60614755,-99.74144313,16.11111111111111,wmoUnit:degC,81,0,,,,,,,,
McLennan,31.55234489,-97.20184883,22.77777777777778,wmoUnit:degC,93,28,16061.252383300736,wmoUnit:m,,,,,,
Brewster,29.81205836,-103.2518906,21.666666666666668,wmoUnit:degC,86,1,16093.44,wmoUnit:m,,,,,,
Panola,32.16222886,-94.30552858,21.666666666666668,wmoUnit:degC,93,7,16093.44,wmoUnit:m,,,,,,
Bandera,29.74724753,-99.24637282,21.11111111111111,wmoUnit:degC,94,53,3717.5845479125314,wmoUnit:m,,,,,,
Parmer,34.53014507,-102.784594,10.0,wmoUnit:degC,89,2,16093.44,wmoUnit:m,,,,,,
Rockwall,32.89786769,-96.40780584,23.333333333333332,wmoUnit:degC,87,9,15304.861808349551,wmoUnit:m,,,Flood Warning,Severe,Immediate,2025-06-05T05:30:00-05:00
Trinity,31.0885069,-95.13551682,23.333333333333332,wmoUnit:degC,93,19,14709.404712524489,wmoUnit:m,,,Flood Warning,Severe,Immediate,2025-06-04T21:30:00-05:00
Bosque,31.90050476,-97.63437613,21.666666666666668,wmoUnit:degC,90,9,16012.972493041932,wmoUnit:m,,,,,,
Coke,31.88849293,-100.5298747,16.666666666666668,wmoUnit:degC,75,4,,,,,,,,
Franklin,33.17550691,-95.21841437,21.11111111111111,wmoUnit:degC,100,47,14548.469698608355,wmoUnit:m,,,,,,
Hill,31.99079033,-97.1324142,22.77777777777778,wmoUnit:degC,90,9,15884.225095825224,wmoUnit:m,,,,,,
Calhoun,28.48966896,-96.64708119,27.22222222222222,wmoUnit:degC,91,2,15079.553095825224,wmoUnit:m,,,,,,
Irion,31.30393203,-100.9824126,17.22222222222222,wmoUnit:degC,81,8,,,,,,,,
Midland,31.86921148,-102.0315032,16.11111111111111,wmoUnit:degC,72,16,16093.44,wmoUnit:m,,,,,,
Brown,31.77432313,-98.99989649,17.22222222222222,wmoUnit:degC,84,6,,,,,,,,
Wilson,29.17315896,-98.08621015,25.555555555555557,wmoUnit:degC,93,17,11265.408,wmoUnit:m,,,,,,
Oldham,35.40497586,-102.6029949,10.555555555555555,wmoUnit:degC,86,42,,,,,,,,
Freestone,31.70486443,-96.14918535,22.77777777777778,wmoUnit:degC,90,49,9656.064,wmoUnit:m,,,,,,
Sabine,31.34321941,-93.85170439,21.11111111111111,wmoUnit:degC,100,5,11265.408,wmoUnit:m,,,,,,
Deaf Smith,34.96602014,-102.6048162,9.444444444444445,wmoUnit:degC,89,28,,,,,,,,
Angelina,31.25475875,-94.611742,22.77777777777778,wmoUnit:degC,93,9,16093.44,wmoUnit:m,,,Flood Warning,Severe,Immediate,2025-06-04T21:30:00-05:00
Kent,33.18284492,-100.7791031,15.0,wmoUnit:degC,87,0,16093.44,wmoUnit:m,,,,,,
Red River,33.62074539,-95.0501886,21.11111111111111,wmoUnit:degC,97,53,11265.408,wmoUnit:m,,,,,,
Kinney,29.35000302,-100.4178441,25.0,wmoUnit:degC,91,16,15932.504986084026,wmoUnit:m,,,,,,
Denton,33.205574,-97.11681154,21.11111111111111,wmoUnit:degC,87,5,13309.275616699264,wmoUnit:m,,,,,,
Sutton,30.49747152,-100.5382263,19.444444444444443,wmoUnit:degC,97,17,,,,,,,,
Guadalupe,29.58257236,-97.94850308,25.555555555555557,wmoUnit:degC,92,33,11265.408,wmoUnit:m,,,,,,
Winkler,31.85008609,-103.0484794,15.555555555555555,wmoUnit:degC,76,19,16093.44,wmoUnit:m,,,,,,
Dimmit,28.42161168,-99.760574,26.11111111111111,wmoUnit:degC,88,8,16093.44,wmoUnit:m,,,,,,
Wise,33.21585061,-97.65444124,19.444444444444443,wmoUnit:degC,84,5,14677.217095825225,wmoUnit:m,,,,,,
Hemphill,35.83750155,-100.2704628,10.555555555555555,wmoUnit:degC,80,1,,,,,,,,
Potter,35.40128927,-101.8940484,9.444444444444445,wmoUnit:degC,89,20,,,,,,,,
Childress,34.52929257,-100.2075664,15.0,wmoUnit:degC,78,0,16093.44,wmoUnit:m,,,,,,
Willacy,26.47132899,-97.64303323,27.22222222222222,wmoUnit:degC,95,0,,,,,,,,
Bastrop,30.10353518,-97.31187705,26.11111111111111,wmoUnit:degC,93,44,11265.408,wmoUnit:m,,,,,,
Kimble,30.48676251,-99.74892716,20.0,wmoUnit:degC,97,23,,,,,,,,
Scurry,32.74720063,-100.9165071,15.0,wmoUnit:degC,83,10,16093.44,wmoUnit:m,,,,,,
Ochiltree,36.27846334,-100.815653,8.88888888888889,wmoUnit:degC,89,3,,,,,,,,
Hansford,36.27753179,-101.3545624,9.444444444444445,wmoUnit:degC,80,13,,,,,,,,
Hartley,35.83996755,-102.6028835,9.444444444444445,wmoUnit:degC,86,43,,,,,,,,
Cameron,26.13847728,-97.51499968,27.77777777777778,wmoUnit:degC,92,0,,,,,,,,
Matagorda,28.86711039,-95.98533866,27.22222222222222,wmoUnit:degC,97,9,15803.757588867158,wmoUnit:m,,,,,,
Burnet,30.78843382,-98.18252382,22.22222222222222,wmoUnit:degC,100,18,13244.900383300735,wmoUnit:m,,,,,,
Rains,32.87004212,-95.79347545,23.88888888888889,wmoUnit:degC,84,29,9656.064,wmoUnit:m,,,,,,
Hays,30.05782657,-98.03104087,24.444444444444443,wmoUnit:degC,97,44,11265.408,wmoUnit:m,,,,,,
Mason,30.71742293,-99.2263026,18.88888888888889,wmoUnit:degC,100,19,,,,,,,,
Ward,31.509424,-103.1024636,17.77777777777778,wmoUnit:degC,66,13,16093.44,wmoUnit:m,,,,,,
Delta,33.38623601,-95.67221685,23.333333333333332,wmoUnit:degC,87,33,9656.064,wmoUnit:m,,,,,,
Nueces,27.72621549,-97.61767326,26.666666666666668,wmoUnit:degC,88,0,15127.832986084028,wmoUnit:m,,,,,,
Callahan,32.2977738,-99.37359692,16.11111111111111,wmoUnit:degC,87,1,,,,,,,,
Bell,31.03778267,-97.47790776,23.333333333333332,wmoUnit:degC,100,51,15320.955616699264,wmoUnit:m,,,,,,
Cherokee,31.83695632,-95.16515234,22.77777777777778,wmoUnit:degC,93,24,11265.408,wmoUnit:m,,,Flood Warning,Severe,Immediate,2025-06-05T01:00:00-05:00
Ellis,32.34839264,-96.79467417,22.77777777777778,wmoUnit:degC,97,8,15449.703013915972,wmoUnit:m,,,,,,
Lubbock,33.6101944,-101.8205745,13.88888888888889,wmoUnit:degC,80,1,15900.318904174776,wmoUnit:m,,,,,,
Terrell,30.22502597,-102.0764533,22.77777777777778,wmoUnit:degC,84,9,16093.44,wmoUnit:m,,,,,,
Crockett,30.72291931,-101.4118364,18.333333333333332,wmoUnit:degC,81,11,,,,,,,,
Atascosa,28.89418432,-98.52741302,25.0,wmoUnit:degC,95,8,13486.302904174776,wmoUnit:m,,,,,,
Ector,31.86908156,-102.5430907,15.0,wmoUnit:degC,80,19,16093.44,wmoUnit:m,,,,,,
Brazos,30.6610425,-96.3022943,25.555555555555557,wmoUnit:degC,91,53,9656.064,wmoUnit:m,,,,,,
Aransas,28.12709562,-96.99258951,27.22222222222222,wmoUnit:degC,91,2,15433.609205566421,wmoUnit:m,,,,,,
Dallas,32.76653746,-96.77781862,23.333333333333332,wmoUnit:degC,84,7,14870.338191650448,wmoUnit:m,,,Flood Warning,Severe,Immediate,2025-06-05T05:00:00-05:00
Howard,32.30610232,-101.4355097,15.0,wmoUnit:degC,78,12,16093.44,wmoUnit:m,,,,,,
Motley,34.07409017,-100.7798961,13.88888888888889,wmoUnit:degC,90,0,16093.44,wmoUnit:m,,,,,,
San Augustine,31.39427005,-94.16809762,20.555555555555557,wmoUnit:degC,100,8,12746.00460278313,wmoUnit:m,,,,,,
Maverick,28.74260943,-100.3144638,26.666666666666668,wmoUnit:degC,91,8,16093.44,wmoUnit:m,,,,,,
Erath,32.23640361,-98.21722756,18.88888888888889,wmoUnit:degC,84,5,15996.878684692381,wmoUnit:m,,,,,,
Dickens,33.61663428,-100.7788138,14.444444444444445,wmoUnit:degC,87,0,15755.477698608354,wmoUnit:m,,,,,,
Caldwell,29.83677935,-97.61983479,25.555555555555557,wmoUnit:degC,98,42,11265.408,wmoUnit:m,,,,,,
Dawson,32.74258137,-101.9476136,13.88888888888889,wmoUnit:degC,84,17,16093.44,wmoUnit:m,,,,,,
Camp,32.97321771,-94.97860185,21.11111111111111,wmoUnit:degC,97,29,16093.44,wmoUnit:m,,,,,,
Duval,27.68133382,-98.50889672,25.0,wmoUnit:degC,94,0,11297.594849304178,wmoUnit:m,,,,,,
Hunt,33.123531,-96.08550014,23.333333333333332,wmoUnit:degC,97,11,15288.768,wmoUnit:m,,,Flood Warning,Severe,Immediate,2025-06-05T05:30:00-05:00
Mills,31.49524259,-98.59552736,19.444444444444443,wmoUnit:degC,100,15,16093.44,wmoUnit:m,,,,,,
Val Verde,29.89300587,-101.15171,25.0,wmoUnit:degC,87,18,15803.757588867158,wmoUnit:m,,,,,,
Pecos,30.78100044,-102.7235743,20.0,wmoUnit:degC,74,6,16093.44,wmoUnit:m,,,,,,
Baylor,33.61648147,-99.21351964,16.11111111111111,wmoUnit:degC,84,0,,,,,,,,
Gregg,32.48036452,-94.81723694,21.666666666666668,wmoUnit:degC,93,16,16093.44,wmoUnit:m,,,,,,
Cochran,33.60410808,-102.8285264,12.222222222222221,wmoUnit:degC,80,1,15562.35660278313,wmoUnit:m,,,,,,
Jasper,30.74391255,-94.02495849,22.22222222222222,wmoUnit:degC,97,3,12649.444054870599,wmoUnit:m,,,,,,
Hamilton,31.70479181,-98.11066654,20.555555555555557,wmoUnit:degC,100,11,16093.44,wmoUnit:m,,,,,,
Castro,34.53000304,-102.2617608,11.11111111111111,wmoUnit:degC,77,2,16093.44,wmoUnit:m,,,,,,
Sterling,31.82786516,-101.0500699,15.555555555555555,wmoUnit:degC,81,8,,,,,,,,
Starr,26.56212627,-98.73834895,26.11111111111111,wmoUnit:degC,87,0,,,,,,,,
Crane,31.42846287,-102.5156425,18.333333333333332,wmoUnit:degC,69,13,16093.44,wmoUnit:m,,,,,,
Morris,33.11368507,-94.73205137,21.11111111111111,wmoUnit:degC,97,22,14548.469698608355,wmoUnit:m,,,,,,
Briscoe,34.53041048,-101.2085769,11.666666666666666,wmoUnit:degC,83,1,16093.44,wmoUnit:m,,,,,,
Tom Green,31.4044442,-100.4620678,17.22222222222222,wmoUnit:degC,84,6,,,,,,,,
Menard,30.88981785,-99.82061472,18.333333333333332,wmoUnit:degC,93,15,,,,,,,,
Parker,32.77852261,-97.80472194,19.444444444444443,wmoUnit:degC,84,5,15771.571506958067,wmoUnit:m,,,,,,
Walker,30.73899492,-95.57224172,25.0,wmoUnit:degC,87,26,15852.039013915974,wmoUnit:m,,,Flood Warning,Severe,Immediate,2025-06-05T02:30:00-05:00
Brooks,27.0315669,-98.21874127,26.666666666666668,wmoUnit:degC,94,0,,,,,,,,
La Salle,28.34621032,-99.1034773,26.11111111111111,wmoUnit:degC,85,0,14805.964493041933,wmoUnit:m,,,,,,
Edwards,29.98248216,-100.3048937,19.444444444444443,wmoUnit:degC,90,32,11265.408,wmoUnit:m,,,,,,
Lee,30.31065065,-96.96568735,25.555555555555557,wmoUnit:degC,91,35,11732.117698608354,wmoUnit:m,,,,,,
Robertson,31.02705415,-96.51272568,24.444444444444443,wmoUnit:degC,87,57,9656.064,wmoUnit:m,,,Flood Warning,Severe,Immediate,2025-06-05T07:45:00-05:00
Young,33.17670764,-98.68781396,17.22222222222222,wmoUnit:degC,100,5,15675.010191650448,wmoUnit:m,,,,,,
Bee,28.41736675,-97.74116811,25.0,wmoUnit:degC,94,0,13582.862684692382,wmoUnit:m,,,,,,
Clay,33.78379717,-98.208958,17.22222222222222,wmoUnit:degC,90,2,,,,,,,,
San Jacinto,30.57948905,-95.16683273,23.333333333333332,wmoUnit:degC,93,10,15385.32931530762,wmoUnit:m,,,Flood Warning,Severe,Immediate,2025-06-05T02:30:00-05:00
Uvalde,29.35669829,-99.76203107,25.0,wmoUnit:degC,92,28,14838.152109741197,wmoUnit:m,,,,,,
Haskell,33.17824805,-99.73029401,16.11111111111111,wmoUnit:degC,81,1,,,,,,,,
Somervell,32.22229511,-97.77456553,21.11111111111111,wmoUnit:degC,87,5,15900.318904174776,wmoUnit:m,,,,,,
Bexar,29.44884523,-98.51966309,26.11111111111111,wmoUnit:degC,89,30,11265.408,wmoUnit:m,,,,,,
Grayson,33.62684371,-96.67764864,20.555555555555557,wmoUnit:degC,97,8,12247.108054870598,wmoUnit:m,,,,,,
Bailey,34.0684915,-102.8299069,11.666666666666666,wmoUnit:degC,80,2,16061.252383300736,wmoUnit:m,,,,,,
Jones,32.73970429,-99.87850599,16.666666666666668,wmoUnit:degC,78,1,,,,,,,,
Jefferson,29.88425832,-94.1708778,23.88888888888889,wmoUnit:degC,90,4,15948.59879443358,wmoUnit:m,,,,,,
Rusk,32.10803224,-94.76169577,22.77777777777778,wmoUnit:degC,90,14,12746.00460278313,wmoUnit:m,,,,,,
Glasscock,31.8694238,-101.520742,15.0,wmoUnit:degC,78,12,16093.44,wmoUnit:m,,,,,,
Gillespie,30.31800246,-98.94627245,19.444444444444443,wmoUnit:degC,95,34,11265.408,wmoUnit:m,,,,,,
Fisher,32.74305155,-100.4019503,16.11111111111111,wmoUnit:degC,78,4,,,,,,,,
Henderson,32.21188078,-95.85356847,22.77777777777778,wmoUnit:degC,93,42,9656.064,wmoUnit:m,,,Flood Warning,Severe,Immediate,2025-06-05T07:45:00-05:00
Shackelford,32.7360276,-99.35403034,16.11111111111111,wmoUnit:degC,90,0,,,,,,,,
Palo Pinto,32.75316856,-98.31299522,18.333333333333332,wmoUnit:degC,93,5,15514.076712524487,wmoUnit:m,,,,,,
Wilbarger,34.08044953,-99.24089568,15.555555555555555,wmoUnit:degC,81,0,,,,,,,,
Floyd,34.07239775,-101.3033037,12.222222222222221,wmoUnit:degC,86,0,15481.889095825225,wmoUnit:m,,,,,,
Orange,30.12807126,-93.89653794,23.88888888888889,wmoUnit:degC,90,2,14999.085588867158,wmoUnit:m,,,,,,
Runnels,31.83105393,-99.97624799,17.22222222222222,wmoUnit:degC,75,3,,,,,,,,
Coleman,31.77329421,-99.45362579,16.666666666666668,wmoUnit:degC,87,4,,,,,,,,
Martin,32.30605847,-101.9512464,14.444444444444445,wmoUnit:degC,79,17,16093.44,wmoUnit:m,,,,,,
Wheeler,35.40129002,-100.2697634,12.777777777777779,wmoUnit:degC,77,0,,,,,,,,
Culberson,31.44709817,-104.5177421,15.555555555555555,wmoUnit:degC,70,2,16093.44,wmoUnit:m,,,,,,
Mitchell,32.30636024,-100.9211128,16.11111111111111,wmoUnit:degC,79,9,16093.44,wmoUnit:m,,,,,,
Hudspeth,31.45613738,-105.3869428,17.22222222222222,wmoUnit:degC,60,0,16093.44,wmoUnit:m,,,,,,
Upshur,32.7362827,-94.94132011,21.11111111111111,wmoUnit:degC,97,24,16093.44,wmoUnit:m,,,,,,
Liberty,30.15153187,-94.8120925,23.88888888888889,wmoUnit:degC,90,5,15964.69260278313,wmoUnit:m,,,Flood Warning,Severe,Immediate,2025-06-05T02:30:00-05:00
Williamson,30.64834941,-97.60105467,25.0,wmoUnit:degC,91,32,12858.65819165045,wmoUnit:m,,,,,,
Nacogdoches,31.61604108,-94.6158776,22.22222222222222,wmoUnit:degC,93,15,16093.44,wmoUnit:m,,,Flood Warning,Severe,Immediate,2025-06-05T01:00:00-05:00
Loving,31.84912973,-103.5799063,17.22222222222222,wmoUnit:degC,73,9,16093.44,wmoUnit:m,,,,,,
Jim Wells,27.73131099,-98.0898649,25.555555555555557,wmoUnit:degC,94,0,11265.408,wmoUnit:m,,,,,,
Upton,31.36853957,-102.0430005,17.77777777777778,wmoUnit:degC,74,10,16093.44,wmoUnit:m,,,,,,
Newton,30.78619977,-93.74462993,21.666666666666668,wmoUnit:degC,97,3,14387.534684692382,wmoUnit:m,,,,,,
Lamar,33.66746186,-95.57110784,22.77777777777778,wmoUnit:degC,93,43,9656.064,wmoUnit:m,,,,,,
Polk,30.79250963,-94.82994949,23.88888888888889,wmoUnit:degC,87,12,15948.59879443358,wmoUnit:m,,,Flood Warning,Severe,Immediate,2025-06-04T21:30:00-05:00
Collin,33.18789055,-96.57248871,22.22222222222222,wmoUnit:degC,87,8,13759.891506958067,wmoUnit:m,,,,,,
Hardeman,34.28865227,-99.7453851,15.0,wmoUnit:degC,80,0,,,,,,,,
McMullen,28.35351091,-98.56842256,25.555555555555557,wmoUnit:degC,91,0,14290.974904174776,wmoUnit:m,,,,,,
Cottle,34.0776571,-100.2786983,15.0,wmoUnit:degC,80,0,16093.44,wmoUnit:m,,,,,,
Frio,28.86726774,-99.10826004,25.0,wmoUnit:degC,92,8,15691.104,wmoUnit:m,,,,,,
Gray,35.40130666,-100.812475,11.11111111111111,wmoUnit:degC,86,2,,,,,,,,
Dallam,36.27777107,-102.6021647,8.88888888888889,wmoUnit:degC,80,37,,,,,,,,
Kenedy,26.92409448,-97.68137783,26.666666666666668,wmoUnit:degC,93,0,,,,,,,,
Fort Bend,29.52763253,-95.77090562,25.555555555555557,wmoUnit:degC,94,5,15127.832986084028,wmoUnit:m,,,,,,
Armstrong,34.96522076,-101.3572412,10.0,wmoUnit:degC,96,4,,,,,,,,
Collingsworth,34.96498493,-100.2700733,14.444444444444445,wmoUnit:degC,72,1,,,,,,,,
Cass,33.07750446,-94.34348771,21.666666666666668,wmoUnit:degC,90,12,14548.469698608355,wmoUnit:m,,,,,,
Sherman,36.27765824,-101.8933822,10.0,wmoUnit:degC,74,24,,,,,,,,
Terry,33.17373729,-102.335157,13.333333333333334,wmoUnit:degC,83,4,16077.34619165045,wmoUnit:m,,,,,,
Limestone,31.54541898,-96.58056718,22.22222222222222,wmoUnit:degC,84,47,9656.064,wmoUnit:m,,,,,,
Real,29.83182711,-99.82215881,20.555555555555557,wmoUnit:degC,94,44,11265.408,wmoUnit:m,,,,,,
Lynn,33.17685487,-101.8160235,13.333333333333334,wmoUnit:degC,86,2,15610.636493041933,wmoUnit:m,,,,,,
Lavaca,29.38437003,-96.93020993,25.0,wmoUnit:degC,99,20,11265.408,wmoUnit:m,,,,,,
Nolan,32.3034718,-100.4060989,14.444444444444445,wmoUnit:degC,87,3,,,,,,,,
Gaines,32.74074537,-102.6351246,13.88888888888889,wmoUnit:degC,84,21,16093.44,wmoUnit:m,,,,,,
Montgomery,30.30022409,-95.50301411,25.555555555555557,wmoUnit:degC,85,7,15642.824109741197,wmoUnit:m,,,,,,
Concho,31.32645211,-99.86413426,17.22222222222222,wmoUnit:degC,93,8,,,,,,,,
Hardin,30.33238431,-94.39021394,22.22222222222222,wmoUnit:degC,93,4,14870.338191650448,wmoUnit:m,,,,,,
Harris,29.85967144,-95.39782106,26.666666666666668,wmoUnit:degC,82,3,15916.412712524489,wmoUnit:m,,,,,,
Leon,31.29655719,-95.99554292,23.88888888888889,wmoUnit:degC,90,53,9656.064,wmoUnit:m,,,Flood Warning,Severe,Immediate,2025-06-05T07:45:00-05:00
Bowie,33.44572786,-94.42324298,21.666666666666668,wmoUnit:degC,90,17,12746.00460278313,wmoUnit:m,,,,,,
Kaufman,32.59927808,-96.28779341,23.333333333333332,wmoUnit:degC,82,9,15932.504986084026,wmoUnit:m,,,Flood Warning,Severe,Expected,2025-06-05T07:45:00-05:00
Anderson,31.81321543,-95.65251774,23.333333333333332,wmoUnit:degC,90,57,9656.064,wmoUnit:m,,,Flood Warning,Severe,Immediate,2025-06-05T01:00:00-05:00
San Saba,31.15520543,-98.81754295,18.88888888888889,wmoUnit:degC,93,11,,,,,,,,
Schleicher,30.89661056,-100.538097,17.77777777777778,wmoUnit:degC,90,12,,,,,,,,
Colorado,29.6208542,-96.52630821,24.444444444444443,wmoUnit:degC,100,23,15095.646904174775,wmoUnit:m,,,,,,
Milam,30.78625299,-96.97683495,25.0,wmoUnit:degC,94,57,9656.064,wmoUnit:m,,,,,,
Live Oak,28.3514375,-98.12474493,25.555555555555557,wmoUnit:degC,94,1,13405.83539721687,wmoUnit:m,,,,,,
Borden,32.7436916,-101.4317533,14.444444444444445,wmoUnit:degC,84,13,16093.44,wmoUnit:m,,,,,,
McCulloch,31.19896752,-99.34754972,16.666666666666668,wmoUnit:degC,97,11,,,,,,,,
Johnson,32.37899918,-97.36660504,21.11111111111111,wmoUnit:degC,100,5,15160.02060278313,wmoUnit:m,,,,,,
Montague,33.67496328,-97.72466993,17.77777777777778,wmoUnit:degC,84,5,13438.023013915972,wmoUnit:m,,,,,,
Stonewall,33.17842158,-100.255259,16.666666666666668,wmoUnit:degC,78,0,16093.44,wmoUnit:m,,,,,,
Comal,29.80816362,-98.27814516,24.444444444444443,wmoUnit:degC,95,42,11265.408,wmoUnit:m,,,,,,
Eastland,32.32739258,-98.8325713,17.77777777777778,wmoUnit:degC,84,6,15031.273205566422,wmoUnit:m,,,,,,
Comanche,31.9490639,-98.55841538,19.444444444444443,wmoUnit:degC,90,7,16061.252383300736,wmoUnit:m,,,,,,
King,33.61641863,-100.2558584,16.11111111111111,wmoUnit:degC,81,0,16093.44,wmoUnit:m,,,,,,
Washington,30.2145299,-96.40356575,24.444444444444443,wmoUnit:degC,94,48,15658.916383300735,wmoUnit:m,,,,,,
Webb,27.76102524,-99.33170164,26.11111111111111,wmoUnit:degC,85,0,15465.795287475512,wmoUnit:m,,,,,,
Fayette,29.87683207,-96.91968047,25.555555555555557,wmoUnit:degC,93,31,11265.408,wmoUnit:m,,,,,,
Harrison,32.54814898,-94.37155736,22.22222222222222,wmoUnit:degC,90,11,16093.44,wmoUnit:m,,,,,,
Presidio,29.99977786,-104.2405552,17.77777777777778,wmoUnit:degC,46,0,16093.44,wmoUnit:m,,,,,,
Austin,29.88711223,-96.27791829,25.0,wmoUnit:degC,94,33,14870.338191650448,wmoUnit:m,,,,,,
Randall,34.96594288,-101.8968527,10.555555555555555,wmoUnit:degC,96,12,,,,,,,,
Hood,32.43107878,-97.83280338,20.0,wmoUnit:degC,84,5,15884.225095825224,wmoUnit:m,,,,,,
Victoria,28.79640594,-96.97176602,25.555555555555557,wmoUnit:degC,94,1,13244.900383300735,wmoUnit:m,,,,,,
Hutchinson,35.84000866,-101.3547257,10.0,wmoUnit:degC,80,13,,,,,,,,
Coryell,31.39087578,-97.7991883,22.77777777777778,wmoUnit:degC,100,26,16061.252383300736,wmoUnit:m,,,,,,
Jackson,28.95603133,-96.57883268,26.11111111111111,wmoUnit:degC,97,7,14918.619616699263,wmoUnit:m,,,,,,
Taylor,32.30138229,-99.89003941,15.555555555555555,wmoUnit:degC,84,1,,,,,,,,
Zapata,27.00089072,-99.16860134,26.666666666666668,wmoUnit:degC,86,0,,,,,,,,
San Patricio,28.00922186,-97.51859857,26.666666666666668,wmoUnit:degC,91,1,14628.93720556642,wmoUnit:m,,,,,,
Grimes,30.54360689,-95.98557334,25.555555555555557,wmoUnit:degC,94,40,13003.49939721687,wmoUnit:m,,,,,,
Lamb,34.06861242,-102.3517095,11.666666666666666,wmoUnit:degC,86,3,16093.44,wmoUnit:m,,,,,,
