countyName,latitude,longitude,temperature,temperature_unit,relativeHumidity,precipitationProbability,visibility,visibility_unit,hazard_phenomenon,hazard_significance,alert_event,alert_severity,alert_urgency,alert_expires
Foard,33.97408519,-99.77871109,16.11111111111111,wmoUnit:degC,94,42,,,,,,,,
Blanco,30.26636128,-98.39974086,20.555555555555557,wmoUnit:degC,96,57,14468.002191650448,wmoUnit:m,,,,,,
Hockley,33.60750375,-102.3430919,13.88888888888889,wmoUnit:degC,96,10,14226.601205566421,wmoUnit:m,,,,,,
Llano,30.70566579,-98.68387398,21.11111111111111,wmoUnit:degC,91,44,16093.44,wmoUnit:m,,,,,,
Swisher,34.53064989,-101.734951,11.666666666666666,wmoUnit:degC,100,8,12890.845808349552,wmoUnit:m,,,,,,
Titus,33.2160906,-94.96509786,18.333333333333332,wmoUnit:degC,93,40,11265.408,wmoUnit:m,,,,,,
Navarro,32.04695429,-96.47248134,21.666666666666668,wmoUnit:degC,93,48,16093.44,wmoUnit:m,,,,,,
Brazoria,29.19345387,-95.45578479,24.444444444444443,wmoUnit:degC,97,7,12375.855452087468,wmoUnit:m,,,,,,
Hidalgo,26.396627,-98.18088681,25.555555555555557,wmoUnit:degC,95,0,,,,,,,,
Archer,33.61539176,-98.68783437,16.666666666666668,wmoUnit:degC,100,33,,,,,,,,
Refugio,28.32681413,-97.16546961,25.0,wmoUnit:degC,97,4,9479.0359451294,wmoUnit:m,,,,,,
Andrews,32.30506283,-102.6378839,16.11111111111111,wmoUnit:degC,90,14,16093.44,wmoUnit:m,,,,,,
Galveston,29.39424415,-94.96474975,24.444444444444443,wmoUnit:degC,100,6,13116.152986084027,wmoUnit:m,,,,,,
De Witt,29.08201599,-97.35666976,23.88888888888889,wmoUnit:degC,100,25,11265.408,wmoUnit:m,,,,,,
Gonzales,29.45641495,-97.49279927,25.0,wmoUnit:degC,94,39,11265.408,wmoUnit:m,,,,,,
Wharton,29.2778362,-96.22197375,24.444444444444443,wmoUnit:degC,97,11,11265.408,wmoUnit:m,,,,,,
Fannin,33.59396919,-96.10656755,16.666666666666668,wmoUnit:degC,100,22,16093.44,wmoUnit:m,,,,,,
Madison,30.96564645,-95.92818441,22.22222222222222,wmoUnit:degC,93,25,13840.359013915973,wmoUnit:m,,,,,,
Moore,35.83768863,-101.8929556,10.555555555555555,wmoUnit:degC,96,6,,,,,,,,
Tyler,30.7712607,-94.37651432,22.22222222222222,wmoUnit:degC,100,8,7451.262904174776,wmoUnit:m,,,,,,
Lipscomb,36.27778432,-100.27317,10.0,wmoUnit:degC,96,0,,,,,,,,
Burleson,30.49246139,-96.62109399,22.77777777777778,wmoUnit:degC,97,29,12568.97654791253,wmoUnit:m,,,,,,
Jim Hogg,27.04340499,-98.6972921,23.88888888888889,wmoUnit:degC,98,0,,,,,,,,
Throckmorton,33.17753907,-99.21236832,18.333333333333332,wmoUnit:degC,93,54,16093.44,wmoUnit:m,,,,,,
Kleberg,27.43274395,-97.72889778,25.555555555555557,wmoUnit:degC,97,0,11136.66060278313,wmoUnit:m,,,,,,
Shelby,31.79242191,-94.14495261,20.0,wmoUnit:degC,97,21,7934.065643737756,wmoUnit:m,,,,,,
Garza,33.17991074,-101.2984496,15.0,wmoUnit:degC,93,11,13148.34060278313,wmoUnit:m,,,,,,
Karnes,28.90493782,-97.85960621,25.0,wmoUnit:degC,100,33,11265.408,wmoUnit:m,,,,,,
Reeves,31.32307061,-103.693143,19.444444444444443,wmoUnit:degC,84,25,16093.44,wmoUnit:m,,,,,,
Houston,31.31764137,-95.42225367,21.666666666666668,wmoUnit:degC,97,24,12939.125698608354,wmoUnit:m,,,Flood Warning,Severe,Immediate,2025-05-31T12:00:00-05:00
El Paso,31.7686226,-106.2352229,24.444444444444443,wmoUnit:degC,37,0,16093.44,wmoUnit:m,,,,,,
Carson,35.40346802,-101.3542037,11.666666666666666,wmoUnit:degC,89,4,,,,,,,,
Medina,29.35520493,-99.11008331,20.0,wmoUnit:degC,89,66,16093.44,wmoUnit:m,,,,,,
Wichita,33.98421585,-98.70153389,15.555555555555555,wmoUnit:degC,99,35,,,,,,,,
Chambers,29.73912276,-94.60891308,23.88888888888889,wmoUnit:degC,97,5,11748.211506958067,wmoUnit:m,,,Flood Advisory,Minor,Expected,2025-05-30T15:15:00-05:00
Donley,34.96540246,-100.8140501,12.222222222222221,wmoUnit:degC,96,6,,,,,,,,
Hopkins,33.14933822,-95.56414173,20.555555555555557,wmoUnit:degC,87,47,16093.44,wmoUnit:m,,,,,,
Lampasas,31.19627791,-98.24142711,18.333333333333332,wmoUnit:degC,100,39,16093.44,wmoUnit:m,,,,,,
Falls,31.25317017,-96.93579511,21.666666666666668,wmoUnit:degC,97,50,16093.44,wmoUnit:m,,,,,,
Stephens,32.73584155,-98.83612016,17.22222222222222,wmoUnit:degC,100,22,12794.284493041932,wmoUnit:m,,,,,,
Travis,30.33423319,-97.78194654,21.666666666666668,wmoUnit:degC,90,62,11265.408,wmoUnit:m,,,,,,
Roberts,35.8385577,-100.8135689,11.666666666666666,wmoUnit:degC,89,2,,,,,,,,
Crosby,33.61459873,-101.2998612,12.777777777777779,wmoUnit:degC,100,11,13212.714301391645,wmoUnit:m,,,,,,
Kerr,30.06153035,-99.35016969,20.0,wmoUnit:degC,91,47,9656.064,wmoUnit:m,,,,,,
Wood,32.78634374,-95.38206498,18.88888888888889,wmoUnit:degC,93,40,11265.408,wmoUnit:m,,,,,,
Jack,33.23345819,-98.1725509,16.11111111111111,wmoUnit:degC,100,22,16093.44,wmoUnit:m,,,,,,
Marion,32.79797929,-94.35725239,19.444444444444443,wmoUnit:degC,100,39,11265.408,wmoUnit:m,,,,,,
Hale,34.07051782,-101.8269082,12.777777777777779,wmoUnit:degC,100,9,13679.424,wmoUnit:m,,,,,,
Jeff Davis,30.71559322,-104.1403539,15.555555555555555,wmoUnit:degC,87,25,11265.408,wmoUnit:m,,,,,,
Tarrant,32.77185236,-97.29116473,19.444444444444443,wmoUnit:degC,97,22,16093.44,wmoUnit:m,,,,,,
Waller,30.01093722,-95.98768942,23.333333333333332,wmoUnit:degC,97,17,11909.145753478953,wmoUnit:m,,,,,,
Reagan,31.36617698,-101.5230108,18.88888888888889,wmoUnit:degC,90,24,16093.44,wmoUnit:m,,,,,,
Smith,32.37514553,-95.26909511,20.0,wmoUnit:degC,97,39,16093.44,wmoUnit:m,,,,,,
Van Zandt,32.56368961,-95.8364862,20.0,wmoUnit:degC,90,48,16093.44,wmoUnit:m,,,,,,
Cooke,33.638465,-97.21247642,15.555555555555555,wmoUnit:degC,100,22,16093.44,wmoUnit:m,,,,,,
Zavala,28.86530621,-99.76102001,23.88888888888889,wmoUnit:degC,80,62,11265.408,wmoUnit:m,,,,,,
Hall,34.53074134,-100.6809876,15.0,wmoUnit:degC,96,8,13872.545095825224,wmoUnit:m,,,,,,
Kendall,29.9446397,-98.71160511,21.11111111111111,wmoUnit:degC,94,58,11265.408,wmoUnit:m,,,,,,
Goliad,28.65708563,-97.42646082,23.88888888888889,wmoUnit:degC,100,5,7934.065643737756,wmoUnit:m,,,,,,
Yoakum,33.17293501,-102.8278792,14.444444444444445,wmoUnit:degC,100,10,14242.695013915973,wmoUnit:m,,,,,,
Knox,33.60614755,-99.74144313,16.666666666666668,wmoUnit:degC,94,27,,,,,,,,
McLennan,31.55234489,-97.20184883,22.22222222222222,wmoUnit:degC,93,49,16093.44,wmoUnit:m,,,,,,
Brewster,29.81205836,-103.2518906,21.666666666666668,wmoUnit:degC,76,44,16093.44,wmoUnit:m,,,,,,
Panola,32.16222886,-94.30552858,20.555555555555557,wmoUnit:degC,93,29,16093.44,wmoUnit:m,,,,,,
Bandera,29.74724753,-99.24637282,20.0,wmoUnit:degC,91,61,11265.408,wmoUnit:m,,,,,,
Parmer,34.53014507,-102.784594,12.222222222222221,wmoUnit:degC,100,6,11796.49139721687,wmoUnit:m,,,,,,
Rockwall,32.89786769,-96.40780584,19.444444444444443,wmoUnit:degC,87,27,12794.284493041932,wmoUnit:m,,,,,,
Trinity,31.0885069,-95.13551682,22.22222222222222,wmoUnit:degC,93,18,12488.509808349552,wmoUnit:m,,,Flood Warning,Severe,Immediate,2025-05-31T12:00:00-05:00
Bosque,31.90050476,-97.63437613,21.666666666666668,wmoUnit:degC,97,27,11265.408,wmoUnit:m,,,,,,
Coke,31.88849293,-100.5298747,18.88888888888889,wmoUnit:degC,90,31,16093.44,wmoUnit:m,,,,,,
Franklin,33.17550691,-95.21841437,18.333333333333332,wmoUnit:degC,93,40,11265.408,wmoUnit:m,,,,,,
Hill,31.99079033,-97.1324142,22.22222222222222,wmoUnit:degC,100,36,11265.408,wmoUnit:m,,,,,,
Calhoun,28.48966896,-96.64708119,26.666666666666668,wmoUnit:degC,94,4,9479.0359451294,wmoUnit:m,,,,,,
Irion,31.30393203,-100.9824126,20.0,wmoUnit:degC,87,35,16093.44,wmoUnit:m,,,,,,
Midland,31.86921148,-102.0315032,18.333333333333332,wmoUnit:degC,87,18,16093.44,wmoUnit:m,,,,,,
Brown,31.77432313,-98.99989649,20.555555555555557,wmoUnit:degC,93,48,16093.44,wmoUnit:m,,,,,,
Wilson,29.17315896,-98.08621015,24.444444444444443,wmoUnit:degC,82,42,16093.44,wmoUnit:m,,,,,,
Oldham,35.40497586,-102.6029949,11.666666666666666,wmoUnit:degC,100,1,,,,,,,,
Freestone,31.70486443,-96.14918535,21.11111111111111,wmoUnit:degC,97,46,16093.44,wmoUnit:m,,,,,,
Sabine,31.34321941,-93.85170439,21.11111111111111,wmoUnit:degC,97,12,6276.441753478953,wmoUnit:m,,,,,,
Deaf Smith,34.96602014,-102.6048162,11.666666666666666,wmoUnit:degC,100,1,,,,,,,,
Angelina,31.25475875,-94.611742,21.666666666666668,wmoUnit:degC,93,18,9479.0359451294,wmoUnit:m,,,Flood Warning,Severe,Immediate,2025-05-31T12:00:00-05:00
Kent,33.18284492,-100.7791031,15.0,wmoUnit:degC,96,11,12746.00460278313,wmoUnit:m,,,,,,
Red River,33.62074539,-95.0501886,17.22222222222222,wmoUnit:degC,97,35,11265.408,wmoUnit:m,,,,,,
Kinney,29.35000302,-100.4178441,20.555555555555557,wmoUnit:degC,91,74,9656.064,wmoUnit:m,,,,,,
Denton,33.205574,-97.11681154,17.22222222222222,wmoUnit:degC,100,22,16093.44,wmoUnit:m,,,,,,
Sutton,30.49747152,-100.5382263,21.666666666666668,wmoUnit:degC,81,44,16093.44,wmoUnit:m,,,,,,
Guadalupe,29.58257236,-97.94850308,22.77777777777778,wmoUnit:degC,83,56,12794.284493041932,wmoUnit:m,,,,,,
Winkler,31.85008609,-103.0484794,17.77777777777778,wmoUnit:degC,90,22,16093.44,wmoUnit:m,,,,,,
Dimmit,28.42161168,-99.760574,24.444444444444443,wmoUnit:degC,89,38,16093.44,wmoUnit:m,,,,,,
Wise,33.21585061,-97.65444124,16.666666666666668,wmoUnit:degC,100,22,14468.002191650448,wmoUnit:m,,,Flood Warning,Severe,Immediate,2025-05-31T03:15:00-05:00
Hemphill,35.83750155,-100.2704628,11.666666666666666,wmoUnit:degC,89,0,,,,,,,,
Potter,35.40128927,-101.8940484,12.222222222222221,wmoUnit:degC,90,1,,,,,,,,
Childress,34.52929257,-100.2075664,14.444444444444445,wmoUnit:degC,96,8,14645.031013915974,wmoUnit:m,,,,,,
Willacy,26.47132899,-97.64303323,25.555555555555557,wmoUnit:degC,100,0,,,,,,,,
Bastrop,30.10353518,-97.31187705,23.333333333333332,wmoUnit:degC,99,56,11265.408,wmoUnit:m,,,,,,
Kimble,30.48676251,-99.74892716,22.77777777777778,wmoUnit:degC,84,45,14226.601205566421,wmoUnit:m,,,,,,
Scurry,32.74720063,-100.9165071,16.11111111111111,wmoUnit:degC,90,14,12794.284493041932,wmoUnit:m,,,,,,
Ochiltree,36.27846334,-100.815653,10.0,wmoUnit:degC,93,0,,,,,,,,
Hansford,36.27753179,-101.3545624,10.0,wmoUnit:degC,96,2,,,,,,,,
Hartley,35.83996755,-102.6028835,10.555555555555555,wmoUnit:degC,96,1,,,,,,,,
Cameron,26.13847728,-97.51499968,26.11111111111111,wmoUnit:degC,95,2,,,,,Special Weather Statement,Moderate,Expected,2025-05-30T13:45:00-05:00
Matagorda,28.86711039,-95.98533866,24.444444444444443,wmoUnit:degC,100,10,12166.640547912531,wmoUnit:m,,,,,,
Burnet,30.78843382,-98.18252382,19.444444444444443,wmoUnit:degC,99,50,14468.002191650448,wmoUnit:m,,,,,,
Rains,32.87004212,-95.79347545,19.444444444444443,wmoUnit:degC,87,47,16093.44,wmoUnit:m,,,,,,
Hays,30.05782657,-98.03104087,19.444444444444443,wmoUnit:degC,89,60,11265.408,wmoUnit:m,,,,,,
Mason,30.71742293,-99.2263026,22.22222222222222,wmoUnit:degC,87,46,14693.310904174776,wmoUnit:m,,,,,,
Ward,31.509424,-103.1024636,19.444444444444443,wmoUnit:degC,84,24,16093.44,wmoUnit:m,,,,,,
Delta,33.38623601,-95.67221685,18.333333333333332,wmoUnit:degC,100,42,16093.44,wmoUnit:m,,,,,,
Nueces,27.72621549,-97.61767326,25.0,wmoUnit:degC,97,1,11136.66060278313,wmoUnit:m,,,,,,
Callahan,32.2977738,-99.37359692,18.88888888888889,wmoUnit:degC,97,52,16093.44,wmoUnit:m,,,,,,
Bell,31.03778267,-97.47790776,22.77777777777778,wmoUnit:degC,90,54,11265.408,wmoUnit:m,,,,,,
Cherokee,31.83695632,-95.16515234,20.555555555555557,wmoUnit:degC,97,35,16093.44,wmoUnit:m,,,Flood Warning,Severe,Immediate,2025-05-31T12:00:00-05:00
Ellis,32.34839264,-96.79467417,20.555555555555557,wmoUnit:degC,97,34,16093.44,wmoUnit:m,,,,,,
Lubbock,33.6101944,-101.8205745,14.444444444444445,wmoUnit:degC,93,10,14290.974904174776,wmoUnit:m,,,,,,
Terrell,30.22502597,-102.0764533,22.22222222222222,wmoUnit:degC,84,33,16093.44,wmoUnit:m,,,,,,
Crockett,30.72291931,-101.4118364,22.22222222222222,wmoUnit:degC,73,37,16093.44,wmoUnit:m,,,,,,
Atascosa,28.89418432,-98.52741302,23.333333333333332,wmoUnit:degC,94,37,16093.44,wmoUnit:m,,,,,,
Ector,31.86908156,-102.5430907,17.77777777777778,wmoUnit:degC,90,19,16093.44,wmoUnit:m,,,,,,
Brazos,30.6610425,-96.3022943,23.333333333333332,wmoUnit:degC,90,29,13341.461698608355,wmoUnit:m,,,,,,
Aransas,28.12709562,-96.99258951,26.11111111111111,wmoUnit:degC,97,4,11136.66060278313,wmoUnit:m,MA,S,,,,
Dallas,32.76653746,-96.77781862,22.22222222222222,wmoUnit:degC,73,23,16093.44,wmoUnit:m,,,,,,
Howard,32.30610232,-101.4355097,17.22222222222222,wmoUnit:degC,84,13,16093.44,wmoUnit:m,,,,,,
Motley,34.07409017,-100.7798961,13.88888888888889,wmoUnit:degC,100,10,14419.722301391646,wmoUnit:m,,,,,,
San Augustine,31.39427005,-94.16809762,20.555555555555557,wmoUnit:degC,93,17,7934.065643737756,wmoUnit:m,,,,,,
Maverick,28.74260943,-100.3144638,22.77777777777778,wmoUnit:degC,80,62,16093.44,wmoUnit:m,,,,,,
Erath,32.23640361,-98.21722756,19.444444444444443,wmoUnit:degC,90,22,16093.44,wmoUnit:m,,,,,,
Dickens,33.61663428,-100.7788138,14.444444444444445,wmoUnit:degC,96,11,13438.023013915972,wmoUnit:m,,,,,,
Caldwell,29.83677935,-97.61983479,23.333333333333332,wmoUnit:degC,90,52,11265.408,wmoUnit:m,,,,,,
Dawson,32.74258137,-101.9476136,15.555555555555555,wmoUnit:degC,93,11,16093.44,wmoUnit:m,,,,,,
Camp,32.97321771,-94.97860185,18.88888888888889,wmoUnit:degC,93,40,11265.408,wmoUnit:m,,,,,,
Duval,27.68133382,-98.50889672,23.333333333333332,wmoUnit:degC,100,2,9495.129753478954,wmoUnit:m,,,,,,
Hunt,33.123531,-96.08550014,18.88888888888889,wmoUnit:degC,93,30,16093.44,wmoUnit:m,,,,,,
Mills,31.49524259,-98.59552736,17.22222222222222,wmoUnit:degC,100,21,11265.408,wmoUnit:m,,,,,,
Val Verde,29.89300587,-101.15171,21.11111111111111,wmoUnit:degC,88,59,16093.44,wmoUnit:m,,,,,,
Pecos,30.78100044,-102.7235743,20.0,wmoUnit:degC,87,29,16093.44,wmoUnit:m,,,,,,
Baylor,33.61648147,-99.21351964,16.11111111111111,wmoUnit:degC,97,40,,,,,,,,
Gregg,32.48036452,-94.81723694,20.0,wmoUnit:degC,97,38,11265.408,wmoUnit:m,,,,,,
Jasper,30.74391255,-94.02495849,22.77777777777778,wmoUnit:degC,93,5,7258.141808349552,wmoUnit:m,,,,,,
Starr,26.56212627,-98.73834895,24.444444444444443,wmoUnit:degC,95,0,,,,,,,,
Crane,31.42846287,-102.5156425,20.0,wmoUnit:degC,84,24,16093.44,wmoUnit:m,,,,,,
Morris,33.11368507,-94.73205137,18.88888888888889,wmoUnit:degC,93,40,11265.408,wmoUnit:m,,,,,,
Briscoe,34.53041048,-101.2085769,12.222222222222221,wmoUnit:degC,100,8,13293.181808349551,wmoUnit:m,,,,,,
Menard,30.88981785,-99.82061472,20.0,wmoUnit:degC,93,46,14918.619616699263,wmoUnit:m,,,,,,
Walker,30.73899492,-95.57224172,22.77777777777778,wmoUnit:degC,97,20,13470.209095825225,wmoUnit:m,,,Flood Warning,Severe,Immediate,2025-05-31T00:00:00-05:00
Brooks,27.0315669,-98.21874127,24.444444444444443,wmoUnit:degC,98,0,,,,,,,,
La Salle,28.34621032,-99.1034773,25.555555555555557,wmoUnit:degC,85,7,16093.44,wmoUnit:m,,,,,,
Edwards,29.98248216,-100.3048937,19.444444444444443,wmoUnit:degC,89,53,16093.44,wmoUnit:m,,,,,,
Lee,30.31065065,-96.96568735,23.88888888888889,wmoUnit:degC,91,60,11265.408,wmoUnit:m,,,,,,
Robertson,31.02705415,-96.51272568,22.77777777777778,wmoUnit:degC,90,47,16093.44,wmoUnit:m,,,Flood Warning,Severe,Immediate,2025-05-31T02:45:00-05:00
Bee,28.41736675,-97.74116811,23.88888888888889,wmoUnit:degC,100,4,6276.441753478953,wmoUnit:m,,,,,,
San Jacinto,30.57948905,-95.16683273,22.77777777777778,wmoUnit:degC,93,12,12150.547506958066,wmoUnit:m,,,Flood Warning,Severe,Immediate,2025-05-31T00:00:00-05:00
Uvalde,29.35669829,-99.76203107,20.0,wmoUnit:degC,93,69,7934.065643737756,wmoUnit:m,,,,,,
Haskell,33.17824805,-99.73029401,18.333333333333332,wmoUnit:degC,93,39,16093.44,wmoUnit:m,,,,,,
Somervell,32.22229511,-97.77456553,20.555555555555557,wmoUnit:degC,93,22,14468.002191650448,wmoUnit:m,,,,,,
Grayson,33.62684371,-96.67764864,15.555555555555555,wmoUnit:degC,100,22,16093.44,wmoUnit:m,,,,,,
Bailey,34.0684915,-102.8299069,12.777777777777779,wmoUnit:degC,100,9,13035.687013915973,wmoUnit:m,,,,,,
Jones,32.73970429,-99.87850599,19.444444444444443,wmoUnit:degC,87,37,16093.44,wmoUnit:m,,,,,,
Jefferson,29.88425832,-94.1708778,23.88888888888889,wmoUnit:degC,97,4,1239.1948493041932,wmoUnit:m,,,Special Weather Statement,Moderate,Expected,2025-05-30T15:00:00-05:00
Glasscock,31.8694238,-101.520742,17.22222222222222,wmoUnit:degC,93,19,16093.44,wmoUnit:m,,,,,,
Gillespie,30.31800246,-98.94627245,19.444444444444443,wmoUnit:degC,96,44,16093.44,wmoUnit:m,,,,,,
Fisher,32.74305155,-100.4019503,18.88888888888889,wmoUnit:degC,90,29,16093.44,wmoUnit:m,,,,,,
Henderson,32.21188078,-95.85356847,20.555555555555557,wmoUnit:degC,97,48,16093.44,wmoUnit:m,,,,,,
Shackelford,32.7360276,-99.35403034,19.444444444444443,wmoUnit:degC,93,54,16093.44,wmoUnit:m,,,,,,
Palo Pinto,32.75316856,-98.31299522,17.22222222222222,wmoUnit:degC,100,21,16093.44,wmoUnit:m,,,,,,
Wilbarger,34.08044953,-99.24089568,15.0,wmoUnit:degC,99,40,,,,,,,,
Floyd,34.07239775,-101.3033037,12.222222222222221,wmoUnit:degC,100,9,14226.601205566421,wmoUnit:m,,,,,,
Orange,30.12807126,-93.89653794,23.88888888888889,wmoUnit:degC,97,2,2623.230712326004,wmoUnit:m,,,Special Weather Statement,Moderate,Expected,2025-05-30T15:00:00-05:00
Runnels,31.83105393,-99.97624799,20.0,wmoUnit:degC,93,39,16093.44,wmoUnit:m,,,,,,
Coleman,31.77329421,-99.45362579,20.555555555555557,wmoUnit:degC,90,44,16093.44,wmoUnit:m,,,,,,
Martin,32.30605847,-101.9512464,17.22222222222222,wmoUnit:degC,87,12,16093.44,wmoUnit:m,,,,,,
Wheeler,35.40129002,-100.2697634,12.222222222222221,wmoUnit:degC,86,2,,,,,,,,
Culberson,31.44709817,-104.5177421,16.666666666666668,wmoUnit:degC,87,15,16093.44,wmoUnit:m,,,,,,
Mitchell,32.30636024,-100.9211128,17.77777777777778,wmoUnit:degC,87,17,16093.44,wmoUnit:m,,,,,,
Hudspeth,31.45613738,-105.3869428,21.11111111111111,wmoUnit:degC,53,5,16093.44,wmoUnit:m,,,,,,
Upshur,32.7362827,-94.94132011,18.88888888888889,wmoUnit:degC,97,40,11265.408,wmoUnit:m,,,,,,
Liberty,30.15153187,-94.8120925,22.77777777777778,wmoUnit:degC,100,6,11265.408,wmoUnit:m,,,Flood Advisory,Minor,Expected,2025-05-30T15:15:00-05:00
Williamson,30.64834941,-97.60105467,20.555555555555557,wmoUnit:degC,93,62,11265.408,wmoUnit:m,,,,,,
Nacogdoches,31.61604108,-94.6158776,20.555555555555557,wmoUnit:degC,100,22,11152.753643737757,wmoUnit:m,,,Flood Warning,Severe,Immediate,2025-05-31T11:15:00-05:00
Loving,31.84912973,-103.5799063,19.444444444444443,wmoUnit:degC,87,23,16093.44,wmoUnit:m,,,,,,
Jim Wells,27.73131099,-98.0898649,24.444444444444443,wmoUnit:degC,100,2,7934.065643737756,wmoUnit:m,,,,,,
Upton,31.36853957,-102.0430005,20.0,wmoUnit:degC,84,25,16093.44,wmoUnit:m,,,,,,
Newton,30.78619977,-93.74462993,22.22222222222222,wmoUnit:degC,100,4,7773.13139721687,wmoUnit:m,,,Flood Warning,Severe,Immediate,2025-05-31T11:00:00-05:00
Lamar,33.66746186,-95.57110784,17.22222222222222,wmoUnit:degC,100,41,16093.44,wmoUnit:m,,,,,,
Polk,30.79250963,-94.82994949,22.77777777777778,wmoUnit:degC,93,10,11426.342246521048,wmoUnit:m,,,Flood Warning,Severe,Immediate,2025-05-31T12:00:00-05:00
Collin,33.18789055,-96.57248871,18.333333333333332,wmoUnit:degC,90,22,16093.44,wmoUnit:m,,,,,,
Hardeman,34.28865227,-99.7453851,15.0,wmoUnit:degC,95,40,,,,,,,,
McMullen,28.35351091,-98.56842256,24.444444444444443,wmoUnit:degC,94,5,9479.0359451294,wmoUnit:m,,,,,,
Cottle,34.0776571,-100.2786983,15.0,wmoUnit:degC,96,10,14097.853808349551,wmoUnit:m,,,,,,
Frio,28.86726774,-99.10826004,24.444444444444443,wmoUnit:degC,90,44,16093.44,wmoUnit:m,,,,,,
Gray,35.40130666,-100.812475,11.666666666666666,wmoUnit:degC,96,5,,,,,,,,
Kenedy,26.92409448,-97.68137783,24.444444444444443,wmoUnit:degC,100,1,,,,,,,,
Fort Bend,29.52763253,-95.77090562,24.444444444444443,wmoUnit:degC,94,9,11297.594849304178,wmoUnit:m,,,,,,
Armstrong,34.96522076,-101.3572412,11.666666666666666,wmoUnit:degC,96,10,,,,,,,,
Collingsworth,34.96498493,-100.2700733,12.777777777777779,wmoUnit:degC,93,8,,,,,,,,
Cass,33.07750446,-94.34348771,18.88888888888889,wmoUnit:degC,93,40,11265.408,wmoUnit:m,,,,,,
Sherman,36.27765824,-101.8933822,8.88888888888889,wmoUnit:degC,100,6,,,,,,,,
Terry,33.17373729,-102.335157,14.444444444444445,wmoUnit:degC,100,10,14516.283616699264,wmoUnit:m,,,,,,
Limestone,31.54541898,-96.58056718,21.666666666666668,wmoUnit:degC,90,47,16093.44,wmoUnit:m,,,,,,
Real,29.83182711,-99.82215881,19.444444444444443,wmoUnit:degC,94,53,9656.064,wmoUnit:m,,,,,,
Lynn,33.17685487,-101.8160235,15.0,wmoUnit:degC,90,11,14612.84339721687,wmoUnit:m,,,,,,
Lavaca,29.38437003,-96.93020993,24.444444444444443,wmoUnit:degC,96,19,11265.408,wmoUnit:m,,,,,,
Nolan,32.3034718,-100.4060989,17.77777777777778,wmoUnit:degC,93,28,16093.44,wmoUnit:m,,,,,,
Gaines,32.74074537,-102.6351246,15.555555555555555,wmoUnit:degC,96,12,16093.44,wmoUnit:m,,,,,,
Montgomery,30.30022409,-95.50301411,23.333333333333332,wmoUnit:degC,97,15,12906.939616699265,wmoUnit:m,,,,,,
Concho,31.32645211,-99.86413426,20.555555555555557,wmoUnit:degC,93,42,16093.44,wmoUnit:m,,,,,,
Hardin,30.33238431,-94.39021394,22.77777777777778,wmoUnit:degC,97,3,2510.5765479125316,wmoUnit:m,,,,,,
Harris,29.85967144,-95.39782106,25.0,wmoUnit:degC,94,10,12247.108054870598,wmoUnit:m,,,Flood Advisory,Minor,Expected,2025-05-30T15:15:00-05:00
Leon,31.29655719,-95.99554292,21.11111111111111,wmoUnit:degC,100,48,16093.44,wmoUnit:m,,,Flood Warning,Severe,Immediate,2025-05-31T02:45:00-05:00
Bowie,33.44572786,-94.42324298,18.333333333333332,wmoUnit:degC,93,39,11265.408,wmoUnit:m,,,,,,
Kaufman,32.59927808,-96.28779341,20.555555555555557,wmoUnit:degC,87,42,16093.44,wmoUnit:m,,,,,,
Anderson,31.81321543,-95.65251774,21.666666666666668,wmoUnit:degC,100,47,11265.408,wmoUnit:m,,,Flood Warning,Severe,Immediate,2025-05-31T12:00:00-05:00
San Saba,31.15520543,-98.81754295,21.666666666666668,wmoUnit:degC,90,46,12456.322191650448,wmoUnit:m,,,,,,
Schleicher,30.89661056,-100.538097,20.555555555555557,wmoUnit:degC,84,42,16093.44,wmoUnit:m,,,,,,
Colorado,29.6208542,-96.52630821,23.333333333333332,wmoUnit:degC,100,16,11555.089643737756,wmoUnit:m,,,,,,
Milam,30.78625299,-96.97683495,22.77777777777778,wmoUnit:degC,93,48,16093.44,wmoUnit:m,,,,,,
Live Oak,28.3514375,-98.12474493,24.444444444444443,wmoUnit:degC,97,4,7934.065643737756,wmoUnit:m,,,,,,
Borden,32.7436916,-101.4317533,16.11111111111111,wmoUnit:degC,90,11,16093.44,wmoUnit:m,,,,,,
McCulloch,31.19896752,-99.34754972,21.11111111111111,wmoUnit:degC,90,48,16093.44,wmoUnit:m,,,,,,
Johnson,32.37899918,-97.36660504,20.555555555555557,wmoUnit:degC,100,22,11265.408,wmoUnit:m,,,,,,
Montague,33.67496328,-97.72466993,15.555555555555555,wmoUnit:degC,100,22,11265.408,wmoUnit:m,,,,,,
Stonewall,33.17842158,-100.255259,16.11111111111111,wmoUnit:degC,93,11,12842.565150695822,wmoUnit:m,,,,,,
Comal,29.80816362,-98.27814516,20.555555555555557,wmoUnit:degC,89,63,11265.408,wmoUnit:m,,,,,,
Eastland,32.32739258,-98.8325713,17.22222222222222,wmoUnit:degC,100,21,16093.44,wmoUnit:m,,,,,,
Comanche,31.9490639,-98.55841538,17.77777777777778,wmoUnit:degC,100,20,12794.284493041932,wmoUnit:m,,,,,,
King,33.61641863,-100.2558584,15.0,wmoUnit:degC,100,11,13872.545095825224,wmoUnit:m,,,,,,
Washington,30.2145299,-96.40356575,23.333333333333332,wmoUnit:degC,97,25,12552.883506958067,wmoUnit:m,,,,,,
Webb,27.76102524,-99.33170164,25.0,wmoUnit:degC,85,4,16093.44,wmoUnit:m,,,,,,
Fayette,29.87683207,-96.91968047,24.444444444444443,wmoUnit:degC,95,39,11265.408,wmoUnit:m,,,,,,
Harrison,32.54814898,-94.37155736,20.0,wmoUnit:degC,97,36,16093.44,wmoUnit:m,,,,,,
Presidio,29.99977786,-104.2405552,18.333333333333332,wmoUnit:degC,75,47,16093.44,wmoUnit:m,,,,,,
Austin,29.88711223,-96.27791829,23.333333333333332,wmoUnit:degC,100,18,11555.089643737756,wmoUnit:m,,,,,,
Randall,34.96594288,-101.8968527,11.666666666666666,wmoUnit:degC,100,5,,,,,,,,
Hood,32.43107878,-97.83280338,20.0,wmoUnit:degC,90,22,16093.44,wmoUnit:m,,,,,,
Victoria,28.79640594,-96.97176602,25.555555555555557,wmoUnit:degC,94,5,6276.441753478953,wmoUnit:m,,,,,,
Hutchinson,35.84000866,-101.3547257,11.666666666666666,wmoUnit:degC,89,5,,,,,,,,
Coryell,31.39087578,-97.7991883,20.555555555555557,wmoUnit:degC,100,38,11265.408,wmoUnit:m,,,,,,
Jackson,28.95603133,-96.57883268,25.555555555555557,wmoUnit:degC,97,14,11909.145753478953,wmoUnit:m,,,,,,
Zapata,27.00089072,-99.16860134,23.88888888888889,wmoUnit:degC,94,0,,,,,,,,
San Patricio,28.00922186,-97.51859857,25.0,wmoUnit:degC,97,2,9479.0359451294,wmoUnit:m,,,,,,
Grimes,30.54360689,-95.98557334,23.88888888888889,wmoUnit:degC,87,25,13405.83539721687,wmoUnit:m,,,,,,
Lamb,34.06861242,-102.3517095,13.333333333333334,wmoUnit:degC,100,9,11796.49139721687,wmoUnit:m,,,,,,
