countyName,latitude,longitude,temperature,temperature_unit,relativeHumidity,precipitationProbability,visibility,visibility_unit,hazard_phenomenon,hazard_significance,alert_event,alert_severity,alert_urgency,alert_expires
Foard,33.97408519,-99.77871109,19.444444444444443,wmoUnit:degC,98,0,,,,,,,,
Blanco,30.26636128,-98.39974086,26.11111111111111,wmoUnit:degC,79,26,16093.44,wmoUnit:m,,,,,,
Hockley,33.60750375,-102.3430919,28.88888888888889,wmoUnit:degC,36,2,16093.44,wmoUnit:m,,,,,,
Llano,30.70566579,-98.68387398,27.22222222222222,wmoUnit:degC,69,14,16093.44,wmoUnit:m,,,,,,
Swisher,34.53064989,-101.734951,28.88888888888889,wmoUnit:degC,43,1,16093.44,wmoUnit:m,,,,,,
Titus,33.2160906,-94.96509786,22.77777777777778,wmoUnit:degC,90,94,6276.441753478953,wmoUnit:m,FA,A,Flood Warning,Severe,Immediate,2025-06-13T10:30:00-05:00
Navarro,32.04695429,-96.47248134,20.0,wmoUnit:degC,97,85,,,FA,A,Flood Warning,Severe,Immediate,2025-06-13T09:15:00-05:00
Brazoria,29.19345387,-95.45578479,20.0,wmoUnit:degC,100,92,5890.199178131122,wmoUnit:m,FA,A,Flood Warning,Severe,Expected,2025-06-12T21:00:00-05:00
Hidalgo,26.396627,-98.18088681,35.55555555555556,wmoUnit:degC,49,0,,,,,Severe Thunderstorm Warning,Severe,Immediate,2025-06-12T20:00:00-05:00
Archer,33.61539176,-98.68783437,20.555555555555557,wmoUnit:degC,93,2,,,,,,,,
Refugio,28.32681413,-97.16546961,28.333333333333332,wmoUnit:degC,77,57,15980.786411132844,wmoUnit:m,FA,A,Flood Warning,Severe,Expected,2025-06-13T05:15:00-05:00
Andrews,32.30506283,-102.6378839,27.77777777777778,wmoUnit:degC,53,0,16093.44,wmoUnit:m,,,,,,
Galveston,29.39424415,-94.96474975,21.11111111111111,wmoUnit:degC,100,85,8030.626191650448,wmoUnit:m,,,,,,
De Witt,29.08201599,-97.35666976,24.444444444444443,wmoUnit:degC,94,88,9656.064,wmoUnit:m,,,,,,
Gonzales,29.45641495,-97.49279927,24.444444444444443,wmoUnit:degC,94,77,9656.064,wmoUnit:m,,,,,,
Wharton,29.2778362,-96.22197375,20.0,wmoUnit:degC,100,88,8529.523506958067,wmoUnit:m,,,Flood Warning,Severe,Expected,2025-06-13T13:15:00-05:00
Fannin,33.59396919,-96.10656755,20.0,wmoUnit:degC,100,79,,,FA,A,,,,
Madison,30.96564645,-95.92818441,21.666666666666668,wmoUnit:degC,97,62,11265.408,wmoUnit:m,,,,,,
Moore,35.83768863,-101.8929556,21.11111111111111,wmoUnit:degC,73,0,,,,,,,,
Tyler,30.7712607,-94.37651432,24.444444444444443,wmoUnit:degC,90,94,7177.674301391646,wmoUnit:m,,,,,,
Lipscomb,36.27778432,-100.27317,20.0,wmoUnit:degC,93,0,,,,,,,,
Burleson,30.49246139,-96.62109399,21.11111111111111,wmoUnit:degC,93,41,14918.619616699263,wmoUnit:m,,,,,,
Jim Hogg,27.04340499,-98.6972921,33.888888888888886,wmoUnit:degC,51,0,,,,,,,,
Throckmorton,33.17753907,-99.21236832,19.444444444444443,wmoUnit:degC,100,0,9656.064,wmoUnit:m,,,,,,
Kleberg,27.43274395,-97.72889778,31.666666666666668,wmoUnit:degC,64,20,16093.44,wmoUnit:m,,,,,,
Shelby,31.79242191,-94.14495261,20.555555555555557,wmoUnit:degC,97,97,9656.064,wmoUnit:m,FA,A,,,,
Garza,33.17991074,-101.2984496,28.88888888888889,wmoUnit:degC,53,0,16093.44,wmoUnit:m,,,,,,
Karnes,28.90493782,-97.85960621,25.0,wmoUnit:degC,88,84,9656.064,wmoUnit:m,,,Flood Warning,Severe,Expected,2025-06-13T09:15:00-05:00
Reeves,31.32307061,-103.693143,28.333333333333332,wmoUnit:degC,48,0,16093.44,wmoUnit:m,,,,,,
Houston,31.31764137,-95.42225367,21.666666666666668,wmoUnit:degC,100,59,9656.064,wmoUnit:m,,,Flood Warning,Severe,Immediate,2025-06-13T09:15:00-05:00
El Paso,31.7686226,-106.2352229,25.555555555555557,wmoUnit:degC,39,0,16093.44,wmoUnit:m,HT,Y,Heat Advisory,Moderate,Expected,2025-06-13T00:00:00-06:00
Carson,35.40346802,-101.3542037,20.555555555555557,wmoUnit:degC,78,0,,,,,,,,
Medina,29.35520493,-99.11008331,26.666666666666668,wmoUnit:degC,82,47,16093.44,wmoUnit:m,,,,,,
Wichita,33.98421585,-98.70153389,21.11111111111111,wmoUnit:degC,94,2,,,,,,,,
Chambers,29.73912276,-94.60891308,21.666666666666668,wmoUnit:degC,100,87,7950.159452087469,wmoUnit:m,,,Flood Warning,Severe,Immediate,2025-06-13T03:30:00-05:00
Donley,34.96540246,-100.8140501,20.555555555555557,wmoUnit:degC,87,0,,,,,,,,
Hopkins,33.14933822,-95.56414173,20.0,wmoUnit:degC,100,93,,,FA,A,Flood Warning,Severe,Immediate,2025-06-13T09:15:00-05:00
Lampasas,31.19627791,-98.24142711,19.444444444444443,wmoUnit:degC,93,22,,,FA,A,,,,
Falls,31.25317017,-96.93579511,20.555555555555557,wmoUnit:degC,97,76,,,FA,A,,,,
Stephens,32.73584155,-98.83612016,19.444444444444443,wmoUnit:degC,97,2,,,,,,,,
Travis,30.33423319,-97.78194654,26.666666666666668,wmoUnit:degC,79,47,16093.44,wmoUnit:m,,,,,,
Roberts,35.8385577,-100.8135689,21.11111111111111,wmoUnit:degC,81,1,,,,,,,,
Crosby,33.61459873,-101.2998612,27.22222222222222,wmoUnit:degC,56,1,16093.44,wmoUnit:m,,,,,,
Kerr,30.06153035,-99.35016969,27.77777777777778,wmoUnit:degC,72,16,16093.44,wmoUnit:m,,,,,,
Wood,32.78634374,-95.38206498,22.22222222222222,wmoUnit:degC,93,84,6276.441753478953,wmoUnit:m,FA,A,Flood Warning,Severe,Expected,2025-06-13T15:00:00-05:00
Jack,33.23345819,-98.1725509,21.11111111111111,wmoUnit:degC,93,7,,,,,,,,
Marion,32.79797929,-94.35725239,24.444444444444443,wmoUnit:degC,90,96,9656.064,wmoUnit:m,FA,A,Flood Warning,Severe,Immediate,2025-06-13T10:45:00-05:00
Hale,34.07051782,-101.8269082,28.333333333333332,wmoUnit:degC,43,1,16093.44,wmoUnit:m,,,,,,
Jeff Davis,30.71559322,-104.1403539,25.0,wmoUnit:degC,37,0,16093.44,wmoUnit:m,,,,,,
Tarrant,32.77185236,-97.29116473,21.11111111111111,wmoUnit:degC,93,41,,,FA,A,,,,
Waller,30.01093722,-95.98768942,20.555555555555557,wmoUnit:degC,97,71,9656.064,wmoUnit:m,,,,,,
Reagan,31.36617698,-101.5230108,26.666666666666668,wmoUnit:degC,65,0,16093.44,wmoUnit:m,,,,,,
Smith,32.37514553,-95.26909511,21.666666666666668,wmoUnit:degC,93,77,9656.064,wmoUnit:m,FA,A,Flood Warning,Severe,Expected,2025-06-13T15:00:00-05:00
Van Zandt,32.56368961,-95.8364862,20.555555555555557,wmoUnit:degC,97,94,,,FA,A,,,,
Cooke,33.638465,-97.21247642,21.11111111111111,wmoUnit:degC,93,25,,,,,,,,
Zavala,28.86530621,-99.76102001,29.444444444444443,wmoUnit:degC,80,31,16093.44,wmoUnit:m,,,,,,
Hall,34.53074134,-100.6809876,28.88888888888889,wmoUnit:degC,55,1,16093.44,wmoUnit:m,,,,,,
Kendall,29.9446397,-98.71160511,26.11111111111111,wmoUnit:degC,85,26,16093.44,wmoUnit:m,,,,,,
Goliad,28.65708563,-97.42646082,27.22222222222222,wmoUnit:degC,79,66,12858.65819165045,wmoUnit:m,FA,A,Flood Warning,Severe,Expected,2025-06-13T00:15:00-05:00
Yoakum,33.17293501,-102.8278792,30.0,wmoUnit:degC,32,3,16093.44,wmoUnit:m,,,,,,
Knox,33.60614755,-99.74144313,18.88888888888889,wmoUnit:degC,100,0,,,,,,,,
McLennan,31.55234489,-97.20184883,20.555555555555557,wmoUnit:degC,97,53,,,FA,A,Flood Warning,Severe,Immediate,2025-06-13T04:15:00-05:00
Brewster,29.81205836,-103.2518906,29.444444444444443,wmoUnit:degC,45,0,16093.44,wmoUnit:m,,,,,,
Panola,32.16222886,-94.30552858,23.88888888888889,wmoUnit:degC,90,97,9656.064,wmoUnit:m,FA,A,Flood Warning,Severe,Immediate,2025-06-13T08:45:00-05:00
Bandera,29.74724753,-99.24637282,26.666666666666668,wmoUnit:degC,79,26,16093.44,wmoUnit:m,,,,,,
Parmer,34.53014507,-102.784594,28.333333333333332,wmoUnit:degC,43,2,16093.44,wmoUnit:m,,,,,,
Rockwall,32.89786769,-96.40780584,20.555555555555557,wmoUnit:degC,97,83,,,FA,A,Flood Warning,Severe,Immediate,2025-06-13T09:15:00-05:00
Trinity,31.0885069,-95.13551682,21.11111111111111,wmoUnit:degC,100,76,9656.064,wmoUnit:m,,,Flood Warning,Severe,Immediate,2025-06-13T03:45:00-05:00
Bosque,31.90050476,-97.63437613,19.444444444444443,wmoUnit:degC,97,22,,,FA,A,,,,
Coke,31.88849293,-100.5298747,18.333333333333332,wmoUnit:degC,93,0,9656.064,wmoUnit:m,,,,,,
Franklin,33.17550691,-95.21841437,22.22222222222222,wmoUnit:degC,90,92,6276.441753478953,wmoUnit:m,FA,A,Flood Warning,Severe,Immediate,2025-06-13T10:30:00-05:00
Hill,31.99079033,-97.1324142,20.0,wmoUnit:degC,93,49,,,FA,A,,,,
Calhoun,28.48966896,-96.64708119,30.0,wmoUnit:degC,75,69,15481.889095825225,wmoUnit:m,FA,A,Flood Warning,Severe,Expected,2025-06-13T05:15:00-05:00
Irion,31.30393203,-100.9824126,18.88888888888889,wmoUnit:degC,97,0,9656.064,wmoUnit:m,,,,,,
Midland,31.86921148,-102.0315032,26.666666666666668,wmoUnit:degC,56,0,16093.44,wmoUnit:m,,,,,,
Brown,31.77432313,-98.99989649,19.444444444444443,wmoUnit:degC,100,5,9656.064,wmoUnit:m,,,,,,
Wilson,29.17315896,-98.08621015,24.444444444444443,wmoUnit:degC,90,70,9656.064,wmoUnit:m,,,Flood Warning,Severe,Expected,2025-06-13T09:15:00-05:00
Oldham,35.40497586,-102.6029949,21.666666666666668,wmoUnit:degC,68,0,,,,,,,,
Freestone,31.70486443,-96.14918535,20.0,wmoUnit:degC,97,94,,,FA,A,Flood Warning,Severe,Immediate,2025-06-13T09:15:00-05:00
Sabine,31.34321941,-93.85170439,21.666666666666668,wmoUnit:degC,93,93,6276.441753478953,wmoUnit:m,FA,A,,,,
Deaf Smith,34.96602014,-102.6048162,20.0,wmoUnit:degC,76,0,,,,,,,,
Angelina,31.25475875,-94.611742,22.22222222222222,wmoUnit:degC,93,98,9656.064,wmoUnit:m,FA,A,Flood Warning,Severe,Immediate,2025-06-13T09:30:00-05:00
Kent,33.18284492,-100.7791031,28.88888888888889,wmoUnit:degC,57,0,16093.44,wmoUnit:m,,,,,,
Red River,33.62074539,-95.0501886,23.333333333333332,wmoUnit:degC,90,96,7934.065643737756,wmoUnit:m,FA,A,Flood Warning,Severe,Immediate,2025-06-13T10:30:00-05:00
Kinney,29.35000302,-100.4178441,30.0,wmoUnit:degC,63,3,16093.44,wmoUnit:m,,,,,,
Denton,33.205574,-97.11681154,21.666666666666668,wmoUnit:degC,90,44,,,FA,A,,,,
Sutton,30.49747152,-100.5382263,19.444444444444443,wmoUnit:degC,97,1,9656.064,wmoUnit:m,,,,,,
Guadalupe,29.58257236,-97.94850308,25.0,wmoUnit:degC,88,62,9656.064,wmoUnit:m,,,,,,
Winkler,31.85008609,-103.0484794,27.22222222222222,wmoUnit:degC,51,0,16093.44,wmoUnit:m,,,,,,
Dimmit,28.42161168,-99.760574,31.666666666666668,wmoUnit:degC,66,25,16093.44,wmoUnit:m,,,,,,
Wise,33.21585061,-97.65444124,21.666666666666668,wmoUnit:degC,93,10,,,,,,,,
Hemphill,35.83750155,-100.2704628,20.555555555555557,wmoUnit:degC,87,0,,,,,,,,
Potter,35.40128927,-101.8940484,22.22222222222222,wmoUnit:degC,68,0,,,,,,,,
Childress,34.52929257,-100.2075664,28.333333333333332,wmoUnit:degC,59,1,16093.44,wmoUnit:m,,,,,,
Willacy,26.47132899,-97.64303323,33.888888888888886,wmoUnit:degC,58,10,,,,,Severe Thunderstorm Warning,Severe,Immediate,2025-06-12T20:00:00-05:00
Bastrop,30.10353518,-97.31187705,25.0,wmoUnit:degC,88,56,9656.064,wmoUnit:m,,,,,,
Kimble,30.48676251,-99.74892716,19.444444444444443,wmoUnit:degC,100,10,9656.064,wmoUnit:m,,,,,,
Scurry,32.74720063,-100.9165071,24.444444444444443,wmoUnit:degC,71,0,16093.44,wmoUnit:m,,,,,,
Ochiltree,36.27846334,-100.815653,20.0,wmoUnit:degC,90,1,,,,,,,,
Hansford,36.27753179,-101.3545624,21.11111111111111,wmoUnit:degC,78,1,,,,,,,,
Hartley,35.83996755,-102.6028835,20.555555555555557,wmoUnit:degC,73,0,,,,,,,,
Cameron,26.13847728,-97.51499968,34.44444444444444,wmoUnit:degC,54,5,,,,,,,,
Matagorda,28.86711039,-95.98533866,21.11111111111111,wmoUnit:degC,100,91,5101.62060278313,wmoUnit:m,FA,A,Flood Warning,Severe,Expected,2025-06-13T13:15:00-05:00
Burnet,30.78843382,-98.18252382,25.555555555555557,wmoUnit:degC,76,17,16093.44,wmoUnit:m,,,,,,
Rains,32.87004212,-95.79347545,20.555555555555557,wmoUnit:degC,97,92,,,FA,A,,,,
Hays,30.05782657,-98.03104087,25.0,wmoUnit:degC,88,43,16093.44,wmoUnit:m,,,,,,
Mason,30.71742293,-99.2263026,20.0,wmoUnit:degC,100,14,9656.064,wmoUnit:m,,,,,,
Ward,31.509424,-103.1024636,28.88888888888889,wmoUnit:degC,44,0,16093.44,wmoUnit:m,,,,,,
Delta,33.38623601,-95.67221685,20.555555555555557,wmoUnit:degC,97,88,,,FA,A,Flood Warning,Severe,Immediate,2025-06-13T09:15:00-05:00
Nueces,27.72621549,-97.61767326,31.11111111111111,wmoUnit:degC,67,31,16093.44,wmoUnit:m,,,,,,
Callahan,32.2977738,-99.37359692,18.88888888888889,wmoUnit:degC,100,0,9656.064,wmoUnit:m,,,,,,
Bell,31.03778267,-97.47790776,21.11111111111111,wmoUnit:degC,97,59,,,FA,A,,,,
Cherokee,31.83695632,-95.16515234,20.0,wmoUnit:degC,100,84,3975.079726043654,wmoUnit:m,FA,A,Flood Warning,Severe,Immediate,2025-06-13T09:30:00-05:00
Ellis,32.34839264,-96.79467417,20.0,wmoUnit:degC,97,72,,,FA,A,,,,
Lubbock,33.6101944,-101.8205745,29.444444444444443,wmoUnit:degC,37,2,16093.44,wmoUnit:m,,,,,,
Terrell,30.22502597,-102.0764533,28.88888888888889,wmoUnit:degC,53,0,16093.44,wmoUnit:m,,,,,,
Crockett,30.72291931,-101.4118364,19.444444444444443,wmoUnit:degC,90,0,16093.44,wmoUnit:m,,,,,,
Atascosa,28.89418432,-98.52741302,26.11111111111111,wmoUnit:degC,82,61,9656.064,wmoUnit:m,,,,,,
Ector,31.86908156,-102.5430907,26.666666666666668,wmoUnit:degC,51,0,16093.44,wmoUnit:m,,,,,,
Brazos,30.6610425,-96.3022943,20.555555555555557,wmoUnit:degC,97,44,11265.408,wmoUnit:m,,,,,,
Aransas,28.12709562,-96.99258951,28.88888888888889,wmoUnit:degC,82,48,16077.34619165045,wmoUnit:m,,,,,,
Dallas,32.76653746,-96.77781862,21.11111111111111,wmoUnit:degC,97,72,,,FA,A,,,,
Howard,32.30610232,-101.4355097,30.555555555555557,wmoUnit:degC,43,0,16093.44,wmoUnit:m,,,,,,
Motley,34.07409017,-100.7798961,28.88888888888889,wmoUnit:degC,53,1,16093.44,wmoUnit:m,,,,,,
San Augustine,31.39427005,-94.16809762,20.555555555555557,wmoUnit:degC,97,97,7934.065643737756,wmoUnit:m,FA,A,Flood Warning,Severe,Immediate,2025-06-13T09:30:00-05:00
Maverick,28.74260943,-100.3144638,30.0,wmoUnit:degC,72,6,16093.44,wmoUnit:m,,,,,,
Erath,32.23640361,-98.21722756,18.88888888888889,wmoUnit:degC,100,9,,,FA,A,,,,
Dickens,33.61663428,-100.7788138,27.22222222222222,wmoUnit:degC,60,1,16093.44,wmoUnit:m,,,,,,
Caldwell,29.83677935,-97.61983479,25.0,wmoUnit:degC,85,61,9656.064,wmoUnit:m,,,,,,
Dawson,32.74258137,-101.9476136,25.0,wmoUnit:degC,58,0,16093.44,wmoUnit:m,,,,,,
Camp,32.97321771,-94.97860185,22.22222222222222,wmoUnit:degC,90,96,6276.441753478953,wmoUnit:m,FA,A,,,,
Duval,27.68133382,-98.50889672,30.0,wmoUnit:degC,65,21,16093.44,wmoUnit:m,,,,,,
Hunt,33.123531,-96.08550014,20.555555555555557,wmoUnit:degC,97,87,,,FA,A,Flood Warning,Severe,Immediate,2025-06-13T09:15:00-05:00
Mills,31.49524259,-98.59552736,18.88888888888889,wmoUnit:degC,97,9,,,FA,A,,,,
Val Verde,29.89300587,-101.15171,29.444444444444443,wmoUnit:degC,57,0,16093.44,wmoUnit:m,,,,,,
Pecos,30.78100044,-102.7235743,28.333333333333332,wmoUnit:degC,44,0,16093.44,wmoUnit:m,,,,,,
Baylor,33.61648147,-99.21351964,19.444444444444443,wmoUnit:degC,94,0,,,,,,,,
Gregg,32.48036452,-94.81723694,22.77777777777778,wmoUnit:degC,93,97,9656.064,wmoUnit:m,FA,A,Flood Warning,Severe,Immediate,2025-06-13T08:45:00-05:00
Cochran,33.60410808,-102.8285264,31.11111111111111,wmoUnit:degC,30,4,16093.44,wmoUnit:m,,,,,,
Jasper,30.74391255,-94.02495849,25.555555555555557,wmoUnit:degC,91,94,7274.234849304177,wmoUnit:m,,,,,,
Hamilton,31.70479181,-98.11066654,18.88888888888889,wmoUnit:degC,100,14,,,FA,A,,,,
Castro,34.53000304,-102.2617608,28.333333333333332,wmoUnit:degC,38,1,16093.44,wmoUnit:m,,,,,,
Sterling,31.82786516,-101.0500699,17.77777777777778,wmoUnit:degC,97,0,9656.064,wmoUnit:m,,,,,,
Starr,26.56212627,-98.73834895,35.0,wmoUnit:degC,49,0,,,,,Special Weather Statement,Moderate,Expected,2025-06-12T19:30:00-05:00
Crane,31.42846287,-102.5156425,27.77777777777778,wmoUnit:degC,55,0,16093.44,wmoUnit:m,,,,,,
Morris,33.11368507,-94.73205137,23.333333333333332,wmoUnit:degC,87,96,6276.441753478953,wmoUnit:m,FA,A,Flood Warning,Severe,Immediate,2025-06-13T10:30:00-05:00
Briscoe,34.53041048,-101.2085769,27.77777777777778,wmoUnit:degC,38,2,16093.44,wmoUnit:m,,,,,,
Tom Green,31.4044442,-100.4620678,18.88888888888889,wmoUnit:degC,100,0,9656.064,wmoUnit:m,,,,,,
Menard,30.88981785,-99.82061472,18.88888888888889,wmoUnit:degC,100,3,9656.064,wmoUnit:m,,,,,,
Parker,32.77852261,-97.80472194,20.0,wmoUnit:degC,93,14,,,FA,A,,,,
Walker,30.73899492,-95.57224172,21.11111111111111,wmoUnit:degC,97,66,9656.064,wmoUnit:m,,,Flood Warning,Severe,Immediate,2025-06-13T03:45:00-05:00
Brooks,27.0315669,-98.21874127,35.0,wmoUnit:degC,49,2,,,,,,,,
La Salle,28.34621032,-99.1034773,28.88888888888889,wmoUnit:degC,76,14,16077.34619165045,wmoUnit:m,,,,,,
Edwards,29.98248216,-100.3048937,27.22222222222222,wmoUnit:degC,65,3,16093.44,wmoUnit:m,,,,,,
Lee,30.31065065,-96.96568735,24.444444444444443,wmoUnit:degC,85,51,16093.44,wmoUnit:m,,,,,,
Robertson,31.02705415,-96.51272568,20.0,wmoUnit:degC,100,92,,,FA,A,Flood Warning,Severe,Immediate,2025-06-13T09:15:00-05:00
Young,33.17670764,-98.68781396,20.0,wmoUnit:degC,97,2,,,,,,,,
Bee,28.41736675,-97.74116811,29.444444444444443,wmoUnit:degC,71,47,15594.542684692382,wmoUnit:m,FA,A,,,,
Clay,33.78379717,-98.208958,21.11111111111111,wmoUnit:degC,94,7,,,,,,,,
San Jacinto,30.57948905,-95.16683273,21.666666666666668,wmoUnit:degC,97,78,9656.064,wmoUnit:m,,,Flood Warning,Severe,Immediate,2025-06-13T03:45:00-05:00
Uvalde,29.35669829,-99.76203107,27.77777777777778,wmoUnit:degC,77,26,16093.44,wmoUnit:m,,,,,,
Haskell,33.17824805,-99.73029401,19.444444444444443,wmoUnit:degC,97,0,11265.408,wmoUnit:m,,,,,,
Somervell,32.22229511,-97.77456553,20.0,wmoUnit:degC,97,17,,,FA,A,,,,
Bexar,29.44884523,-98.51966309,25.555555555555557,wmoUnit:degC,88,53,16093.44,wmoUnit:m,,,Flood Warning,Severe,Immediate,2025-06-13T12:00:00-05:00
Grayson,33.62684371,-96.67764864,19.444444444444443,wmoUnit:degC,97,50,,,FA,A,,,,
Bailey,34.0684915,-102.8299069,30.0,wmoUnit:degC,35,3,16093.44,wmoUnit:m,,,,,,
Jones,32.73970429,-99.87850599,20.0,wmoUnit:degC,90,0,9656.064,wmoUnit:m,,,,,,
Jefferson,29.88425832,-94.1708778,27.77777777777778,wmoUnit:degC,85,88,6421.282575347831,wmoUnit:m,,,,,,
Rusk,32.10803224,-94.76169577,21.666666666666668,wmoUnit:degC,93,98,7934.065643737756,wmoUnit:m,FA,A,Flood Warning,Severe,Immediate,2025-06-13T09:30:00-05:00
Glasscock,31.8694238,-101.520742,26.666666666666668,wmoUnit:degC,60,0,16093.44,wmoUnit:m,,,,,,
Gillespie,30.31800246,-98.94627245,26.11111111111111,wmoUnit:degC,79,15,16093.44,wmoUnit:m,,,,,,
Fisher,32.74305155,-100.4019503,18.88888888888889,wmoUnit:degC,97,0,9656.064,wmoUnit:m,,,,,,
Henderson,32.21188078,-95.85356847,20.0,wmoUnit:degC,100,97,,,FA,A,Flood Warning,Severe,Immediate,2025-06-13T09:15:00-05:00
Shackelford,32.7360276,-99.35403034,20.0,wmoUnit:degC,97,0,9656.064,wmoUnit:m,,,,,,
Palo Pinto,32.75316856,-98.31299522,20.0,wmoUnit:degC,97,7,,,,,,,,
Wilbarger,34.08044953,-99.24089568,20.555555555555557,wmoUnit:degC,95,0,,,,,,,,
Floyd,34.07239775,-101.3033037,28.333333333333332,wmoUnit:degC,43,1,16093.44,wmoUnit:m,,,,,,
Orange,30.12807126,-93.89653794,28.333333333333332,wmoUnit:degC,80,88,12070.08,wmoUnit:m,,,,,,
Runnels,31.83105393,-99.97624799,18.88888888888889,wmoUnit:degC,97,0,9656.064,wmoUnit:m,,,,,,
Coleman,31.77329421,-99.45362579,19.444444444444443,wmoUnit:degC,100,0,9656.064,wmoUnit:m,,,,,,
Martin,32.30605847,-101.9512464,26.666666666666668,wmoUnit:degC,56,0,16093.44,wmoUnit:m,,,,,,
Wheeler,35.40129002,-100.2697634,20.0,wmoUnit:degC,90,1,,,,,,,,
Culberson,31.44709817,-104.5177421,26.666666666666668,wmoUnit:degC,33,0,16093.44,wmoUnit:m,,,,,,
Mitchell,32.30636024,-100.9211128,30.555555555555557,wmoUnit:degC,52,0,16093.44,wmoUnit:m,,,,,,
Hudspeth,31.45613738,-105.3869428,22.77777777777778,wmoUnit:degC,46,0,16093.44,wmoUnit:m,,,Heat Advisory,Moderate,Expected,2025-06-13T00:00:00-06:00
Upshur,32.7362827,-94.94132011,22.22222222222222,wmoUnit:degC,93,95,9656.064,wmoUnit:m,FA,A,Flood Warning,Severe,Immediate,2025-06-13T08:45:00-05:00
Liberty,30.15153187,-94.8120925,22.22222222222222,wmoUnit:degC,100,85,6614.404054870599,wmoUnit:m,,,Flood Warning,Severe,Immediate,2025-06-13T03:30:00-05:00
Williamson,30.64834941,-97.60105467,25.555555555555557,wmoUnit:degC,85,35,16093.44,wmoUnit:m,,,,,,
Nacogdoches,31.61604108,-94.6158776,21.666666666666668,wmoUnit:degC,100,98,9656.064,wmoUnit:m,FA,A,Flood Warning,Severe,Immediate,2025-06-13T09:30:00-05:00
Loving,31.84912973,-103.5799063,25.555555555555557,wmoUnit:degC,64,0,16093.44,wmoUnit:m,,,,,,
Jim Wells,27.73131099,-98.0898649,30.0,wmoUnit:degC,68,28,16093.44,wmoUnit:m,,,,,,
Upton,31.36853957,-102.0430005,25.555555555555557,wmoUnit:degC,71,0,16093.44,wmoUnit:m,,,,,,
Newton,30.78619977,-93.74462993,25.555555555555557,wmoUnit:degC,94,91,10122.773698608355,wmoUnit:m,,,,,,
Lamar,33.66746186,-95.57110784,20.555555555555557,wmoUnit:degC,97,80,,,FA,A,,,,
Polk,30.79250963,-94.82994949,22.22222222222222,wmoUnit:degC,93,79,9350.288547912533,wmoUnit:m,,,Flood Warning,Severe,Immediate,2025-06-13T03:45:00-05:00
Collin,33.18789055,-96.57248871,20.555555555555557,wmoUnit:degC,97,76,,,FA,A,,,,
Hardeman,34.28865227,-99.7453851,19.444444444444443,wmoUnit:degC,97,0,,,,,,,,
McMullen,28.35351091,-98.56842256,29.444444444444443,wmoUnit:degC,72,29,15932.504986084026,wmoUnit:m,,,,,,
Cottle,34.0776571,-100.2786983,28.333333333333332,wmoUnit:degC,59,1,16093.44,wmoUnit:m,,,,,,
Frio,28.86726774,-99.10826004,28.333333333333332,wmoUnit:degC,74,52,16093.44,wmoUnit:m,,,,,,
Gray,35.40130666,-100.812475,19.444444444444443,wmoUnit:degC,93,0,,,,,,,,
Dallam,36.27777107,-102.6021647,19.444444444444443,wmoUnit:degC,78,0,,,,,,,,
Kenedy,26.92409448,-97.68137783,34.44444444444444,wmoUnit:degC,58,7,,,,,,,,
Fort Bend,29.52763253,-95.77090562,21.11111111111111,wmoUnit:degC,97,91,7386.889205566421,wmoUnit:m,,,Flood Warning,Severe,Expected,2025-06-13T08:30:00-05:00
Armstrong,34.96522076,-101.3572412,20.555555555555557,wmoUnit:degC,78,0,,,,,,,,
Collingsworth,34.96498493,-100.2700733,21.11111111111111,wmoUnit:degC,84,0,,,,,,,,
Cass,33.07750446,-94.34348771,23.88888888888889,wmoUnit:degC,90,97,9656.064,wmoUnit:m,FA,A,Flood Warning,Severe,Expected,2025-06-13T10:30:00-05:00
Sherman,36.27765824,-101.8933822,21.666666666666668,wmoUnit:degC,66,0,,,,,,,,
Terry,33.17373729,-102.335157,30.0,wmoUnit:degC,28,1,16093.44,wmoUnit:m,,,,,,
Limestone,31.54541898,-96.58056718,20.0,wmoUnit:degC,100,86,,,FA,A,Flood Warning,Severe,Immediate,2025-06-13T09:15:00-05:00
Real,29.83182711,-99.82215881,27.22222222222222,wmoUnit:degC,69,17,16093.44,wmoUnit:m,,,,,,
Lynn,33.17685487,-101.8160235,27.77777777777778,wmoUnit:degC,49,0,16093.44,wmoUnit:m,,,,,,
Lavaca,29.38437003,-96.93020993,24.444444444444443,wmoUnit:degC,97,86,9656.064,wmoUnit:m,,,,,,
Nolan,32.3034718,-100.4060989,18.333333333333332,wmoUnit:degC,93,0,11265.408,wmoUnit:m,,,,,,
Gaines,32.74074537,-102.6351246,26.666666666666668,wmoUnit:degC,52,0,16093.44,wmoUnit:m,,,,,,
Montgomery,30.30022409,-95.50301411,21.11111111111111,wmoUnit:degC,93,73,9479.0359451294,wmoUnit:m,,,,,,
Concho,31.32645211,-99.86413426,18.88888888888889,wmoUnit:degC,100,1,9656.064,wmoUnit:m,,,,,,
Hardin,30.33238431,-94.39021394,25.555555555555557,wmoUnit:degC,91,93,8239.841095825224,wmoUnit:m,,,,,,
Harris,29.85967144,-95.39782106,21.11111111111111,wmoUnit:degC,97,84,6904.0856986083545,wmoUnit:m,,,,,,
Leon,31.29655719,-95.99554292,20.0,wmoUnit:degC,97,97,,,FA,A,Flood Warning,Severe,Immediate,2025-06-13T09:15:00-05:00
Bowie,33.44572786,-94.42324298,22.77777777777778,wmoUnit:degC,93,97,7934.065643737756,wmoUnit:m,FA,A,Flood Warning,Severe,Immediate,2025-06-13T10:30:00-05:00
Kaufman,32.59927808,-96.28779341,20.555555555555557,wmoUnit:degC,97,87,,,FA,A,,,,
Anderson,31.81321543,-95.65251774,19.444444444444443,wmoUnit:degC,100,98,,,FA,A,Flood Warning,Severe,Immediate,2025-06-13T09:15:00-05:00
San Saba,31.15520543,-98.81754295,20.0,wmoUnit:degC,100,16,9656.064,wmoUnit:m,,,,,,
Schleicher,30.89661056,-100.538097,18.88888888888889,wmoUnit:degC,97,0,9656.064,wmoUnit:m,,,,,,
Colorado,29.6208542,-96.52630821,20.555555555555557,wmoUnit:degC,100,71,9656.064,wmoUnit:m,,,,,,
Milam,30.78625299,-96.97683495,21.666666666666668,wmoUnit:degC,97,84,,,FA,A,,,,
Live Oak,28.3514375,-98.12474493,30.0,wmoUnit:degC,69,41,15530.168986084027,wmoUnit:m,,,,,,
Borden,32.7436916,-101.4317533,25.0,wmoUnit:degC,67,0,16093.44,wmoUnit:m,,,,,,
McCulloch,31.19896752,-99.34754972,19.444444444444443,wmoUnit:degC,100,9,9656.064,wmoUnit:m,,,,,,
Johnson,32.37899918,-97.36660504,20.0,wmoUnit:degC,97,34,,,FA,A,,,,
Montague,33.67496328,-97.72466993,21.11111111111111,wmoUnit:degC,93,8,,,,,,,,
Stonewall,33.17842158,-100.255259,29.444444444444443,wmoUnit:degC,53,0,16093.44,wmoUnit:m,,,,,,
Comal,29.80816362,-98.27814516,24.444444444444443,wmoUnit:degC,90,39,16093.44,wmoUnit:m,,,,,,
Eastland,32.32739258,-98.8325713,18.88888888888889,wmoUnit:degC,93,1,,,,,,,,
Comanche,31.9490639,-98.55841538,18.333333333333332,wmoUnit:degC,100,7,,,FA,A,,,,
King,33.61641863,-100.2558584,28.333333333333332,wmoUnit:degC,53,0,16093.44,wmoUnit:m,,,,,,
Washington,30.2145299,-96.40356575,20.0,wmoUnit:degC,100,51,11265.408,wmoUnit:m,,,,,,
Webb,27.76102524,-99.33170164,31.11111111111111,wmoUnit:degC,64,14,16093.44,wmoUnit:m,,,,,,
Fayette,29.87683207,-96.91968047,23.333333333333332,wmoUnit:degC,100,70,9656.064,wmoUnit:m,,,,,,
Harrison,32.54814898,-94.37155736,23.88888888888889,wmoUnit:degC,100,97,9656.064,wmoUnit:m,FA,A,Flood Warning,Severe,Immediate,2025-06-13T10:45:00-05:00
Presidio,29.99977786,-104.2405552,25.555555555555557,wmoUnit:degC,42,0,16093.44,wmoUnit:m,,,,,,
Austin,29.88711223,-96.27791829,20.555555555555557,wmoUnit:degC,100,69,9656.064,wmoUnit:m,,,,,,
Randall,34.96594288,-101.8968527,21.11111111111111,wmoUnit:degC,78,0,,,,,,,,
Hood,32.43107878,-97.83280338,20.0,wmoUnit:degC,97,16,,,FA,A,,,,
Victoria,28.79640594,-96.97176602,26.11111111111111,wmoUnit:degC,88,84,14081.76,wmoUnit:m,FA,A,Flood Warning,Severe,Expected,2025-06-13T05:15:00-05:00
Hutchinson,35.84000866,-101.3547257,21.666666666666668,wmoUnit:degC,76,0,,,,,,,,
Coryell,31.39087578,-97.7991883,20.0,wmoUnit:degC,100,23,,,FA,A,Flood Warning,Severe,Immediate,2025-06-13T03:30:00-05:00
Jackson,28.95603133,-96.57883268,21.11111111111111,wmoUnit:degC,93,86,8706.550794433579,wmoUnit:m,FA,A,Flood Warning,Severe,Expected,2025-06-12T21:00:00-05:00
Taylor,32.30138229,-99.89003941,19.444444444444443,wmoUnit:degC,90,0,9656.064,wmoUnit:m,,,,,,
Zapata,27.00089072,-99.16860134,33.333333333333336,wmoUnit:degC,52,0,,,,,,,,
San Patricio,28.00922186,-97.51859857,29.444444444444443,wmoUnit:degC,74,46,16061.252383300736,wmoUnit:m,,,,,,
Grimes,30.54360689,-95.98557334,20.555555555555557,wmoUnit:degC,100,52,11265.408,wmoUnit:m,,,,,,
Lamb,34.06861242,-102.3517095,28.88888888888889,wmoUnit:degC,41,2,16093.44,wmoUnit:m,,,,,,
