countyName,latitude,longitude,temperature,temperature_unit,relativeHumidity,precipitationProbability,visibility,visibility_unit,hazard_phenomenon,hazard_significance,alert_event,alert_severity,alert_urgency,alert_expires
Foard,33.97408519,-99.77871109,28.88888888888889,wmoUnit:degC,63,10,,,SV,A,,,,
Blanco,30.26636128,-98.39974086,24.444444444444443,wmoUnit:degC,89,44,16093.44,wmoUnit:m,,,,,,
Hockley,33.60750375,-102.3430919,28.88888888888889,wmoUnit:degC,36,5,16093.44,wmoUnit:m,,,,,,
Llano,30.70566579,-98.68387398,25.0,wmoUnit:degC,87,70,16093.44,wmoUnit:m,,,,,,
Swisher,34.53064989,-101.734951,23.333333333333332,wmoUnit:degC,59,8,16093.44,wmoUnit:m,,,,,,
Titus,33.2160906,-94.96509786,29.444444444444443,wmoUnit:degC,61,10,16093.44,wmoUnit:m,,,,,,
Navarro,32.04695429,-96.47248134,30.0,wmoUnit:degC,68,17,16093.44,wmoUnit:m,SV,A,Severe Thunderstorm Watch,Severe,Future,2025-06-04T02:00:00-05:00
Brazoria,29.19345387,-95.45578479,30.0,wmoUnit:degC,65,8,16093.44,wmoUnit:m,,,,,,
Hidalgo,26.396627,-98.18088681,35.0,wmoUnit:degC,54,1,,,,,,,,
Archer,33.61539176,-98.68783437,28.333333333333332,wmoUnit:degC,72,52,,,FA,A,Flood Watch,Severe,Future,2025-06-04T07:00:00-05:00
Refugio,28.32681413,-97.16546961,31.666666666666668,wmoUnit:degC,63,20,15497.982904174776,wmoUnit:m,,,,,,
Andrews,32.30506283,-102.6378839,30.0,wmoUnit:degC,31,0,16093.44,wmoUnit:m,,,,,,
Galveston,29.39424415,-94.96474975,30.0,wmoUnit:degC,70,6,15739.383890258803,wmoUnit:m,,,,,,
De Witt,29.08201599,-97.35666976,25.0,wmoUnit:degC,94,19,11265.408,wmoUnit:m,,,,,,
Gonzales,29.45641495,-97.49279927,25.0,wmoUnit:degC,95,20,12746.00460278313,wmoUnit:m,,,,,,
Wharton,29.2778362,-96.22197375,29.444444444444443,wmoUnit:degC,72,16,16093.44,wmoUnit:m,,,,,,
Fannin,33.59396919,-96.10656755,30.0,wmoUnit:degC,63,19,16093.44,wmoUnit:m,SV,A,Severe Thunderstorm Watch,Severe,Future,2025-06-04T02:00:00-05:00
Madison,30.96564645,-95.92818441,30.555555555555557,wmoUnit:degC,59,4,16093.44,wmoUnit:m,,,,,,
Moore,35.83768863,-101.8929556,17.22222222222222,wmoUnit:degC,60,3,,,,,,,,
Tyler,30.7712607,-94.37651432,24.444444444444443,wmoUnit:degC,90,0,15980.786411132844,wmoUnit:m,,,,,,
Lipscomb,36.27778432,-100.27317,20.0,wmoUnit:degC,81,7,,,,,,,,
Burleson,30.49246139,-96.62109399,31.666666666666668,wmoUnit:degC,59,24,15658.916383300735,wmoUnit:m,,,,,,
Jim Hogg,27.04340499,-98.6972921,34.44444444444444,wmoUnit:degC,51,1,,,,,,,,
Throckmorton,33.17753907,-99.21236832,29.444444444444443,wmoUnit:degC,65,30,9656.064,wmoUnit:m,SV,A,Severe Thunderstorm Watch,Severe,Future,2025-06-03T23:00:00-05:00
Kleberg,27.43274395,-97.72889778,32.77777777777778,wmoUnit:degC,65,14,16093.44,wmoUnit:m,,,,,,
Shelby,31.79242191,-94.14495261,27.77777777777778,wmoUnit:degC,55,10,16093.44,wmoUnit:m,,,,,,
Garza,33.17991074,-101.2984496,31.11111111111111,wmoUnit:degC,43,4,16093.44,wmoUnit:m,,,,,,
Karnes,28.90493782,-97.85960621,25.0,wmoUnit:degC,92,20,12746.00460278313,wmoUnit:m,,,,,,
Reeves,31.32307061,-103.693143,30.555555555555557,wmoUnit:degC,28,0,16093.44,wmoUnit:m,,,,,,
Houston,31.31764137,-95.42225367,30.555555555555557,wmoUnit:degC,61,3,16093.44,wmoUnit:m,,,Flood Warning,Severe,Immediate,2025-06-04T02:00:00-05:00
El Paso,31.7686226,-106.2352229,27.22222222222222,wmoUnit:degC,29,0,16077.34619165045,wmoUnit:m,,,,,,
Carson,35.40346802,-101.3542037,16.11111111111111,wmoUnit:degC,78,1,,,,,,,,
Medina,29.35520493,-99.11008331,24.444444444444443,wmoUnit:degC,90,20,16093.44,wmoUnit:m,,,,,,
Wichita,33.98421585,-98.70153389,28.333333333333332,wmoUnit:degC,67,53,,,FA,A,Flood Watch,Severe,Future,2025-06-04T07:00:00-05:00
Chambers,29.73912276,-94.60891308,30.0,wmoUnit:degC,61,3,15047.367013915973,wmoUnit:m,,,Flood Warning,Severe,Expected,2025-06-04T15:00:00-05:00
Donley,34.96540246,-100.8140501,24.444444444444443,wmoUnit:degC,60,2,,,,,,,,
Hopkins,33.14933822,-95.56414173,30.555555555555557,wmoUnit:degC,59,9,16093.44,wmoUnit:m,SV,A,Severe Thunderstorm Watch,Severe,Future,2025-06-04T02:00:00-05:00
Lampasas,31.19627791,-98.24142711,29.444444444444443,wmoUnit:degC,65,25,16093.44,wmoUnit:m,SV,A,Severe Thunderstorm Watch,Severe,Future,2025-06-04T02:00:00-05:00
Falls,31.25317017,-96.93579511,30.0,wmoUnit:degC,72,18,16093.44,wmoUnit:m,,,,,,
Stephens,32.73584155,-98.83612016,30.0,wmoUnit:degC,63,30,16093.44,wmoUnit:m,SV,A,Severe Thunderstorm Watch,Severe,Future,2025-06-03T23:00:00-05:00
Travis,30.33423319,-97.78194654,26.11111111111111,wmoUnit:degC,88,22,16093.44,wmoUnit:m,,,,,,
Roberts,35.8385577,-100.8135689,15.555555555555555,wmoUnit:degC,81,2,,,,,,,,
Crosby,33.61459873,-101.2998612,31.11111111111111,wmoUnit:degC,34,6,16093.44,wmoUnit:m,,,,,,
Kerr,30.06153035,-99.35016969,23.333333333333332,wmoUnit:degC,86,67,16093.44,wmoUnit:m,,,,,,
Wood,32.78634374,-95.38206498,28.88888888888889,wmoUnit:degC,67,10,16093.44,wmoUnit:m,,,,,,
Jack,33.23345819,-98.1725509,30.0,wmoUnit:degC,65,30,16093.44,wmoUnit:m,SV,A,Severe Thunderstorm Watch,Severe,Future,2025-06-03T23:00:00-05:00
Marion,32.79797929,-94.35725239,30.0,wmoUnit:degC,63,10,16093.44,wmoUnit:m,,,,,,
Hale,34.07051782,-101.8269082,26.11111111111111,wmoUnit:degC,50,7,16093.44,wmoUnit:m,,,,,,
Jeff Davis,30.71559322,-104.1403539,22.22222222222222,wmoUnit:degC,35,0,16093.44,wmoUnit:m,,,,,,
Tarrant,32.77185236,-97.29116473,30.555555555555557,wmoUnit:degC,63,25,16093.44,wmoUnit:m,SV,A,Severe Thunderstorm Watch,Severe,Future,2025-06-04T02:00:00-05:00
Waller,30.01093722,-95.98768942,31.666666666666668,wmoUnit:degC,57,15,16093.44,wmoUnit:m,,,,,,
Reagan,31.36617698,-101.5230108,29.444444444444443,wmoUnit:degC,51,1,16093.44,wmoUnit:m,,,,,,
Smith,32.37514553,-95.26909511,28.88888888888889,wmoUnit:degC,63,10,16093.44,wmoUnit:m,,,,,,
Van Zandt,32.56368961,-95.8364862,30.0,wmoUnit:degC,65,11,16093.44,wmoUnit:m,SV,A,Severe Thunderstorm Watch,Severe,Future,2025-06-04T02:00:00-05:00
Cooke,33.638465,-97.21247642,28.88888888888889,wmoUnit:degC,70,30,16093.44,wmoUnit:m,SV,A,Severe Thunderstorm Warning,Severe,Immediate,2025-06-03T20:45:00-05:00
Zavala,28.86530621,-99.76102001,25.0,wmoUnit:degC,97,9,16093.44,wmoUnit:m,,,,,,
Hall,34.53074134,-100.6809876,30.0,wmoUnit:degC,43,17,13566.770411132842,wmoUnit:m,,,,,,
Kendall,29.9446397,-98.71160511,23.88888888888889,wmoUnit:degC,90,40,16093.44,wmoUnit:m,,,,,,
Goliad,28.65708563,-97.42646082,31.11111111111111,wmoUnit:degC,61,21,15948.59879443358,wmoUnit:m,,,,,,
Yoakum,33.17293501,-102.8278792,29.444444444444443,wmoUnit:degC,31,3,16093.44,wmoUnit:m,,,,,,
Knox,33.60614755,-99.74144313,28.88888888888889,wmoUnit:degC,63,15,,,SV,A,,,,
McLennan,31.55234489,-97.20184883,28.88888888888889,wmoUnit:degC,74,20,16093.44,wmoUnit:m,SV,A,Severe Thunderstorm Watch,Severe,Future,2025-06-04T02:00:00-05:00
Brewster,29.81205836,-103.2518906,32.22222222222222,wmoUnit:degC,25,0,16093.44,wmoUnit:m,,,,,,
Panola,32.16222886,-94.30552858,29.444444444444443,wmoUnit:degC,59,10,16093.44,wmoUnit:m,,,,,,
Bandera,29.74724753,-99.24637282,23.333333333333332,wmoUnit:degC,86,34,16093.44,wmoUnit:m,,,,,,
Parmer,34.53014507,-102.784594,22.22222222222222,wmoUnit:degC,55,7,16093.44,wmoUnit:m,,,,,,
Rockwall,32.89786769,-96.40780584,30.0,wmoUnit:degC,68,20,16093.44,wmoUnit:m,SV,A,Severe Thunderstorm Watch,Severe,Future,2025-06-04T02:00:00-05:00
Trinity,31.0885069,-95.13551682,31.11111111111111,wmoUnit:degC,55,3,16093.44,wmoUnit:m,,,Flood Warning,Severe,Immediate,2025-06-04T15:00:00-05:00
Bosque,31.90050476,-97.63437613,30.555555555555557,wmoUnit:degC,72,25,16093.44,wmoUnit:m,SV,A,Severe Thunderstorm Watch,Severe,Future,2025-06-04T02:00:00-05:00
Coke,31.88849293,-100.5298747,30.0,wmoUnit:degC,61,6,16093.44,wmoUnit:m,,,,,,
Franklin,33.17550691,-95.21841437,29.444444444444443,wmoUnit:degC,59,10,16093.44,wmoUnit:m,,,,,,
Hill,31.99079033,-97.1324142,28.88888888888889,wmoUnit:degC,88,22,16093.44,wmoUnit:m,SV,A,Severe Thunderstorm Watch,Severe,Future,2025-06-04T02:00:00-05:00
Calhoun,28.48966896,-96.64708119,31.11111111111111,wmoUnit:degC,72,21,16093.44,wmoUnit:m,,,,,,
Irion,31.30393203,-100.9824126,30.0,wmoUnit:degC,57,2,16093.44,wmoUnit:m,,,,,,
Midland,31.86921148,-102.0315032,30.0,wmoUnit:degC,42,0,16093.44,wmoUnit:m,,,,,,
Brown,31.77432313,-98.99989649,29.444444444444443,wmoUnit:degC,63,24,16093.44,wmoUnit:m,,,,,,
Wilson,29.17315896,-98.08621015,25.0,wmoUnit:degC,92,20,16093.44,wmoUnit:m,,,,,,
Oldham,35.40497586,-102.6029949,20.555555555555557,wmoUnit:degC,57,3,,,,,,,,
Freestone,31.70486443,-96.14918535,30.0,wmoUnit:degC,65,11,16093.44,wmoUnit:m,,,,,,
Sabine,31.34321941,-93.85170439,28.88888888888889,wmoUnit:degC,65,10,16093.44,wmoUnit:m,,,,,,
Deaf Smith,34.96602014,-102.6048162,20.0,wmoUnit:degC,63,1,,,,,,,,
Angelina,31.25475875,-94.611742,29.444444444444443,wmoUnit:degC,63,10,16093.44,wmoUnit:m,,,Flood Warning,Severe,Immediate,2025-06-04T02:00:00-05:00
Kent,33.18284492,-100.7791031,32.22222222222222,wmoUnit:degC,44,8,16093.44,wmoUnit:m,,,,,,
Red River,33.62074539,-95.0501886,29.444444444444443,wmoUnit:degC,63,10,16093.44,wmoUnit:m,,,,,,
Kinney,29.35000302,-100.4178441,24.444444444444443,wmoUnit:degC,89,7,16093.44,wmoUnit:m,,,,,,
Denton,33.205574,-97.11681154,30.555555555555557,wmoUnit:degC,61,26,16093.44,wmoUnit:m,SV,A,Severe Thunderstorm Watch,Severe,Future,2025-06-03T23:00:00-05:00
Sutton,30.49747152,-100.5382263,26.11111111111111,wmoUnit:degC,79,7,16093.44,wmoUnit:m,,,,,,
Guadalupe,29.58257236,-97.94850308,25.555555555555557,wmoUnit:degC,91,20,16093.44,wmoUnit:m,,,,,,
Winkler,31.85008609,-103.0484794,30.0,wmoUnit:degC,31,0,16093.44,wmoUnit:m,,,,,,
Dimmit,28.42161168,-99.760574,25.555555555555557,wmoUnit:degC,91,7,16093.44,wmoUnit:m,,,,,,
Wise,33.21585061,-97.65444124,29.444444444444443,wmoUnit:degC,65,29,16093.44,wmoUnit:m,SV,A,Severe Thunderstorm Watch,Severe,Future,2025-06-03T23:00:00-05:00
Hemphill,35.83750155,-100.2704628,21.666666666666668,wmoUnit:degC,73,3,,,,,,,,
Potter,35.40128927,-101.8940484,18.333333333333332,wmoUnit:degC,68,1,,,,,,,,
Childress,34.52929257,-100.2075664,32.77777777777778,wmoUnit:degC,37,26,13969.106411132843,wmoUnit:m,,,,,,
Willacy,26.47132899,-97.64303323,33.333333333333336,wmoUnit:degC,64,3,,,,,,,,
Bastrop,30.10353518,-97.31187705,25.0,wmoUnit:degC,92,16,12746.00460278313,wmoUnit:m,,,,,,
Kimble,30.48676251,-99.74892716,28.88888888888889,wmoUnit:degC,72,17,16093.44,wmoUnit:m,,,,,,
Scurry,32.74720063,-100.9165071,28.333333333333332,wmoUnit:degC,59,5,16093.44,wmoUnit:m,,,,,,
Ochiltree,36.27846334,-100.815653,13.333333333333334,wmoUnit:degC,93,4,,,,,,,,
Hansford,36.27753179,-101.3545624,13.88888888888889,wmoUnit:degC,77,7,,,,,,,,
Hartley,35.83996755,-102.6028835,18.88888888888889,wmoUnit:degC,56,11,,,,,,,,
Cameron,26.13847728,-97.51499968,33.333333333333336,wmoUnit:degC,60,1,,,,,,,,
Matagorda,28.86711039,-95.98533866,30.0,wmoUnit:degC,72,15,16093.44,wmoUnit:m,,,,,,
Burnet,30.78843382,-98.18252382,23.88888888888889,wmoUnit:degC,91,53,16093.44,wmoUnit:m,,,,,,
Rains,32.87004212,-95.79347545,30.0,wmoUnit:degC,65,11,16093.44,wmoUnit:m,SV,A,Severe Thunderstorm Watch,Severe,Future,2025-06-04T02:00:00-05:00
Hays,30.05782657,-98.03104087,24.444444444444443,wmoUnit:degC,93,22,16093.44,wmoUnit:m,,,,,,
Mason,30.71742293,-99.2263026,29.444444444444443,wmoUnit:degC,65,19,16093.44,wmoUnit:m,,,,,,
Ward,31.509424,-103.1024636,31.11111111111111,wmoUnit:degC,29,0,16093.44,wmoUnit:m,,,,,,
Delta,33.38623601,-95.67221685,30.555555555555557,wmoUnit:degC,59,11,16093.44,wmoUnit:m,SV,A,Severe Thunderstorm Watch,Severe,Future,2025-06-04T02:00:00-05:00
Nueces,27.72621549,-97.61767326,32.22222222222222,wmoUnit:degC,63,17,16093.44,wmoUnit:m,,,,,,
Callahan,32.2977738,-99.37359692,30.0,wmoUnit:degC,53,26,9656.064,wmoUnit:m,SV,A,Severe Thunderstorm Watch,Severe,Future,2025-06-03T23:00:00-05:00
Bell,31.03778267,-97.47790776,31.666666666666668,wmoUnit:degC,61,19,16093.44,wmoUnit:m,,,,,,
Cherokee,31.83695632,-95.16515234,28.88888888888889,wmoUnit:degC,63,10,16093.44,wmoUnit:m,,,Flood Warning,Severe,Immediate,2025-06-04T02:00:00-05:00
Ellis,32.34839264,-96.79467417,29.444444444444443,wmoUnit:degC,75,21,16093.44,wmoUnit:m,SV,A,Severe Thunderstorm Watch,Severe,Future,2025-06-04T02:00:00-05:00
Lubbock,33.6101944,-101.8205745,29.444444444444443,wmoUnit:degC,35,5,16093.44,wmoUnit:m,,,,,,
Terrell,30.22502597,-102.0764533,31.11111111111111,wmoUnit:degC,52,0,16093.44,wmoUnit:m,,,Special Weather Statement,Moderate,Expected,2025-06-03T21:15:00-05:00
Crockett,30.72291931,-101.4118364,28.88888888888889,wmoUnit:degC,61,3,16093.44,wmoUnit:m,,,,,,
Atascosa,28.89418432,-98.52741302,24.444444444444443,wmoUnit:degC,94,18,16093.44,wmoUnit:m,,,,,,
Ector,31.86908156,-102.5430907,29.444444444444443,wmoUnit:degC,36,0,16093.44,wmoUnit:m,,,,,,
Brazos,30.6610425,-96.3022943,31.666666666666668,wmoUnit:degC,57,18,15996.878684692381,wmoUnit:m,,,,,,
Aransas,28.12709562,-96.99258951,29.444444444444443,wmoUnit:degC,80,16,15433.609205566421,wmoUnit:m,,,,,,
Dallas,32.76653746,-96.77781862,30.555555555555557,wmoUnit:degC,61,22,16093.44,wmoUnit:m,SV,A,Severe Thunderstorm Watch,Severe,Future,2025-06-04T02:00:00-05:00
Howard,32.30610232,-101.4355097,28.88888888888889,wmoUnit:degC,51,2,16093.44,wmoUnit:m,,,,,,
Motley,34.07409017,-100.7798961,31.666666666666668,wmoUnit:degC,35,12,14226.601205566421,wmoUnit:m,,,,,,
San Augustine,31.39427005,-94.16809762,28.333333333333332,wmoUnit:degC,63,10,16093.44,wmoUnit:m,,,,,,
Maverick,28.74260943,-100.3144638,25.555555555555557,wmoUnit:degC,87,5,16093.44,wmoUnit:m,,,,,,
Erath,32.23640361,-98.21722756,29.444444444444443,wmoUnit:degC,63,29,16093.44,wmoUnit:m,SV,A,Severe Thunderstorm Warning,Severe,Immediate,2025-06-03T21:30:00-05:00
Dickens,33.61663428,-100.7788138,31.666666666666668,wmoUnit:degC,36,8,16093.44,wmoUnit:m,,,,,,
Caldwell,29.83677935,-97.61983479,25.0,wmoUnit:degC,98,19,16093.44,wmoUnit:m,,,,,,
Dawson,32.74258137,-101.9476136,28.88888888888889,wmoUnit:degC,43,0,16093.44,wmoUnit:m,,,,,,
Camp,32.97321771,-94.97860185,29.444444444444443,wmoUnit:degC,61,10,16093.44,wmoUnit:m,,,,,,
Duval,27.68133382,-98.50889672,33.888888888888886,wmoUnit:degC,53,13,16061.252383300736,wmoUnit:m,,,,,,
Hunt,33.123531,-96.08550014,30.555555555555557,wmoUnit:degC,65,17,16093.44,wmoUnit:m,SV,A,Severe Thunderstorm Watch,Severe,Future,2025-06-04T02:00:00-05:00
Mills,31.49524259,-98.59552736,28.88888888888889,wmoUnit:degC,70,29,16093.44,wmoUnit:m,SV,A,Severe Thunderstorm Watch,Severe,Future,2025-06-04T02:00:00-05:00
Val Verde,29.89300587,-101.15171,23.88888888888889,wmoUnit:degC,92,4,16093.44,wmoUnit:m,,,,,,
Pecos,30.78100044,-102.7235743,31.11111111111111,wmoUnit:degC,30,0,16093.44,wmoUnit:m,,,,,,
Baylor,33.61648147,-99.21351964,28.333333333333332,wmoUnit:degC,67,50,,,SV,A,,,,
Gregg,32.48036452,-94.81723694,29.444444444444443,wmoUnit:degC,61,10,16093.44,wmoUnit:m,,,,,,
Cochran,33.60410808,-102.8285264,27.77777777777778,wmoUnit:degC,35,4,16093.44,wmoUnit:m,,,,,,
Jasper,30.74391255,-94.02495849,25.0,wmoUnit:degC,90,0,16093.44,wmoUnit:m,,,,,,
Hamilton,31.70479181,-98.11066654,28.88888888888889,wmoUnit:degC,70,27,16093.44,wmoUnit:m,SV,A,Severe Thunderstorm Watch,Severe,Future,2025-06-04T02:00:00-05:00
Castro,34.53000304,-102.2617608,23.333333333333332,wmoUnit:degC,51,7,16093.44,wmoUnit:m,,,,,,
Sterling,31.82786516,-101.0500699,31.11111111111111,wmoUnit:degC,52,2,16093.44,wmoUnit:m,,,,,,
Starr,26.56212627,-98.73834895,35.55555555555556,wmoUnit:degC,51,0,,,,,,,,
Crane,31.42846287,-102.5156425,30.555555555555557,wmoUnit:degC,36,0,16093.44,wmoUnit:m,,,,,,
Morris,33.11368507,-94.73205137,29.444444444444443,wmoUnit:degC,63,10,16093.44,wmoUnit:m,,,,,,
Briscoe,34.53041048,-101.2085769,25.555555555555557,wmoUnit:degC,54,11,15884.225095825224,wmoUnit:m,,,,,,
Tom Green,31.4044442,-100.4620678,28.88888888888889,wmoUnit:degC,70,6,16093.44,wmoUnit:m,,,,,,
Menard,30.88981785,-99.82061472,28.88888888888889,wmoUnit:degC,65,18,16093.44,wmoUnit:m,,,,,,
Parker,32.77852261,-97.80472194,28.88888888888889,wmoUnit:degC,65,28,16093.44,wmoUnit:m,SV,A,Severe Thunderstorm Warning,Severe,Immediate,2025-06-03T21:30:00-05:00
Walker,30.73899492,-95.57224172,31.666666666666668,wmoUnit:degC,56,3,16077.34619165045,wmoUnit:m,,,Flood Warning,Severe,Immediate,2025-06-04T15:00:00-05:00
Brooks,27.0315669,-98.21874127,34.44444444444444,wmoUnit:degC,51,3,,,,,,,,
La Salle,28.34621032,-99.1034773,33.333333333333336,wmoUnit:degC,58,11,15594.542684692382,wmoUnit:m,,,,,,
Edwards,29.98248216,-100.3048937,22.77777777777778,wmoUnit:degC,87,22,16093.44,wmoUnit:m,,,,,,
Lee,30.31065065,-96.96568735,23.333333333333332,wmoUnit:degC,94,11,12746.00460278313,wmoUnit:m,,,,,,
Robertson,31.02705415,-96.51272568,30.555555555555557,wmoUnit:degC,68,14,16093.44,wmoUnit:m,,,Flood Warning,Severe,Immediate,2025-06-04T08:00:00-05:00
Young,33.17670764,-98.68781396,30.555555555555557,wmoUnit:degC,61,30,16093.44,wmoUnit:m,SV,A,Severe Thunderstorm Watch,Severe,Future,2025-06-03T23:00:00-05:00
Bee,28.41736675,-97.74116811,32.22222222222222,wmoUnit:degC,57,19,16093.44,wmoUnit:m,,,,,,
Clay,33.78379717,-98.208958,28.333333333333332,wmoUnit:degC,72,20,,,FA,A,Flood Watch,Severe,Future,2025-06-04T07:00:00-05:00
San Jacinto,30.57948905,-95.16683273,31.11111111111111,wmoUnit:degC,57,3,16093.44,wmoUnit:m,,,Flood Warning,Severe,Immediate,2025-06-04T15:00:00-05:00
Uvalde,29.35669829,-99.76203107,24.444444444444443,wmoUnit:degC,91,13,16093.44,wmoUnit:m,,,,,,
Haskell,33.17824805,-99.73029401,29.444444444444443,wmoUnit:degC,65,17,9656.064,wmoUnit:m,SV,A,Severe Thunderstorm Watch,Severe,Future,2025-06-03T23:00:00-05:00
Somervell,32.22229511,-97.77456553,30.555555555555557,wmoUnit:degC,68,26,16093.44,wmoUnit:m,SV,A,Severe Thunderstorm Watch,Severe,Future,2025-06-04T02:00:00-05:00
Bexar,29.44884523,-98.51966309,25.0,wmoUnit:degC,90,20,16093.44,wmoUnit:m,,,,,,
Grayson,33.62684371,-96.67764864,28.88888888888889,wmoUnit:degC,67,26,16093.44,wmoUnit:m,SV,A,Severe Thunderstorm Watch,Severe,Future,2025-06-04T02:00:00-05:00
Bailey,34.0684915,-102.8299069,25.555555555555557,wmoUnit:degC,45,6,16093.44,wmoUnit:m,,,,,,
Jones,32.73970429,-99.87850599,32.22222222222222,wmoUnit:degC,45,16,16093.44,wmoUnit:m,SV,A,Severe Thunderstorm Watch,Severe,Future,2025-06-03T23:00:00-05:00
Jefferson,29.88425832,-94.1708778,27.77777777777778,wmoUnit:degC,74,4,16077.34619165045,wmoUnit:m,,,,,,
Rusk,32.10803224,-94.76169577,28.88888888888889,wmoUnit:degC,61,10,16093.44,wmoUnit:m,,,,,,
Glasscock,31.8694238,-101.520742,29.444444444444443,wmoUnit:degC,51,1,16093.44,wmoUnit:m,,,,,,
Gillespie,30.31800246,-98.94627245,23.333333333333332,wmoUnit:degC,89,70,16093.44,wmoUnit:m,,,,,,
Fisher,32.74305155,-100.4019503,32.22222222222222,wmoUnit:degC,45,9,16093.44,wmoUnit:m,SV,A,Severe Thunderstorm Watch,Severe,Future,2025-06-03T23:00:00-05:00
Henderson,32.21188078,-95.85356847,30.555555555555557,wmoUnit:degC,63,10,16093.44,wmoUnit:m,SV,A,Severe Thunderstorm Watch,Severe,Future,2025-06-04T02:00:00-05:00
Shackelford,32.7360276,-99.35403034,30.555555555555557,wmoUnit:degC,57,26,9656.064,wmoUnit:m,SV,A,Severe Thunderstorm Watch,Severe,Future,2025-06-03T23:00:00-05:00
Palo Pinto,32.75316856,-98.31299522,30.555555555555557,wmoUnit:degC,57,30,16093.44,wmoUnit:m,SV,A,Severe Thunderstorm Warning,Severe,Immediate,2025-06-03T21:30:00-05:00
Wilbarger,34.08044953,-99.24089568,28.88888888888889,wmoUnit:degC,63,43,,,SV,A,,,,
Floyd,34.07239775,-101.3033037,29.444444444444443,wmoUnit:degC,40,9,16093.44,wmoUnit:m,,,,,,
Orange,30.12807126,-93.89653794,27.22222222222222,wmoUnit:degC,79,1,16077.34619165045,wmoUnit:m,,,,,,
Runnels,31.83105393,-99.97624799,30.0,wmoUnit:degC,59,15,16093.44,wmoUnit:m,,,,,,
Coleman,31.77329421,-99.45362579,30.0,wmoUnit:degC,53,23,16093.44,wmoUnit:m,,,,,,
Martin,32.30605847,-101.9512464,30.0,wmoUnit:degC,37,0,16093.44,wmoUnit:m,,,,,,
Wheeler,35.40129002,-100.2697634,23.88888888888889,wmoUnit:degC,64,6,,,,,,,,
Culberson,31.44709817,-104.5177421,25.555555555555557,wmoUnit:degC,28,0,16093.44,wmoUnit:m,,,,,,
Mitchell,32.30636024,-100.9211128,29.444444444444443,wmoUnit:degC,57,7,16093.44,wmoUnit:m,,,,,,
Hudspeth,31.45613738,-105.3869428,24.444444444444443,wmoUnit:degC,36,0,16077.34619165045,wmoUnit:m,,,,,,
Upshur,32.7362827,-94.94132011,29.444444444444443,wmoUnit:degC,63,10,16093.44,wmoUnit:m,,,,,,
Liberty,30.15153187,-94.8120925,31.11111111111111,wmoUnit:degC,55,4,15111.740712524488,wmoUnit:m,,,Flood Warning,Severe,Expected,2025-06-04T15:00:00-05:00
Williamson,30.64834941,-97.60105467,25.0,wmoUnit:degC,90,24,16093.44,wmoUnit:m,,,,,,
Nacogdoches,31.61604108,-94.6158776,28.88888888888889,wmoUnit:degC,65,10,16093.44,wmoUnit:m,,,Flood Warning,Severe,Immediate,2025-06-04T03:45:00-05:00
Loving,31.84912973,-103.5799063,28.88888888888889,wmoUnit:degC,32,0,16093.44,wmoUnit:m,,,,,,
Jim Wells,27.73131099,-98.0898649,33.333333333333336,wmoUnit:degC,57,15,16093.44,wmoUnit:m,,,,,,
Upton,31.36853957,-102.0430005,30.0,wmoUnit:degC,42,0,16093.44,wmoUnit:m,,,,,,
Newton,30.78619977,-93.74462993,24.444444444444443,wmoUnit:degC,90,0,16093.44,wmoUnit:m,,,,,,
Lamar,33.66746186,-95.57110784,30.555555555555557,wmoUnit:degC,55,12,16093.44,wmoUnit:m,SV,A,Severe Thunderstorm Watch,Severe,Future,2025-06-04T02:00:00-05:00
Polk,30.79250963,-94.82994949,31.666666666666668,wmoUnit:degC,52,4,16093.44,wmoUnit:m,,,Flood Warning,Severe,Immediate,2025-06-04T15:00:00-05:00
Collin,33.18789055,-96.57248871,30.0,wmoUnit:degC,63,22,16093.44,wmoUnit:m,SV,A,Severe Thunderstorm Watch,Severe,Future,2025-06-04T02:00:00-05:00
Hardeman,34.28865227,-99.7453851,29.444444444444443,wmoUnit:degC,59,9,,,SV,A,,,,
McMullen,28.35351091,-98.56842256,33.888888888888886,wmoUnit:degC,56,13,15900.318904174776,wmoUnit:m,,,,,,
Cottle,34.0776571,-100.2786983,32.77777777777778,wmoUnit:degC,41,18,14033.480109741196,wmoUnit:m,,,,,,
Frio,28.86726774,-99.10826004,24.444444444444443,wmoUnit:degC,93,16,16093.44,wmoUnit:m,,,,,,
Gray,35.40130666,-100.812475,19.444444444444443,wmoUnit:degC,70,2,,,,,,,,
Dallam,36.27777107,-102.6021647,16.11111111111111,wmoUnit:degC,65,17,,,,,,,,
Kenedy,26.92409448,-97.68137783,32.77777777777778,wmoUnit:degC,68,4,,,,,,,,
Fort Bend,29.52763253,-95.77090562,31.666666666666668,wmoUnit:degC,59,9,16093.44,wmoUnit:m,,,,,,
Armstrong,34.96522076,-101.3572412,20.555555555555557,wmoUnit:degC,66,1,,,,,,,,
Collingsworth,34.96498493,-100.2700733,29.444444444444443,wmoUnit:degC,45,14,,,,,,,,
Cass,33.07750446,-94.34348771,30.0,wmoUnit:degC,61,10,16093.44,wmoUnit:m,,,,,,
Sherman,36.27765824,-101.8933822,13.333333333333334,wmoUnit:degC,77,11,,,,,,,,
Terry,33.17373729,-102.335157,30.0,wmoUnit:degC,32,3,16093.44,wmoUnit:m,,,,,,
Limestone,31.54541898,-96.58056718,29.444444444444443,wmoUnit:degC,70,16,16093.44,wmoUnit:m,,,,,,
Real,29.83182711,-99.82215881,22.22222222222222,wmoUnit:degC,89,31,16093.44,wmoUnit:m,,,,,,
Lynn,33.17685487,-101.8160235,30.555555555555557,wmoUnit:degC,39,3,16093.44,wmoUnit:m,,,,,,
Lavaca,29.38437003,-96.93020993,23.88888888888889,wmoUnit:degC,96,19,11265.408,wmoUnit:m,,,,,,
Nolan,32.3034718,-100.4060989,30.0,wmoUnit:degC,51,9,16093.44,wmoUnit:m,SV,A,Severe Thunderstorm Watch,Severe,Future,2025-06-03T23:00:00-05:00
Gaines,32.74074537,-102.6351246,28.333333333333332,wmoUnit:degC,37,0,16093.44,wmoUnit:m,,,,,,
Montgomery,30.30022409,-95.50301411,32.22222222222222,wmoUnit:degC,54,5,15932.504986084026,wmoUnit:m,,,,,,
Concho,31.32645211,-99.86413426,28.333333333333332,wmoUnit:degC,72,16,16093.44,wmoUnit:m,,,,,,
Hardin,30.33238431,-94.39021394,25.0,wmoUnit:degC,90,2,15980.786411132844,wmoUnit:m,,,,,,
Harris,29.85967144,-95.39782106,31.11111111111111,wmoUnit:degC,57,8,16093.44,wmoUnit:m,,,,,,
Leon,31.29655719,-95.99554292,31.11111111111111,wmoUnit:degC,70,9,16093.44,wmoUnit:m,,,Flood Warning,Severe,Immediate,2025-06-04T08:00:00-05:00
Bowie,33.44572786,-94.42324298,30.555555555555557,wmoUnit:degC,59,10,16093.44,wmoUnit:m,,,,,,
Kaufman,32.59927808,-96.28779341,30.555555555555557,wmoUnit:degC,59,18,16093.44,wmoUnit:m,SV,A,Severe Thunderstorm Watch,Severe,Future,2025-06-04T02:00:00-05:00
Anderson,31.81321543,-95.65251774,30.0,wmoUnit:degC,63,6,16093.44,wmoUnit:m,,,Flood Warning,Severe,Immediate,2025-06-04T02:00:00-05:00
San Saba,31.15520543,-98.81754295,27.22222222222222,wmoUnit:degC,77,19,16093.44,wmoUnit:m,,,,,,
Schleicher,30.89661056,-100.538097,26.666666666666668,wmoUnit:degC,74,6,16093.44,wmoUnit:m,,,,,,
Colorado,29.6208542,-96.52630821,30.0,wmoUnit:degC,68,25,16093.44,wmoUnit:m,,,,,,
Milam,30.78625299,-96.97683495,31.11111111111111,wmoUnit:degC,66,16,16093.44,wmoUnit:m,,,,,,
Live Oak,28.3514375,-98.12474493,33.888888888888886,wmoUnit:degC,56,16,16093.44,wmoUnit:m,,,,,,
Borden,32.7436916,-101.4317533,28.88888888888889,wmoUnit:degC,48,1,16093.44,wmoUnit:m,,,,,,
McCulloch,31.19896752,-99.34754972,28.333333333333332,wmoUnit:degC,65,22,16093.44,wmoUnit:m,,,,,,
Johnson,32.37899918,-97.36660504,29.444444444444443,wmoUnit:degC,77,25,16093.44,wmoUnit:m,SV,A,Severe Thunderstorm Watch,Severe,Future,2025-06-04T02:00:00-05:00
Montague,33.67496328,-97.72466993,28.88888888888889,wmoUnit:degC,70,32,16093.44,wmoUnit:m,SV,A,Severe Thunderstorm Warning,Severe,Immediate,2025-06-03T20:45:00-05:00
Stonewall,33.17842158,-100.255259,32.22222222222222,wmoUnit:degC,48,11,16093.44,wmoUnit:m,,,,,,
Comal,29.80816362,-98.27814516,23.88888888888889,wmoUnit:degC,92,21,16093.44,wmoUnit:m,,,,,,
Eastland,32.32739258,-98.8325713,28.88888888888889,wmoUnit:degC,63,30,16093.44,wmoUnit:m,SV,A,Severe Thunderstorm Warning,Severe,Immediate,2025-06-03T20:45:00-05:00
Comanche,31.9490639,-98.55841538,30.0,wmoUnit:degC,65,30,16093.44,wmoUnit:m,SV,A,Severe Thunderstorm Watch,Severe,Future,2025-06-03T23:00:00-05:00
King,33.61641863,-100.2558584,32.77777777777778,wmoUnit:degC,45,12,14661.123287475511,wmoUnit:m,,,,,,
Washington,30.2145299,-96.40356575,31.11111111111111,wmoUnit:degC,59,18,16077.34619165045,wmoUnit:m,,,,,,
Webb,27.76102524,-99.33170164,33.888888888888886,wmoUnit:degC,54,10,16093.44,wmoUnit:m,,,,,,
Fayette,29.87683207,-96.91968047,23.333333333333332,wmoUnit:degC,96,14,11265.408,wmoUnit:m,,,,,,
Harrison,32.54814898,-94.37155736,28.88888888888889,wmoUnit:degC,67,10,16093.44,wmoUnit:m,,,,,,
Presidio,29.99977786,-104.2405552,26.11111111111111,wmoUnit:degC,30,0,16093.44,wmoUnit:m,,,,,,
Austin,29.88711223,-96.27791829,31.11111111111111,wmoUnit:degC,61,19,16093.44,wmoUnit:m,,,,,,
Randall,34.96594288,-101.8968527,21.11111111111111,wmoUnit:degC,66,1,,,,,,,,
Hood,32.43107878,-97.83280338,30.0,wmoUnit:degC,65,27,16093.44,wmoUnit:m,SV,A,Severe Thunderstorm Warning,Severe,Immediate,2025-06-03T21:30:00-05:00
Victoria,28.79640594,-96.97176602,31.666666666666668,wmoUnit:degC,65,22,16093.44,wmoUnit:m,,,,,,
Hutchinson,35.84000866,-101.3547257,15.555555555555555,wmoUnit:degC,72,1,,,,,,,,
Coryell,31.39087578,-97.7991883,30.0,wmoUnit:degC,75,23,16093.44,wmoUnit:m,SV,A,Severe Thunderstorm Watch,Severe,Future,2025-06-04T02:00:00-05:00
Jackson,28.95603133,-96.57883268,31.11111111111111,wmoUnit:degC,68,24,16093.44,wmoUnit:m,,,,,,
Taylor,32.30138229,-99.89003941,29.444444444444443,wmoUnit:degC,55,17,16093.44,wmoUnit:m,SV,A,Severe Thunderstorm Watch,Severe,Future,2025-06-03T23:00:00-05:00
Zapata,27.00089072,-99.16860134,35.55555555555556,wmoUnit:degC,46,1,,,,,,,,
San Patricio,28.00922186,-97.51859857,31.666666666666668,wmoUnit:degC,69,19,16093.44,wmoUnit:m,,,,,,
Grimes,30.54360689,-95.98557334,32.22222222222222,wmoUnit:degC,54,6,15980.786411132844,wmoUnit:m,,,,,,
Lamb,34.06861242,-102.3517095,24.444444444444443,wmoUnit:degC,54,6,16093.44,wmoUnit:m,,,,,,
