countyName,latitude,longitude,temperature,temperature_unit,relativeHumidity,precipitationProbability,visibility,visibility_unit,hazard_phenomenon,hazard_significance,alert_event,alert_severity,alert_urgency,alert_expires
Foard,33.97408519,-99.77871109,27.22222222222222,wmoUnit:degC,63,10,,,,,,,,
Blanco,30.26636128,-98.39974086,22.22222222222222,wmoUnit:degC,93,67,11265.408,wmoUnit:m,FA,A,Flood Watch,Severe,Future,2025-06-12T16:15:00-05:00
Hockley,33.60750375,-102.3430919,20.0,wmoUnit:degC,73,1,16093.44,wmoUnit:m,,,,,,
Llano,30.70566579,-98.68387398,21.11111111111111,wmoUnit:degC,100,59,16093.44,wmoUnit:m,FA,A,Flood Watch,Severe,Future,2025-06-12T16:15:00-05:00
Swisher,34.53064989,-101.734951,18.333333333333332,wmoUnit:degC,87,1,16093.44,wmoUnit:m,,,,,,
Titus,33.2160906,-94.96509786,20.555555555555557,wmoUnit:degC,97,22,11265.408,wmoUnit:m,FA,A,Flood Watch,Severe,Future,2025-06-12T19:00:00-05:00
Navarro,32.04695429,-96.47248134,22.22222222222222,wmoUnit:degC,97,55,16093.44,wmoUnit:m,FA,A,Flash Flood Warning,Severe,Immediate,2025-06-12T07:00:00-05:00
Brazoria,29.19345387,-95.45578479,26.666666666666668,wmoUnit:degC,97,0,14838.152109741197,wmoUnit:m,FA,A,Flood Watch,Severe,Future,2025-06-12T14:00:00-05:00
Hidalgo,26.396627,-98.18088681,27.77777777777778,wmoUnit:degC,85,4,,,,,,,,
Archer,33.61539176,-98.68783437,27.22222222222222,wmoUnit:degC,63,33,,,,,,,,
Refugio,28.32681413,-97.16546961,25.555555555555557,wmoUnit:degC,96,27,15562.35660278313,wmoUnit:m,,,,,,
Andrews,32.30506283,-102.6378839,27.22222222222222,wmoUnit:degC,46,0,16093.44,wmoUnit:m,,,,,,
Galveston,29.39424415,-94.96474975,26.11111111111111,wmoUnit:degC,100,0,15353.141698608355,wmoUnit:m,FA,A,Flood Watch,Severe,Future,2025-06-12T14:00:00-05:00
De Witt,29.08201599,-97.35666976,26.11111111111111,wmoUnit:degC,87,28,16093.44,wmoUnit:m,FA,A,Special Weather Statement,Moderate,Expected,2025-06-12T06:30:00-05:00
Gonzales,29.45641495,-97.49279927,26.11111111111111,wmoUnit:degC,85,29,16093.44,wmoUnit:m,FA,A,Special Weather Statement,Moderate,Expected,2025-06-12T06:30:00-05:00
Wharton,29.2778362,-96.22197375,25.0,wmoUnit:degC,94,0,13196.620493041934,wmoUnit:m,FA,A,Flood Watch,Severe,Future,2025-06-12T14:00:00-05:00
Fannin,33.59396919,-96.10656755,20.555555555555557,wmoUnit:degC,97,31,11265.408,wmoUnit:m,FA,A,Flood Watch,Severe,Future,2025-06-12T19:00:00-05:00
Madison,30.96564645,-95.92818441,22.22222222222222,wmoUnit:degC,100,0,13969.106411132843,wmoUnit:m,FA,A,Flood Advisory,Minor,Expected,2025-06-12T09:00:00-05:00
Moore,35.83768863,-101.8929556,21.11111111111111,wmoUnit:degC,76,0,,,,,,,,
Tyler,30.7712607,-94.37651432,22.77777777777778,wmoUnit:degC,100,10,14274.881095825223,wmoUnit:m,,,,,,
Lipscomb,36.27778432,-100.27317,19.444444444444443,wmoUnit:degC,87,0,,,,,,,,
Burleson,30.49246139,-96.62109399,25.0,wmoUnit:degC,90,0,15272.674191650449,wmoUnit:m,FA,A,Flood Advisory,Minor,Expected,2025-06-12T09:00:00-05:00
Jim Hogg,27.04340499,-98.6972921,26.666666666666668,wmoUnit:degC,87,3,,,,,,,,
Throckmorton,33.17753907,-99.21236832,20.555555555555557,wmoUnit:degC,100,18,9656.064,wmoUnit:m,,,,,,
Kleberg,27.43274395,-97.72889778,27.22222222222222,wmoUnit:degC,95,12,15932.504986084026,wmoUnit:m,,,,,,
Shelby,31.79242191,-94.14495261,19.444444444444443,wmoUnit:degC,100,51,11265.408,wmoUnit:m,FA,A,Flood Watch,Severe,Future,2025-06-12T19:00:00-05:00
Garza,33.17991074,-101.2984496,20.555555555555557,wmoUnit:degC,84,5,16093.44,wmoUnit:m,,,,,,
Karnes,28.90493782,-97.85960621,26.11111111111111,wmoUnit:degC,84,29,16093.44,wmoUnit:m,FA,A,Special Weather Statement,Moderate,Expected,2025-06-12T06:30:00-05:00
Reeves,31.32307061,-103.693143,30.0,wmoUnit:degC,36,0,16093.44,wmoUnit:m,,,,,,
Houston,31.31764137,-95.42225367,22.22222222222222,wmoUnit:degC,100,0,11265.408,wmoUnit:m,FA,A,Flood Advisory,Minor,Expected,2025-06-12T09:00:00-05:00
El Paso,31.7686226,-106.2352229,33.333333333333336,wmoUnit:degC,15,2,16045.160109741197,wmoUnit:m,,,,,,
Carson,35.40346802,-101.3542037,20.0,wmoUnit:degC,84,0,,,,,,,,
Medina,29.35520493,-99.11008331,26.11111111111111,wmoUnit:degC,89,48,16093.44,wmoUnit:m,FA,A,Flood Watch,Severe,Future,2025-06-12T16:15:00-05:00
Wichita,33.98421585,-98.70153389,26.11111111111111,wmoUnit:degC,67,22,,,,,,,,
Chambers,29.73912276,-94.60891308,25.0,wmoUnit:degC,100,0,15111.740712524488,wmoUnit:m,,,Flash Flood Warning,Severe,Immediate,2025-06-12T07:30:00-05:00
Donley,34.96540246,-100.8140501,20.555555555555557,wmoUnit:degC,87,0,,,,,,,,
Hopkins,33.14933822,-95.56414173,20.555555555555557,wmoUnit:degC,100,32,11265.408,wmoUnit:m,FA,A,Flood Watch,Severe,Future,2025-06-12T19:00:00-05:00
Lampasas,31.19627791,-98.24142711,21.666666666666668,wmoUnit:degC,100,77,7966.252493041933,wmoUnit:m,FA,A,Flood Watch,Severe,Future,2025-06-12T19:00:00-05:00
Falls,31.25317017,-96.93579511,22.77777777777778,wmoUnit:degC,100,65,9656.064,wmoUnit:m,FA,A,Flash Flood Warning,Severe,Immediate,2025-06-12T06:45:00-05:00
Stephens,32.73584155,-98.83612016,21.11111111111111,wmoUnit:degC,90,55,16093.44,wmoUnit:m,,,,,,
Travis,30.33423319,-97.78194654,26.11111111111111,wmoUnit:degC,80,55,16093.44,wmoUnit:m,FA,A,Flood Watch,Severe,Future,2025-06-12T16:15:00-05:00
Roberts,35.8385577,-100.8135689,20.555555555555557,wmoUnit:degC,81,0,,,,,,,,
Crosby,33.61459873,-101.2998612,19.444444444444443,wmoUnit:degC,90,4,16093.44,wmoUnit:m,,,,,,
Kerr,30.06153035,-99.35016969,21.666666666666668,wmoUnit:degC,86,59,16093.44,wmoUnit:m,FA,A,Flood Watch,Severe,Future,2025-06-12T16:15:00-05:00
Wood,32.78634374,-95.38206498,20.555555555555557,wmoUnit:degC,97,26,11265.408,wmoUnit:m,FA,A,Flood Watch,Severe,Future,2025-06-12T19:00:00-05:00
Jack,33.23345819,-98.1725509,20.555555555555557,wmoUnit:degC,93,57,9656.064,wmoUnit:m,,,,,,
Marion,32.79797929,-94.35725239,20.555555555555557,wmoUnit:degC,100,48,11265.408,wmoUnit:m,FA,A,Flood Watch,Severe,Future,2025-06-12T19:00:00-05:00
Hale,34.07051782,-101.8269082,18.333333333333332,wmoUnit:degC,87,1,16093.44,wmoUnit:m,,,,,,
Jeff Davis,30.71559322,-104.1403539,25.0,wmoUnit:degC,37,0,16093.44,wmoUnit:m,,,,,,
Tarrant,32.77185236,-97.29116473,22.22222222222222,wmoUnit:degC,87,61,9656.064,wmoUnit:m,FA,A,Flood Watch,Severe,Future,2025-06-12T19:00:00-05:00
Waller,30.01093722,-95.98768942,24.444444444444443,wmoUnit:degC,100,0,14194.413588867157,wmoUnit:m,FA,A,Flood Watch,Severe,Future,2025-06-12T14:00:00-05:00
Reagan,31.36617698,-101.5230108,25.0,wmoUnit:degC,60,0,16093.44,wmoUnit:m,,,,,,
Smith,32.37514553,-95.26909511,21.11111111111111,wmoUnit:degC,93,35,11265.408,wmoUnit:m,FA,A,Flood Watch,Severe,Future,2025-06-12T19:00:00-05:00
Van Zandt,32.56368961,-95.8364862,21.11111111111111,wmoUnit:degC,93,38,16093.44,wmoUnit:m,FA,A,Flood Watch,Severe,Future,2025-06-12T19:00:00-05:00
Cooke,33.638465,-97.21247642,20.555555555555557,wmoUnit:degC,90,44,16093.44,wmoUnit:m,,,,,,
Zavala,28.86530621,-99.76102001,25.555555555555557,wmoUnit:degC,89,10,16093.44,wmoUnit:m,,,,,,
Hall,34.53074134,-100.6809876,22.22222222222222,wmoUnit:degC,90,2,16093.44,wmoUnit:m,,,,,,
Kendall,29.9446397,-98.71160511,22.22222222222222,wmoUnit:degC,89,68,16093.44,wmoUnit:m,FA,A,Flood Watch,Severe,Future,2025-06-12T16:15:00-05:00
Goliad,28.65708563,-97.42646082,25.0,wmoUnit:degC,98,40,15031.273205566422,wmoUnit:m,,,,,,
Yoakum,33.17293501,-102.8278792,20.555555555555557,wmoUnit:degC,68,1,16093.44,wmoUnit:m,,,,,,
Knox,33.60614755,-99.74144313,26.11111111111111,wmoUnit:degC,67,18,,,,,,,,
McLennan,31.55234489,-97.20184883,23.333333333333332,wmoUnit:degC,82,72,9656.064,wmoUnit:m,FA,A,Flash Flood Warning,Severe,Immediate,2025-06-12T06:45:00-05:00
Brewster,29.81205836,-103.2518906,32.22222222222222,wmoUnit:degC,30,0,16093.44,wmoUnit:m,,,,,,
Panola,32.16222886,-94.30552858,21.666666666666668,wmoUnit:degC,93,55,11265.408,wmoUnit:m,FA,A,Flood Watch,Severe,Future,2025-06-12T19:00:00-05:00
Bandera,29.74724753,-99.24637282,22.77777777777778,wmoUnit:degC,86,59,16093.44,wmoUnit:m,FA,A,Flood Watch,Severe,Future,2025-06-12T16:15:00-05:00
Parmer,34.53014507,-102.784594,19.444444444444443,wmoUnit:degC,73,2,16093.44,wmoUnit:m,,,,,,
Rockwall,32.89786769,-96.40780584,21.666666666666668,wmoUnit:degC,87,44,14468.002191650448,wmoUnit:m,FA,A,Flood Watch,Severe,Future,2025-06-12T19:00:00-05:00
Trinity,31.0885069,-95.13551682,22.77777777777778,wmoUnit:degC,97,0,12713.817753478954,wmoUnit:m,FA,A,Flood Advisory,Minor,Expected,2025-06-12T09:00:00-05:00
Bosque,31.90050476,-97.63437613,21.666666666666668,wmoUnit:degC,100,72,9656.064,wmoUnit:m,FA,A,Flood Watch,Severe,Future,2025-06-12T19:00:00-05:00
Coke,31.88849293,-100.5298747,21.666666666666668,wmoUnit:degC,81,4,9656.064,wmoUnit:m,,,,,,
Franklin,33.17550691,-95.21841437,20.555555555555557,wmoUnit:degC,97,24,11265.408,wmoUnit:m,FA,A,Flood Watch,Severe,Future,2025-06-12T19:00:00-05:00
Hill,31.99079033,-97.1324142,22.22222222222222,wmoUnit:degC,97,67,9656.064,wmoUnit:m,FA,A,Flash Flood Warning,Severe,Immediate,2025-06-12T07:00:00-05:00
Calhoun,28.48966896,-96.64708119,27.22222222222222,wmoUnit:degC,93,29,15481.889095825225,wmoUnit:m,,,Flood Advisory,Minor,Expected,2025-06-12T06:45:00-05:00
Irion,31.30393203,-100.9824126,21.11111111111111,wmoUnit:degC,84,2,9656.064,wmoUnit:m,,,,,,
Midland,31.86921148,-102.0315032,27.22222222222222,wmoUnit:degC,49,0,16093.44,wmoUnit:m,,,,,,
Brown,31.77432313,-98.99989649,21.11111111111111,wmoUnit:degC,100,54,9656.064,wmoUnit:m,,,,,,
Wilson,29.17315896,-98.08621015,26.666666666666668,wmoUnit:degC,80,28,16093.44,wmoUnit:m,FA,A,Flood Advisory,Minor,Expected,2025-06-12T10:30:00-05:00
Oldham,35.40497586,-102.6029949,20.555555555555557,wmoUnit:degC,76,2,,,,,,,,
Freestone,31.70486443,-96.14918535,21.666666666666668,wmoUnit:degC,97,45,16093.44,wmoUnit:m,FA,A,Flash Flood Warning,Severe,Immediate,2025-06-12T07:30:00-05:00
Sabine,31.34321941,-93.85170439,21.11111111111111,wmoUnit:degC,97,36,11265.408,wmoUnit:m,FA,A,Flood Watch,Severe,Future,2025-06-12T19:00:00-05:00
Deaf Smith,34.96602014,-102.6048162,20.555555555555557,wmoUnit:degC,70,0,,,,,,,,
Angelina,31.25475875,-94.611742,21.666666666666668,wmoUnit:degC,97,40,12746.00460278313,wmoUnit:m,FA,A,Special Weather Statement,Moderate,Expected,2025-06-12T06:30:00-05:00
Kent,33.18284492,-100.7791031,20.0,wmoUnit:degC,93,7,16093.44,wmoUnit:m,,,,,,
Red River,33.62074539,-95.0501886,20.555555555555557,wmoUnit:degC,97,24,11265.408,wmoUnit:m,FA,A,Flood Watch,Severe,Future,2025-06-12T19:00:00-05:00
Kinney,29.35000302,-100.4178441,24.444444444444443,wmoUnit:degC,75,5,16093.44,wmoUnit:m,,,,,,
Denton,33.205574,-97.11681154,22.22222222222222,wmoUnit:degC,93,53,16093.44,wmoUnit:m,FA,A,Flood Watch,Severe,Future,2025-06-12T19:00:00-05:00
Sutton,30.49747152,-100.5382263,22.22222222222222,wmoUnit:degC,81,15,9656.064,wmoUnit:m,,,,,,
Guadalupe,29.58257236,-97.94850308,26.666666666666668,wmoUnit:degC,76,40,16093.44,wmoUnit:m,FA,A,Flood Advisory,Minor,Expected,2025-06-12T10:30:00-05:00
Winkler,31.85008609,-103.0484794,28.88888888888889,wmoUnit:degC,40,0,16093.44,wmoUnit:m,,,,,,
Dimmit,28.42161168,-99.760574,26.666666666666668,wmoUnit:degC,83,21,16093.44,wmoUnit:m,,,,,,
Wise,33.21585061,-97.65444124,20.555555555555557,wmoUnit:degC,97,58,9656.064,wmoUnit:m,,,,,,
Hemphill,35.83750155,-100.2704628,19.444444444444443,wmoUnit:degC,84,0,,,,,,,,
Potter,35.40128927,-101.8940484,21.666666666666668,wmoUnit:degC,76,0,,,,,,,,
Childress,34.52929257,-100.2075664,21.11111111111111,wmoUnit:degC,90,5,16093.44,wmoUnit:m,,,,,,
Willacy,26.47132899,-97.64303323,27.22222222222222,wmoUnit:degC,91,20,,,,,,,,
Bastrop,30.10353518,-97.31187705,25.0,wmoUnit:degC,88,43,16093.44,wmoUnit:m,FA,A,Flood Watch,Severe,Future,2025-06-12T16:15:00-05:00
Kimble,30.48676251,-99.74892716,21.666666666666668,wmoUnit:degC,97,27,9656.064,wmoUnit:m,,,,,,
Scurry,32.74720063,-100.9165071,25.0,wmoUnit:degC,64,0,16093.44,wmoUnit:m,,,,,,
Ochiltree,36.27846334,-100.815653,19.444444444444443,wmoUnit:degC,90,0,,,,,,,,
Hansford,36.27753179,-101.3545624,20.555555555555557,wmoUnit:degC,76,0,,,,,,,,
Hartley,35.83996755,-102.6028835,20.555555555555557,wmoUnit:degC,73,1,,,,,,,,
Cameron,26.13847728,-97.51499968,27.77777777777778,wmoUnit:degC,87,25,,,,,,,,
Matagorda,28.86711039,-95.98533866,27.22222222222222,wmoUnit:degC,94,0,15063.459287475513,wmoUnit:m,FA,A,Flood Watch,Severe,Future,2025-06-12T14:00:00-05:00
Burnet,30.78843382,-98.18252382,22.77777777777778,wmoUnit:degC,95,72,9656.064,wmoUnit:m,FA,A,Flood Watch,Severe,Future,2025-06-12T16:15:00-05:00
Rains,32.87004212,-95.79347545,20.555555555555557,wmoUnit:degC,97,34,14468.002191650448,wmoUnit:m,FA,A,Flood Watch,Severe,Future,2025-06-12T19:00:00-05:00
Hays,30.05782657,-98.03104087,25.0,wmoUnit:degC,88,54,16093.44,wmoUnit:m,FA,A,Flood Advisory,Minor,Expected,2025-06-12T10:00:00-05:00
Mason,30.71742293,-99.2263026,21.666666666666668,wmoUnit:degC,93,49,9656.064,wmoUnit:m,,,,,,
Ward,31.509424,-103.1024636,30.555555555555557,wmoUnit:degC,35,0,16093.44,wmoUnit:m,,,,,,
Delta,33.38623601,-95.67221685,20.555555555555557,wmoUnit:degC,97,31,11265.408,wmoUnit:m,FA,A,Flood Watch,Severe,Future,2025-06-12T19:00:00-05:00
Nueces,27.72621549,-97.61767326,26.666666666666668,wmoUnit:degC,96,17,15288.768,wmoUnit:m,,,,,,
Callahan,32.2977738,-99.37359692,20.0,wmoUnit:degC,100,22,9656.064,wmoUnit:m,,,,,,
Bell,31.03778267,-97.47790776,23.88888888888889,wmoUnit:degC,90,75,9656.064,wmoUnit:m,FA,A,Flash Flood Warning,Severe,Immediate,2025-06-12T06:45:00-05:00
Cherokee,31.83695632,-95.16515234,20.555555555555557,wmoUnit:degC,100,42,11265.408,wmoUnit:m,FA,A,Flood Watch,Severe,Future,2025-06-12T19:00:00-05:00
Ellis,32.34839264,-96.79467417,21.666666666666668,wmoUnit:degC,100,59,9656.064,wmoUnit:m,FA,A,Flood Watch,Severe,Future,2025-06-12T19:00:00-05:00
Lubbock,33.6101944,-101.8205745,20.555555555555557,wmoUnit:degC,78,2,16093.44,wmoUnit:m,,,,,,
Terrell,30.22502597,-102.0764533,30.555555555555557,wmoUnit:degC,36,0,16093.44,wmoUnit:m,,,,,,
Crockett,30.72291931,-101.4118364,22.22222222222222,wmoUnit:degC,76,2,16093.44,wmoUnit:m,,,,,,
Atascosa,28.89418432,-98.52741302,27.22222222222222,wmoUnit:degC,77,27,16093.44,wmoUnit:m,,,Flood Advisory,Minor,Expected,2025-06-12T10:30:00-05:00
Ector,31.86908156,-102.5430907,28.88888888888889,wmoUnit:degC,40,0,16093.44,wmoUnit:m,,,,,,
Brazos,30.6610425,-96.3022943,23.88888888888889,wmoUnit:degC,97,0,15015.179397216869,wmoUnit:m,FA,A,Flood Advisory,Minor,Expected,2025-06-12T09:00:00-05:00
Aransas,28.12709562,-96.99258951,27.77777777777778,wmoUnit:degC,91,21,15723.291616699264,wmoUnit:m,,,,,,
Dallas,32.76653746,-96.77781862,21.666666666666668,wmoUnit:degC,97,54,16093.44,wmoUnit:m,FA,A,Flood Watch,Severe,Future,2025-06-12T19:00:00-05:00
Howard,32.30610232,-101.4355097,27.77777777777778,wmoUnit:degC,49,0,16093.44,wmoUnit:m,,,,,,
Motley,34.07409017,-100.7798961,20.0,wmoUnit:degC,97,4,16093.44,wmoUnit:m,,,,,,
San Augustine,31.39427005,-94.16809762,20.0,wmoUnit:degC,97,46,11265.408,wmoUnit:m,FA,A,Flood Watch,Severe,Future,2025-06-12T19:00:00-05:00
Maverick,28.74260943,-100.3144638,26.11111111111111,wmoUnit:degC,91,4,16093.44,wmoUnit:m,,,,,,
Erath,32.23640361,-98.21722756,20.555555555555557,wmoUnit:degC,93,65,9656.064,wmoUnit:m,FA,A,Flood Watch,Severe,Future,2025-06-12T19:00:00-05:00
Dickens,33.61663428,-100.7788138,20.0,wmoUnit:degC,97,6,16093.44,wmoUnit:m,,,,,,
Caldwell,29.83677935,-97.61983479,25.555555555555557,wmoUnit:degC,84,44,16093.44,wmoUnit:m,FA,A,Flood Advisory,Minor,Expected,2025-06-12T10:30:00-05:00
Dawson,32.74258137,-101.9476136,26.11111111111111,wmoUnit:degC,52,0,16093.44,wmoUnit:m,,,,,,
Camp,32.97321771,-94.97860185,20.555555555555557,wmoUnit:degC,97,30,11265.408,wmoUnit:m,FA,A,Flood Watch,Severe,Future,2025-06-12T19:00:00-05:00
Duval,27.68133382,-98.50889672,25.0,wmoUnit:degC,96,30,15787.665315307619,wmoUnit:m,,,,,,
Hunt,33.123531,-96.08550014,21.11111111111111,wmoUnit:degC,97,34,12794.284493041932,wmoUnit:m,FA,A,Flood Watch,Severe,Future,2025-06-12T19:00:00-05:00
Mills,31.49524259,-98.59552736,21.666666666666668,wmoUnit:degC,93,77,9656.064,wmoUnit:m,FA,A,Flood Watch,Severe,Future,2025-06-12T19:00:00-05:00
Val Verde,29.89300587,-101.15171,25.0,wmoUnit:degC,73,2,16093.44,wmoUnit:m,,,,,,
Pecos,30.78100044,-102.7235743,28.333333333333332,wmoUnit:degC,40,0,16093.44,wmoUnit:m,,,,,,
Baylor,33.61648147,-99.21351964,25.555555555555557,wmoUnit:degC,71,27,,,,,,,,
Gregg,32.48036452,-94.81723694,21.11111111111111,wmoUnit:degC,93,49,14548.469698608355,wmoUnit:m,FA,A,Flood Watch,Severe,Future,2025-06-12T19:00:00-05:00
Cochran,33.60410808,-102.8285264,21.11111111111111,wmoUnit:degC,66,2,16093.44,wmoUnit:m,,,,,,
Jasper,30.74391255,-94.02495849,23.333333333333332,wmoUnit:degC,100,9,13019.593205566422,wmoUnit:m,,,,,,
Hamilton,31.70479181,-98.11066654,21.666666666666668,wmoUnit:degC,100,76,9656.064,wmoUnit:m,FA,A,Flood Watch,Severe,Future,2025-06-12T19:00:00-05:00
Castro,34.53000304,-102.2617608,18.88888888888889,wmoUnit:degC,78,1,16093.44,wmoUnit:m,,,,,,
Sterling,31.82786516,-101.0500699,21.666666666666668,wmoUnit:degC,81,4,9656.064,wmoUnit:m,,,,,,
Starr,26.56212627,-98.73834895,26.666666666666668,wmoUnit:degC,87,4,,,,,,,,
Crane,31.42846287,-102.5156425,28.333333333333332,wmoUnit:degC,46,0,16093.44,wmoUnit:m,,,,,,
Morris,33.11368507,-94.73205137,20.555555555555557,wmoUnit:degC,97,32,11265.408,wmoUnit:m,FA,A,Flood Watch,Severe,Future,2025-06-12T19:00:00-05:00
Briscoe,34.53041048,-101.2085769,17.77777777777778,wmoUnit:degC,97,1,16093.44,wmoUnit:m,,,,,,
Tom Green,31.4044442,-100.4620678,21.666666666666668,wmoUnit:degC,93,4,9656.064,wmoUnit:m,,,,,,
Menard,30.88981785,-99.82061472,20.555555555555557,wmoUnit:degC,97,21,9656.064,wmoUnit:m,,,,,,
Parker,32.77852261,-97.80472194,20.555555555555557,wmoUnit:degC,93,64,9656.064,wmoUnit:m,FA,A,Flood Watch,Severe,Future,2025-06-12T19:00:00-05:00
Walker,30.73899492,-95.57224172,23.333333333333332,wmoUnit:degC,93,0,15015.179397216869,wmoUnit:m,FA,A,Flood Advisory,Minor,Expected,2025-06-12T09:00:00-05:00
Brooks,27.0315669,-98.21874127,26.666666666666668,wmoUnit:degC,89,5,,,,,,,,
La Salle,28.34621032,-99.1034773,27.77777777777778,wmoUnit:degC,79,42,15900.318904174776,wmoUnit:m,,,,,,
Edwards,29.98248216,-100.3048937,22.22222222222222,wmoUnit:degC,79,35,16093.44,wmoUnit:m,,,,,,
Lee,30.31065065,-96.96568735,24.444444444444443,wmoUnit:degC,87,34,16093.44,wmoUnit:m,FA,A,Flood Watch,Severe,Future,2025-06-12T16:15:00-05:00
Robertson,31.02705415,-96.51272568,22.77777777777778,wmoUnit:degC,97,49,16093.44,wmoUnit:m,FA,A,Flood Watch,Severe,Future,2025-06-12T19:00:00-05:00
Young,33.17670764,-98.68781396,21.11111111111111,wmoUnit:degC,90,50,16093.44,wmoUnit:m,,,,,,
Bee,28.41736675,-97.74116811,25.0,wmoUnit:degC,98,38,14870.338191650448,wmoUnit:m,,,,,,
Clay,33.78379717,-98.208958,26.11111111111111,wmoUnit:degC,72,32,,,,,,,,
San Jacinto,30.57948905,-95.16683273,22.77777777777778,wmoUnit:degC,93,0,14677.217095825225,wmoUnit:m,,,,,,
Uvalde,29.35669829,-99.76203107,23.88888888888889,wmoUnit:degC,85,13,16093.44,wmoUnit:m,,,,,,
Haskell,33.17824805,-99.73029401,20.0,wmoUnit:degC,100,9,11265.408,wmoUnit:m,,,,,,
Somervell,32.22229511,-97.77456553,21.666666666666668,wmoUnit:degC,100,67,9656.064,wmoUnit:m,FA,A,Flood Watch,Severe,Future,2025-06-12T19:00:00-05:00
Bexar,29.44884523,-98.51966309,27.77777777777778,wmoUnit:degC,76,61,16093.44,wmoUnit:m,FA,A,Flood Advisory,Minor,Expected,2025-06-12T10:30:00-05:00
Grayson,33.62684371,-96.67764864,20.555555555555557,wmoUnit:degC,93,37,14468.002191650448,wmoUnit:m,FA,A,Flood Watch,Severe,Future,2025-06-12T19:00:00-05:00
Bailey,34.0684915,-102.8299069,21.11111111111111,wmoUnit:degC,66,2,16093.44,wmoUnit:m,,,,,,
Jones,32.73970429,-99.87850599,21.11111111111111,wmoUnit:degC,90,7,9656.064,wmoUnit:m,,,,,,
Jefferson,29.88425832,-94.1708778,25.0,wmoUnit:degC,94,24,15095.646904174775,wmoUnit:m,,,,,,
Rusk,32.10803224,-94.76169577,21.666666666666668,wmoUnit:degC,90,50,14548.469698608355,wmoUnit:m,FA,A,Flood Watch,Severe,Future,2025-06-12T19:00:00-05:00
Glasscock,31.8694238,-101.520742,26.11111111111111,wmoUnit:degC,58,0,16093.44,wmoUnit:m,,,,,,
Gillespie,30.31800246,-98.94627245,19.444444444444443,wmoUnit:degC,99,67,16093.44,wmoUnit:m,FA,A,Flood Watch,Severe,Future,2025-06-12T16:15:00-05:00
Fisher,32.74305155,-100.4019503,21.11111111111111,wmoUnit:degC,87,6,9656.064,wmoUnit:m,,,,,,
Henderson,32.21188078,-95.85356847,22.22222222222222,wmoUnit:degC,87,40,16093.44,wmoUnit:m,FA,A,Flood Watch,Severe,Future,2025-06-12T19:00:00-05:00
Shackelford,32.7360276,-99.35403034,20.555555555555557,wmoUnit:degC,100,17,9656.064,wmoUnit:m,,,,,,
Palo Pinto,32.75316856,-98.31299522,21.11111111111111,wmoUnit:degC,97,64,9656.064,wmoUnit:m,,,,,,
Wilbarger,34.08044953,-99.24089568,27.22222222222222,wmoUnit:degC,60,17,,,,,,,,
Floyd,34.07239775,-101.3033037,18.88888888888889,wmoUnit:degC,93,2,16093.44,wmoUnit:m,,,,,,
Orange,30.12807126,-93.89653794,25.0,wmoUnit:degC,90,22,15819.85139721687,wmoUnit:m,,,,,,
Runnels,31.83105393,-99.97624799,21.11111111111111,wmoUnit:degC,90,8,9656.064,wmoUnit:m,,,,,,
Coleman,31.77329421,-99.45362579,21.11111111111111,wmoUnit:degC,93,22,9656.064,wmoUnit:m,,,,,,
Martin,32.30605847,-101.9512464,27.22222222222222,wmoUnit:degC,49,0,16093.44,wmoUnit:m,,,,,,
Wheeler,35.40129002,-100.2697634,19.444444444444443,wmoUnit:degC,78,0,,,,,,,,
Culberson,31.44709817,-104.5177421,27.77777777777778,wmoUnit:degC,33,0,16093.44,wmoUnit:m,,,,,,
Mitchell,32.30636024,-100.9211128,28.333333333333332,wmoUnit:degC,57,0,16093.44,wmoUnit:m,,,,,,
Hudspeth,31.45613738,-105.3869428,30.0,wmoUnit:degC,22,4,16012.972493041932,wmoUnit:m,,,,,,
Upshur,32.7362827,-94.94132011,20.555555555555557,wmoUnit:degC,97,39,11265.408,wmoUnit:m,FA,A,Flood Watch,Severe,Future,2025-06-12T19:00:00-05:00
Liberty,30.15153187,-94.8120925,23.333333333333332,wmoUnit:degC,97,0,14113.947616699264,wmoUnit:m,,,Flash Flood Warning,Severe,Immediate,2025-06-12T07:30:00-05:00
Williamson,30.64834941,-97.60105467,24.444444444444443,wmoUnit:degC,87,60,11265.408,wmoUnit:m,FA,A,Flood Watch,Severe,Future,2025-06-12T16:15:00-05:00
Nacogdoches,31.61604108,-94.6158776,21.11111111111111,wmoUnit:degC,100,43,12746.00460278313,wmoUnit:m,FA,A,Flood Watch,Severe,Future,2025-06-12T19:00:00-05:00
Loving,31.84912973,-103.5799063,27.77777777777778,wmoUnit:degC,49,0,16093.44,wmoUnit:m,,,,,,
Jim Wells,27.73131099,-98.0898649,25.555555555555557,wmoUnit:degC,100,25,15707.197808349552,wmoUnit:m,,,,,,
Upton,31.36853957,-102.0430005,25.0,wmoUnit:degC,67,0,16093.44,wmoUnit:m,,,,,,
Newton,30.78619977,-93.74462993,22.77777777777778,wmoUnit:degC,100,8,13647.236383300737,wmoUnit:m,,,,,,
Lamar,33.66746186,-95.57110784,20.555555555555557,wmoUnit:degC,97,33,11265.408,wmoUnit:m,FA,A,Flood Watch,Severe,Future,2025-06-12T19:00:00-05:00
Polk,30.79250963,-94.82994949,23.333333333333332,wmoUnit:degC,93,0,14130.039890258802,wmoUnit:m,,,Flood Warning,Severe,Immediate,2025-06-12T20:15:00-05:00
Collin,33.18789055,-96.57248871,21.666666666666668,wmoUnit:degC,90,41,16093.44,wmoUnit:m,FA,A,Flood Watch,Severe,Future,2025-06-12T19:00:00-05:00
Hardeman,34.28865227,-99.7453851,27.22222222222222,wmoUnit:degC,60,7,,,,,,,,
McMullen,28.35351091,-98.56842256,26.11111111111111,wmoUnit:degC,91,45,15546.262794433578,wmoUnit:m,,,,,,
Cottle,34.0776571,-100.2786983,21.11111111111111,wmoUnit:degC,90,7,16093.44,wmoUnit:m,,,,,,
Frio,28.86726774,-99.10826004,27.22222222222222,wmoUnit:degC,81,36,16093.44,wmoUnit:m,,,,,,
Gray,35.40130666,-100.812475,20.0,wmoUnit:degC,84,0,,,,,,,,
Dallam,36.27777107,-102.6021647,20.0,wmoUnit:degC,73,4,,,,,,,,
Kenedy,26.92409448,-97.68137783,26.666666666666668,wmoUnit:degC,93,21,,,,,,,,
Fort Bend,29.52763253,-95.77090562,26.11111111111111,wmoUnit:degC,94,0,11603.370301391646,wmoUnit:m,FA,A,Flood Watch,Severe,Future,2025-06-12T14:00:00-05:00
Armstrong,34.96522076,-101.3572412,20.555555555555557,wmoUnit:degC,84,0,,,,,,,,
Collingsworth,34.96498493,-100.2700733,21.666666666666668,wmoUnit:degC,79,0,,,,,,,,
Cass,33.07750446,-94.34348771,20.555555555555557,wmoUnit:degC,97,40,11265.408,wmoUnit:m,FA,A,Flood Watch,Severe,Future,2025-06-12T19:00:00-05:00
Sherman,36.27765824,-101.8933822,20.555555555555557,wmoUnit:degC,68,2,,,,,,,,
Terry,33.17373729,-102.335157,20.0,wmoUnit:degC,84,1,16093.44,wmoUnit:m,,,,,,
Limestone,31.54541898,-96.58056718,22.22222222222222,wmoUnit:degC,100,56,9656.064,wmoUnit:m,FA,A,Flash Flood Warning,Severe,Immediate,2025-06-12T07:00:00-05:00
Real,29.83182711,-99.82215881,22.77777777777778,wmoUnit:degC,79,47,16093.44,wmoUnit:m,,,,,,
Lynn,33.17685487,-101.8160235,20.0,wmoUnit:degC,87,2,16093.44,wmoUnit:m,,,,,,
Lavaca,29.38437003,-96.93020993,25.555555555555557,wmoUnit:degC,92,28,16093.44,wmoUnit:m,FA,A,Special Weather Statement,Moderate,Expected,2025-06-12T06:30:00-05:00
Nolan,32.3034718,-100.4060989,20.0,wmoUnit:degC,84,6,11265.408,wmoUnit:m,,,,,,
Gaines,32.74074537,-102.6351246,26.666666666666668,wmoUnit:degC,45,0,16093.44,wmoUnit:m,,,,,,
Montgomery,30.30022409,-95.50301411,23.333333333333332,wmoUnit:degC,97,0,12906.939616699265,wmoUnit:m,FA,A,Flood Advisory,Minor,Expected,2025-06-12T09:00:00-05:00
Concho,31.32645211,-99.86413426,20.555555555555557,wmoUnit:degC,100,13,9656.064,wmoUnit:m,,,,,,
Hardin,30.33238431,-94.39021394,24.444444444444443,wmoUnit:degC,94,8,14226.601205566421,wmoUnit:m,,,,,,
Harris,29.85967144,-95.39782106,24.444444444444443,wmoUnit:degC,94,0,14564.563506958068,wmoUnit:m,FA,A,Flood Watch,Severe,Future,2025-06-12T14:00:00-05:00
Leon,31.29655719,-95.99554292,22.22222222222222,wmoUnit:degC,97,35,14468.002191650448,wmoUnit:m,FA,A,Flash Flood Warning,Severe,Immediate,2025-06-12T08:45:00-05:00
Bowie,33.44572786,-94.42324298,21.11111111111111,wmoUnit:degC,100,28,11265.408,wmoUnit:m,FA,A,Flood Watch,Severe,Future,2025-06-12T19:00:00-05:00
Kaufman,32.59927808,-96.28779341,21.666666666666668,wmoUnit:degC,93,48,16093.44,wmoUnit:m,FA,A,Flood Watch,Severe,Future,2025-06-12T19:00:00-05:00
Anderson,31.81321543,-95.65251774,21.11111111111111,wmoUnit:degC,100,36,16093.44,wmoUnit:m,FA,A,Flash Flood Warning,Severe,Immediate,2025-06-12T07:30:00-05:00
San Saba,31.15520543,-98.81754295,21.666666666666668,wmoUnit:degC,93,59,9656.064,wmoUnit:m,,,,,,
Schleicher,30.89661056,-100.538097,21.11111111111111,wmoUnit:degC,84,8,9656.064,wmoUnit:m,,,,,,
Colorado,29.6208542,-96.52630821,25.0,wmoUnit:degC,94,7,11265.408,wmoUnit:m,FA,A,Flood Watch,Severe,Future,2025-06-12T14:00:00-05:00
Milam,30.78625299,-96.97683495,23.88888888888889,wmoUnit:degC,94,61,9656.064,wmoUnit:m,FA,A,Flash Flood Warning,Severe,Immediate,2025-06-12T06:45:00-05:00
Live Oak,28.3514375,-98.12474493,25.555555555555557,wmoUnit:degC,96,43,15369.235506958066,wmoUnit:m,,,,,,
Borden,32.7436916,-101.4317533,26.11111111111111,wmoUnit:degC,54,0,16093.44,wmoUnit:m,,,,,,
McCulloch,31.19896752,-99.34754972,20.555555555555557,wmoUnit:degC,100,35,9656.064,wmoUnit:m,,,,,,
Johnson,32.37899918,-97.36660504,21.666666666666668,wmoUnit:degC,100,64,9656.064,wmoUnit:m,FA,A,Flood Watch,Severe,Future,2025-06-12T19:00:00-05:00
Montague,33.67496328,-97.72466993,20.555555555555557,wmoUnit:degC,90,43,16093.44,wmoUnit:m,,,,,,
Stonewall,33.17842158,-100.255259,20.555555555555557,wmoUnit:degC,93,8,16093.44,wmoUnit:m,,,,,,
Comal,29.80816362,-98.27814516,25.555555555555557,wmoUnit:degC,84,62,16093.44,wmoUnit:m,FA,A,Flood Advisory,Minor,Expected,2025-06-12T10:00:00-05:00
Eastland,32.32739258,-98.8325713,20.555555555555557,wmoUnit:degC,90,58,9656.064,wmoUnit:m,,,,,,
Comanche,31.9490639,-98.55841538,21.11111111111111,wmoUnit:degC,87,66,9656.064,wmoUnit:m,FA,A,Flood Watch,Severe,Future,2025-06-12T19:00:00-05:00
King,33.61641863,-100.2558584,21.11111111111111,wmoUnit:degC,93,8,16093.44,wmoUnit:m,,,,,,
Washington,30.2145299,-96.40356575,23.88888888888889,wmoUnit:degC,90,10,13132.246794433579,wmoUnit:m,FA,A,Flood Watch,Severe,Future,2025-06-12T14:00:00-05:00
Webb,27.76102524,-99.33170164,27.22222222222222,wmoUnit:degC,77,23,16045.160109741197,wmoUnit:m,,,,,,
Fayette,29.87683207,-96.91968047,25.0,wmoUnit:degC,90,28,16093.44,wmoUnit:m,FA,A,Flood Advisory,Minor,Expected,2025-06-12T10:30:00-05:00
Harrison,32.54814898,-94.37155736,20.555555555555557,wmoUnit:degC,100,55,11265.408,wmoUnit:m,FA,A,Flood Watch,Severe,Future,2025-06-12T19:00:00-05:00
Presidio,29.99977786,-104.2405552,30.555555555555557,wmoUnit:degC,20,0,16093.44,wmoUnit:m,,,,,,
Austin,29.88711223,-96.27791829,24.444444444444443,wmoUnit:degC,97,16,11265.408,wmoUnit:m,FA,A,Flood Watch,Severe,Future,2025-06-12T14:00:00-05:00
Randall,34.96594288,-101.8968527,20.555555555555557,wmoUnit:degC,84,0,,,,,,,,
Hood,32.43107878,-97.83280338,21.666666666666668,wmoUnit:degC,97,65,9656.064,wmoUnit:m,FA,A,Flood Watch,Severe,Future,2025-06-12T19:00:00-05:00
Victoria,28.79640594,-96.97176602,26.11111111111111,wmoUnit:degC,94,34,15578.450411132842,wmoUnit:m,,,Flood Advisory,Minor,Expected,2025-06-12T08:30:00-05:00
Hutchinson,35.84000866,-101.3547257,21.11111111111111,wmoUnit:degC,78,0,,,,,,,,
Coryell,31.39087578,-97.7991883,23.333333333333332,wmoUnit:degC,93,77,9656.064,wmoUnit:m,FA,A,Flood Watch,Severe,Future,2025-06-12T19:00:00-05:00
Jackson,28.95603133,-96.57883268,26.666666666666668,wmoUnit:degC,91,42,14918.619616699263,wmoUnit:m,FA,A,Flood Watch,Severe,Future,2025-06-12T14:00:00-05:00
Taylor,32.30138229,-99.89003941,20.0,wmoUnit:degC,90,8,9656.064,wmoUnit:m,,,,,,
Zapata,27.00089072,-99.16860134,26.666666666666668,wmoUnit:degC,83,4,,,,,,,,
San Patricio,28.00922186,-97.51859857,26.666666666666668,wmoUnit:degC,98,25,15047.367013915973,wmoUnit:m,,,,,,
Grimes,30.54360689,-95.98557334,23.333333333333332,wmoUnit:degC,97,0,14822.058301391646,wmoUnit:m,FA,A,Flood Advisory,Minor,Expected,2025-06-12T09:00:00-05:00
Lamb,34.06861242,-102.3517095,19.444444444444443,wmoUnit:degC,78,1,16093.44,wmoUnit:m,,,,,,
