countyName,latitude,longitude,temperature,temperature_unit,relativeHumidity,precipitationProbability,visibility,visibility_unit,hazard_phenomenon,hazard_significance,alert_event,alert_severity,alert_urgency,alert_expires
Foard,33.97408519,-99.77871109,27.77777777777778,wmoUnit:degC,67,14,,,FA,A,,,,
Blanco,30.26636128,-98.39974086,24.444444444444443,wmoUnit:degC,94,1,16093.44,wmoUnit:m,,,Special Weather Statement,Moderate,Expected,2025-06-15T14:45:00-05:00
Hockley,33.60750375,-102.3430919,22.77777777777778,wmoUnit:degC,79,0,11265.408,wmoUnit:m,,,,,,
Llano,30.70566579,-98.68387398,24.444444444444443,wmoUnit:degC,90,0,16093.44,wmoUnit:m,,,Special Weather Statement,Moderate,Expected,2025-06-15T14:45:00-05:00
Swisher,34.53064989,-101.734951,23.88888888888889,wmoUnit:degC,76,1,16093.44,wmoUnit:m,,,,,,
Titus,33.2160906,-94.96509786,22.22222222222222,wmoUnit:degC,100,22,14548.469698608355,wmoUnit:m,,,Flood Warning,Severe,Immediate,2025-06-16T11:45:00-05:00
Navarro,32.04695429,-96.47248134,23.88888888888889,wmoUnit:degC,100,0,16093.44,wmoUnit:m,,,Flood Warning,Severe,Immediate,2025-06-16T07:45:00-05:00
Brazoria,29.19345387,-95.45578479,25.0,wmoUnit:degC,100,22,6437.376,wmoUnit:m,,,Flood Warning,Severe,Immediate,2025-06-16T07:00:00-05:00
Hidalgo,26.396627,-98.18088681,27.77777777777778,wmoUnit:degC,90,0,,,,,,,,
Archer,33.61539176,-98.68783437,26.666666666666668,wmoUnit:degC,79,15,,,FA,A,,,,
Refugio,28.32681413,-97.16546961,27.77777777777778,wmoUnit:degC,94,12,13164.434411132843,wmoUnit:m,,,Flood Warning,Severe,Immediate,2025-06-16T00:00:00-05:00
Andrews,32.30506283,-102.6378839,21.666666666666668,wmoUnit:degC,87,0,15884.225095825224,wmoUnit:m,,,,,,
Galveston,29.39424415,-94.96474975,26.11111111111111,wmoUnit:degC,91,23,11667.744,wmoUnit:m,,,,,,
De Witt,29.08201599,-97.35666976,26.11111111111111,wmoUnit:degC,94,8,11265.408,wmoUnit:m,,,,,,
Gonzales,29.45641495,-97.49279927,26.11111111111111,wmoUnit:degC,97,10,11265.408,wmoUnit:m,,,,,,
Wharton,29.2778362,-96.22197375,24.444444444444443,wmoUnit:degC,100,14,6373.002301391645,wmoUnit:m,,,Flood Warning,Severe,Immediate,2025-06-16T08:00:00-05:00
Fannin,33.59396919,-96.10656755,23.88888888888889,wmoUnit:degC,90,10,16093.44,wmoUnit:m,,,,,,
Madison,30.96564645,-95.92818441,23.333333333333332,wmoUnit:degC,100,6,11265.408,wmoUnit:m,,,Flood Warning,Severe,Immediate,2025-06-16T08:00:00-05:00
Moore,35.83768863,-101.8929556,19.444444444444443,wmoUnit:degC,75,16,,,,,,,,
Tyler,30.7712607,-94.37651432,23.333333333333332,wmoUnit:degC,97,3,5874.105753478953,wmoUnit:m,,,,,,
Lipscomb,36.27778432,-100.27317,20.0,wmoUnit:degC,92,39,,,,,,,,
Burleson,30.49246139,-96.62109399,24.444444444444443,wmoUnit:degC,100,2,11265.408,wmoUnit:m,,,,,,
Jim Hogg,27.04340499,-98.6972921,26.666666666666668,wmoUnit:degC,91,0,,,,,,,,
Throckmorton,33.17753907,-99.21236832,23.333333333333332,wmoUnit:degC,90,12,16093.44,wmoUnit:m,,,,,,
Kleberg,27.43274395,-97.72889778,27.77777777777778,wmoUnit:degC,94,11,14274.881095825223,wmoUnit:m,,,,,,
Shelby,31.79242191,-94.14495261,22.22222222222222,wmoUnit:degC,93,9,11265.408,wmoUnit:m,,,,,,
Garza,33.17991074,-101.2984496,25.0,wmoUnit:degC,79,0,15369.235506958066,wmoUnit:m,,,,,,
Karnes,28.90493782,-97.85960621,26.11111111111111,wmoUnit:degC,91,10,11265.408,wmoUnit:m,,,,,,
Reeves,31.32307061,-103.693143,22.22222222222222,wmoUnit:degC,71,0,16093.44,wmoUnit:m,,,,,,
Houston,31.31764137,-95.42225367,23.88888888888889,wmoUnit:degC,100,9,8095.000657653729,wmoUnit:m,,,Flood Warning,Severe,Immediate,2025-06-16T08:00:00-05:00
El Paso,31.7686226,-106.2352229,24.444444444444443,wmoUnit:degC,32,0,16093.44,wmoUnit:m,HT,Y,Heat Advisory,Moderate,Expected,2025-06-16T08:00:00-06:00
Carson,35.40346802,-101.3542037,20.555555555555557,wmoUnit:degC,79,19,,,,,,,,
Medina,29.35520493,-99.11008331,25.0,wmoUnit:degC,97,2,16093.44,wmoUnit:m,,,,,,
Wichita,33.98421585,-98.70153389,26.11111111111111,wmoUnit:degC,79,17,,,FA,A,,,,
Chambers,29.73912276,-94.60891308,25.0,wmoUnit:degC,100,23,11265.408,wmoUnit:m,,,Flood Warning,Severe,Immediate,2025-06-16T08:00:00-05:00
Donley,34.96540246,-100.8140501,20.555555555555557,wmoUnit:degC,87,23,,,,,,,,
Hopkins,33.14933822,-95.56414173,22.77777777777778,wmoUnit:degC,100,0,16093.44,wmoUnit:m,,,,,,
Lampasas,31.19627791,-98.24142711,23.333333333333332,wmoUnit:degC,100,0,16093.44,wmoUnit:m,,,,,,
Falls,31.25317017,-96.93579511,24.444444444444443,wmoUnit:degC,100,0,16093.44,wmoUnit:m,,,Special Weather Statement,Moderate,Expected,2025-06-15T14:30:00-05:00
Stephens,32.73584155,-98.83612016,25.0,wmoUnit:degC,85,0,16093.44,wmoUnit:m,,,Flood Advisory,Minor,Expected,2025-06-15T14:30:00-05:00
Travis,30.33423319,-97.78194654,26.11111111111111,wmoUnit:degC,91,3,14564.563506958068,wmoUnit:m,,,Special Weather Statement,Moderate,Expected,2025-06-15T14:45:00-05:00
Roberts,35.8385577,-100.8135689,21.11111111111111,wmoUnit:degC,85,38,,,,,,,,
Crosby,33.61459873,-101.2998612,23.333333333333332,wmoUnit:degC,84,1,15530.168986084027,wmoUnit:m,,,,,,
Kerr,30.06153035,-99.35016969,23.88888888888889,wmoUnit:degC,87,1,16093.44,wmoUnit:m,,,,,,
Wood,32.78634374,-95.38206498,23.333333333333332,wmoUnit:degC,93,8,16093.44,wmoUnit:m,,,Flood Warning,Severe,Immediate,2025-06-16T11:30:00-05:00
Jack,33.23345819,-98.1725509,25.0,wmoUnit:degC,85,1,16093.44,wmoUnit:m,,,,,,
Marion,32.79797929,-94.35725239,22.77777777777778,wmoUnit:degC,97,18,16093.44,wmoUnit:m,,,Flood Warning,Severe,Immediate,2025-06-16T11:30:00-05:00
Hale,34.07051782,-101.8269082,22.22222222222222,wmoUnit:degC,87,1,15369.235506958066,wmoUnit:m,,,,,,
Jeff Davis,30.71559322,-104.1403539,18.333333333333332,wmoUnit:degC,63,0,16093.44,wmoUnit:m,,,,,,
Tarrant,32.77185236,-97.29116473,22.77777777777778,wmoUnit:degC,93,0,16093.44,wmoUnit:m,,,,,,
Waller,30.01093722,-95.98768942,25.555555555555557,wmoUnit:degC,100,10,5986.759726043654,wmoUnit:m,,,Special Weather Statement,Moderate,Expected,2025-06-15T14:15:00-05:00
Reagan,31.36617698,-101.5230108,22.77777777777778,wmoUnit:degC,87,0,15964.69260278313,wmoUnit:m,,,,,,
Smith,32.37514553,-95.26909511,23.88888888888889,wmoUnit:degC,94,8,16093.44,wmoUnit:m,,,Flood Warning,Severe,Immediate,2025-06-16T11:30:00-05:00
Van Zandt,32.56368961,-95.8364862,23.88888888888889,wmoUnit:degC,87,0,16093.44,wmoUnit:m,,,,,,
Cooke,33.638465,-97.21247642,24.444444444444443,wmoUnit:degC,87,18,16093.44,wmoUnit:m,,,,,,
Zavala,28.86530621,-99.76102001,26.11111111111111,wmoUnit:degC,97,2,16093.44,wmoUnit:m,,,,,,
Hall,34.53074134,-100.6809876,22.77777777777778,wmoUnit:degC,84,26,12971.313315307618,wmoUnit:m,,,,,,
Kendall,29.9446397,-98.71160511,24.444444444444443,wmoUnit:degC,94,1,16093.44,wmoUnit:m,,,,,,
Goliad,28.65708563,-97.42646082,26.11111111111111,wmoUnit:degC,97,8,10879.165808349551,wmoUnit:m,,,,,,
Yoakum,33.17293501,-102.8278792,22.77777777777778,wmoUnit:degC,79,0,14612.84339721687,wmoUnit:m,,,,,,
Knox,33.60614755,-99.74144313,27.77777777777778,wmoUnit:degC,69,13,,,FA,A,,,,
McLennan,31.55234489,-97.20184883,23.88888888888889,wmoUnit:degC,100,0,16093.44,wmoUnit:m,,,Special Weather Statement,Moderate,Expected,2025-06-15T14:30:00-05:00
Brewster,29.81205836,-103.2518906,22.22222222222222,wmoUnit:degC,71,0,16093.44,wmoUnit:m,,,,,,
Panola,32.16222886,-94.30552858,22.22222222222222,wmoUnit:degC,97,7,16093.44,wmoUnit:m,,,,,,
Bandera,29.74724753,-99.24637282,24.444444444444443,wmoUnit:degC,90,2,14564.563506958068,wmoUnit:m,,,,,,
Parmer,34.53014507,-102.784594,21.666666666666668,wmoUnit:degC,79,0,15771.571506958067,wmoUnit:m,,,,,,
Rockwall,32.89786769,-96.40780584,23.88888888888889,wmoUnit:degC,87,0,16093.44,wmoUnit:m,,,,,,
Trinity,31.0885069,-95.13551682,24.444444444444443,wmoUnit:degC,100,9,9479.0359451294,wmoUnit:m,,,Flood Warning,Severe,Immediate,2025-06-16T08:00:00-05:00
Bosque,31.90050476,-97.63437613,22.77777777777778,wmoUnit:degC,100,0,16093.44,wmoUnit:m,,,,,,
Coke,31.88849293,-100.5298747,25.0,wmoUnit:degC,76,1,16093.44,wmoUnit:m,,,,,,
Franklin,33.17550691,-95.21841437,22.22222222222222,wmoUnit:degC,100,12,16093.44,wmoUnit:m,,,Flood Warning,Severe,Immediate,2025-06-16T11:45:00-05:00
Hill,31.99079033,-97.1324142,23.333333333333332,wmoUnit:degC,100,0,16093.44,wmoUnit:m,,,,,,
Calhoun,28.48966896,-96.64708119,28.333333333333332,wmoUnit:degC,94,15,12697.7239451294,wmoUnit:m,,,Flood Warning,Severe,Immediate,2025-06-16T00:00:00-05:00
Irion,31.30393203,-100.9824126,25.555555555555557,wmoUnit:degC,74,1,16093.44,wmoUnit:m,,,,,,
Midland,31.86921148,-102.0315032,23.333333333333332,wmoUnit:degC,84,0,15594.542684692382,wmoUnit:m,,,,,,
Brown,31.77432313,-98.99989649,23.333333333333332,wmoUnit:degC,90,3,16093.44,wmoUnit:m,,,,,,
Wilson,29.17315896,-98.08621015,26.11111111111111,wmoUnit:degC,91,7,14564.563506958068,wmoUnit:m,,,,,,
Oldham,35.40497586,-102.6029949,20.0,wmoUnit:degC,74,0,,,,,,,,
Freestone,31.70486443,-96.14918535,24.444444444444443,wmoUnit:degC,90,0,16093.44,wmoUnit:m,,,Flood Warning,Severe,Immediate,2025-06-16T07:45:00-05:00
Sabine,31.34321941,-93.85170439,22.22222222222222,wmoUnit:degC,97,7,6356.908876739477,wmoUnit:m,,,,,,
Deaf Smith,34.96602014,-102.6048162,19.444444444444443,wmoUnit:degC,82,0,,,,,,,,
Angelina,31.25475875,-94.611742,22.77777777777778,wmoUnit:degC,100,7,11265.408,wmoUnit:m,,,Flood Warning,Severe,Immediate,2025-06-16T11:30:00-05:00
Kent,33.18284492,-100.7791031,25.555555555555557,wmoUnit:degC,82,1,14194.413588867157,wmoUnit:m,,,,,,
Red River,33.62074539,-95.0501886,22.22222222222222,wmoUnit:degC,100,16,11265.408,wmoUnit:m,,,Flood Warning,Severe,Immediate,2025-06-16T11:30:00-05:00
Kinney,29.35000302,-100.4178441,25.555555555555557,wmoUnit:degC,88,2,16093.44,wmoUnit:m,,,,,,
Denton,33.205574,-97.11681154,26.11111111111111,wmoUnit:degC,82,2,16093.44,wmoUnit:m,,,,,,
Sutton,30.49747152,-100.5382263,23.88888888888889,wmoUnit:degC,84,0,16093.44,wmoUnit:m,,,,,,
Guadalupe,29.58257236,-97.94850308,25.555555555555557,wmoUnit:degC,97,5,11265.408,wmoUnit:m,,,,,,
Winkler,31.85008609,-103.0484794,21.666666666666668,wmoUnit:degC,87,0,15868.131287475511,wmoUnit:m,,,,,,
Dimmit,28.42161168,-99.760574,26.666666666666668,wmoUnit:degC,85,3,16093.44,wmoUnit:m,,,,,,
Wise,33.21585061,-97.65444124,25.0,wmoUnit:degC,79,2,16093.44,wmoUnit:m,,,,,,
Hemphill,35.83750155,-100.2704628,21.11111111111111,wmoUnit:degC,91,41,,,,,,,,
Potter,35.40128927,-101.8940484,20.555555555555557,wmoUnit:degC,77,9,,,,,,,,
Childress,34.52929257,-100.2075664,22.77777777777778,wmoUnit:degC,76,29,12536.789698608354,wmoUnit:m,,,,,,
Willacy,26.47132899,-97.64303323,27.77777777777778,wmoUnit:degC,94,0,,,,,,,,
Bastrop,30.10353518,-97.31187705,25.555555555555557,wmoUnit:degC,97,8,11265.408,wmoUnit:m,,,,,,
Kimble,30.48676251,-99.74892716,24.444444444444443,wmoUnit:degC,85,1,16093.44,wmoUnit:m,,,,,,
Scurry,32.74720063,-100.9165071,22.77777777777778,wmoUnit:degC,87,2,16093.44,wmoUnit:m,,,,,,
Ochiltree,36.27846334,-100.815653,20.0,wmoUnit:degC,92,39,,,,,,,,
Hansford,36.27753179,-101.3545624,19.444444444444443,wmoUnit:degC,91,32,,,,,,,,
Hartley,35.83996755,-102.6028835,17.77777777777778,wmoUnit:degC,78,1,,,,,,,,
Cameron,26.13847728,-97.51499968,28.333333333333332,wmoUnit:degC,88,1,,,,,,,,
Matagorda,28.86711039,-95.98533866,26.11111111111111,wmoUnit:degC,100,22,6646.5909041747755,wmoUnit:m,,,,,,
Burnet,30.78843382,-98.18252382,23.333333333333332,wmoUnit:degC,97,0,16093.44,wmoUnit:m,,,Special Weather Statement,Moderate,Expected,2025-06-15T14:45:00-05:00
Rains,32.87004212,-95.79347545,23.333333333333332,wmoUnit:degC,100,0,16093.44,wmoUnit:m,,,,,,
Hays,30.05782657,-98.03104087,25.0,wmoUnit:degC,94,2,11265.408,wmoUnit:m,,,,,,
Mason,30.71742293,-99.2263026,23.88888888888889,wmoUnit:degC,87,1,16093.44,wmoUnit:m,,,Special Weather Statement,Moderate,Expected,2025-06-15T14:30:00-05:00
Ward,31.509424,-103.1024636,22.77777777777778,wmoUnit:degC,81,0,15948.59879443358,wmoUnit:m,,,,,,
Delta,33.38623601,-95.67221685,22.77777777777778,wmoUnit:degC,100,0,16093.44,wmoUnit:m,,,,,,
Nueces,27.72621549,-97.61767326,28.333333333333332,wmoUnit:degC,88,12,14950.805698608354,wmoUnit:m,,,,,,
Callahan,32.2977738,-99.37359692,23.333333333333332,wmoUnit:degC,90,2,16093.44,wmoUnit:m,,,,,,
Bell,31.03778267,-97.47790776,24.444444444444443,wmoUnit:degC,97,0,16093.44,wmoUnit:m,,,Special Weather Statement,Moderate,Expected,2025-06-15T14:30:00-05:00
Cherokee,31.83695632,-95.16515234,22.77777777777778,wmoUnit:degC,100,8,16093.44,wmoUnit:m,,,Flood Warning,Severe,Immediate,2025-06-16T11:30:00-05:00
Ellis,32.34839264,-96.79467417,23.88888888888889,wmoUnit:degC,100,0,16093.44,wmoUnit:m,,,,,,
Lubbock,33.6101944,-101.8205745,24.444444444444443,wmoUnit:degC,74,0,14596.749588867156,wmoUnit:m,,,,,,
Terrell,30.22502597,-102.0764533,23.333333333333332,wmoUnit:degC,87,0,16077.34619165045,wmoUnit:m,,,,,,
Crockett,30.72291931,-101.4118364,25.0,wmoUnit:degC,76,0,16093.44,wmoUnit:m,,,,,,
Atascosa,28.89418432,-98.52741302,25.555555555555557,wmoUnit:degC,94,6,16093.44,wmoUnit:m,,,,,,
Ector,31.86908156,-102.5430907,22.77777777777778,wmoUnit:degC,84,0,15610.636493041933,wmoUnit:m,,,,,,
Brazos,30.6610425,-96.3022943,24.444444444444443,wmoUnit:degC,100,3,11651.650191650448,wmoUnit:m,,,Flood Warning,Severe,Immediate,2025-06-16T08:00:00-05:00
Aransas,28.12709562,-96.99258951,28.333333333333332,wmoUnit:degC,88,18,14982.993315307618,wmoUnit:m,,,,,,
Dallas,32.76653746,-96.77781862,25.0,wmoUnit:degC,88,0,16093.44,wmoUnit:m,,,,,,
Howard,32.30610232,-101.4355097,23.333333333333332,wmoUnit:degC,84,0,15964.69260278313,wmoUnit:m,,,,,,
Motley,34.07409017,-100.7798961,22.77777777777778,wmoUnit:degC,87,16,14001.292493041934,wmoUnit:m,,,,,,
San Augustine,31.39427005,-94.16809762,22.77777777777778,wmoUnit:degC,93,7,6356.908876739477,wmoUnit:m,,,,,,
Maverick,28.74260943,-100.3144638,26.11111111111111,wmoUnit:degC,97,3,16093.44,wmoUnit:m,,,,,,
Erath,32.23640361,-98.21722756,22.77777777777778,wmoUnit:degC,93,0,16093.44,wmoUnit:m,,,Flood Advisory,Minor,Expected,2025-06-15T14:30:00-05:00
Dickens,33.61663428,-100.7788138,23.88888888888889,wmoUnit:degC,87,1,13792.077588867158,wmoUnit:m,,,,,,
Caldwell,29.83677935,-97.61983479,26.11111111111111,wmoUnit:degC,100,6,11265.408,wmoUnit:m,,,,,,
Dawson,32.74258137,-101.9476136,22.22222222222222,wmoUnit:degC,84,0,16029.066301391646,wmoUnit:m,,,,,,
Camp,32.97321771,-94.97860185,22.22222222222222,wmoUnit:degC,100,18,16093.44,wmoUnit:m,,,,,,
Duval,27.68133382,-98.50889672,26.666666666666668,wmoUnit:degC,94,5,12037.893150695823,wmoUnit:m,,,,,,
Hunt,33.123531,-96.08550014,23.88888888888889,wmoUnit:degC,90,0,16093.44,wmoUnit:m,,,,,,
Mills,31.49524259,-98.59552736,23.333333333333332,wmoUnit:degC,97,0,16093.44,wmoUnit:m,,,,,,
Val Verde,29.89300587,-101.15171,25.0,wmoUnit:degC,88,1,16093.44,wmoUnit:m,,,,,,
Pecos,30.78100044,-102.7235743,21.666666666666668,wmoUnit:degC,87,0,15884.225095825224,wmoUnit:m,,,,,,
Baylor,33.61648147,-99.21351964,26.666666666666668,wmoUnit:degC,74,13,,,FA,A,,,,
Gregg,32.48036452,-94.81723694,23.333333333333332,wmoUnit:degC,93,9,16093.44,wmoUnit:m,,,Flood Warning,Severe,Immediate,2025-06-16T11:30:00-05:00
Cochran,33.60410808,-102.8285264,22.22222222222222,wmoUnit:degC,81,0,11764.304547912532,wmoUnit:m,,,,,,
Jasper,30.74391255,-94.02495849,23.333333333333332,wmoUnit:degC,100,3,5165.994301391645,wmoUnit:m,,,Flood Warning,Severe,Immediate,2025-06-16T11:15:00-05:00
Hamilton,31.70479181,-98.11066654,22.22222222222222,wmoUnit:degC,100,0,16093.44,wmoUnit:m,,,,,,
Castro,34.53000304,-102.2617608,22.22222222222222,wmoUnit:degC,81,0,15578.450411132842,wmoUnit:m,,,,,,
Sterling,31.82786516,-101.0500699,25.0,wmoUnit:degC,76,1,16093.44,wmoUnit:m,,,,,,
Starr,26.56212627,-98.73834895,26.666666666666668,wmoUnit:degC,89,0,,,,,,,,
Crane,31.42846287,-102.5156425,23.333333333333332,wmoUnit:degC,84,0,16093.44,wmoUnit:m,,,,,,
Morris,33.11368507,-94.73205137,22.22222222222222,wmoUnit:degC,100,27,16093.44,wmoUnit:m,,,Flood Warning,Severe,Immediate,2025-06-16T11:45:00-05:00
Briscoe,34.53041048,-101.2085769,21.666666666666668,wmoUnit:degC,90,12,13695.517808349552,wmoUnit:m,,,,,,
Tom Green,31.4044442,-100.4620678,23.88888888888889,wmoUnit:degC,84,0,16093.44,wmoUnit:m,,,,,,
Menard,30.88981785,-99.82061472,23.88888888888889,wmoUnit:degC,87,1,16093.44,wmoUnit:m,,,Special Weather Statement,Moderate,Expected,2025-06-15T14:30:00-05:00
Parker,32.77852261,-97.80472194,23.333333333333332,wmoUnit:degC,90,0,16093.44,wmoUnit:m,,,,,,
Walker,30.73899492,-95.57224172,24.444444444444443,wmoUnit:degC,100,5,11265.408,wmoUnit:m,,,Flood Warning,Severe,Immediate,2025-06-16T08:00:00-05:00
Brooks,27.0315669,-98.21874127,27.77777777777778,wmoUnit:degC,92,0,,,,,,,,
La Salle,28.34621032,-99.1034773,27.22222222222222,wmoUnit:degC,85,5,14210.50739721687,wmoUnit:m,,,,,,
Edwards,29.98248216,-100.3048937,23.333333333333332,wmoUnit:degC,90,1,16093.44,wmoUnit:m,,,,,,
Lee,30.31065065,-96.96568735,25.0,wmoUnit:degC,97,12,11265.408,wmoUnit:m,,,,,,
Robertson,31.02705415,-96.51272568,23.88888888888889,wmoUnit:degC,100,0,16093.44,wmoUnit:m,,,Flood Warning,Severe,Immediate,2025-06-16T08:00:00-05:00
Young,33.17670764,-98.68781396,25.0,wmoUnit:degC,88,0,16093.44,wmoUnit:m,,,,,,
Bee,28.41736675,-97.74116811,26.11111111111111,wmoUnit:degC,97,6,12118.36065765373,wmoUnit:m,,,,,,
Clay,33.78379717,-98.208958,26.666666666666668,wmoUnit:degC,79,18,,,FA,A,,,,
San Jacinto,30.57948905,-95.16683273,23.88888888888889,wmoUnit:degC,100,10,7225.954191650449,wmoUnit:m,,,Flood Warning,Severe,Immediate,2025-06-16T08:00:00-05:00
Uvalde,29.35669829,-99.76203107,25.555555555555557,wmoUnit:degC,94,2,16093.44,wmoUnit:m,,,,,,
Haskell,33.17824805,-99.73029401,23.88888888888889,wmoUnit:degC,84,5,16093.44,wmoUnit:m,,,,,,
Somervell,32.22229511,-97.77456553,23.88888888888889,wmoUnit:degC,97,0,16093.44,wmoUnit:m,,,,,,
Bexar,29.44884523,-98.51966309,26.11111111111111,wmoUnit:degC,91,5,16093.44,wmoUnit:m,,,,,,
Grayson,33.62684371,-96.67764864,25.0,wmoUnit:degC,82,17,16093.44,wmoUnit:m,,,,,,
Bailey,34.0684915,-102.8299069,22.22222222222222,wmoUnit:degC,79,0,13840.359013915973,wmoUnit:m,,,,,,
Jones,32.73970429,-99.87850599,25.0,wmoUnit:degC,79,1,16093.44,wmoUnit:m,,,,,,
Jefferson,29.88425832,-94.1708778,25.555555555555557,wmoUnit:degC,94,11,10525.109698608354,wmoUnit:m,,,Flood Warning,Severe,Immediate,2025-06-16T11:15:00-05:00
Rusk,32.10803224,-94.76169577,23.88888888888889,wmoUnit:degC,94,7,16093.44,wmoUnit:m,,,,,,
Glasscock,31.8694238,-101.520742,22.77777777777778,wmoUnit:degC,87,0,15562.35660278313,wmoUnit:m,,,,,,
Gillespie,30.31800246,-98.94627245,23.88888888888889,wmoUnit:degC,90,1,16093.44,wmoUnit:m,,,,,,
Fisher,32.74305155,-100.4019503,25.0,wmoUnit:degC,79,2,16093.44,wmoUnit:m,,,,,,
Henderson,32.21188078,-95.85356847,24.444444444444443,wmoUnit:degC,87,0,16093.44,wmoUnit:m,,,Flood Warning,Severe,Immediate,2025-06-16T07:45:00-05:00
Shackelford,32.7360276,-99.35403034,23.88888888888889,wmoUnit:degC,87,3,16093.44,wmoUnit:m,,,,,,
Palo Pinto,32.75316856,-98.31299522,24.444444444444443,wmoUnit:degC,90,0,16093.44,wmoUnit:m,,,Flood Advisory,Minor,Expected,2025-06-15T14:30:00-05:00
Wilbarger,34.08044953,-99.24089568,27.22222222222222,wmoUnit:degC,72,15,,,FA,A,,,,
Floyd,34.07239775,-101.3033037,23.333333333333332,wmoUnit:degC,79,9,16093.44,wmoUnit:m,,,,,,
Orange,30.12807126,-93.89653794,24.444444444444443,wmoUnit:degC,97,10,11941.33260278313,wmoUnit:m,,,Flood Warning,Severe,Immediate,2025-06-16T11:15:00-05:00
Runnels,31.83105393,-99.97624799,23.88888888888889,wmoUnit:degC,84,1,16093.44,wmoUnit:m,,,,,,
Coleman,31.77329421,-99.45362579,22.77777777777778,wmoUnit:degC,90,2,16093.44,wmoUnit:m,,,,,,
Martin,32.30605847,-101.9512464,22.77777777777778,wmoUnit:degC,84,0,15932.504986084026,wmoUnit:m,,,,,,
Wheeler,35.40129002,-100.2697634,20.0,wmoUnit:degC,92,40,,,,,,,,
Culberson,31.44709817,-104.5177421,21.666666666666668,wmoUnit:degC,59,0,16093.44,wmoUnit:m,,,,,,
Mitchell,32.30636024,-100.9211128,24.444444444444443,wmoUnit:degC,82,1,15803.757588867158,wmoUnit:m,,,,,,
Hudspeth,31.45613738,-105.3869428,20.555555555555557,wmoUnit:degC,45,0,16093.44,wmoUnit:m,HT,Y,Heat Advisory,Moderate,Expected,2025-06-16T08:00:00-06:00
Upshur,32.7362827,-94.94132011,22.22222222222222,wmoUnit:degC,97,13,16093.44,wmoUnit:m,,,Flood Warning,Severe,Immediate,2025-06-16T11:30:00-05:00
Liberty,30.15153187,-94.8120925,24.444444444444443,wmoUnit:degC,100,13,7917.97260278313,wmoUnit:m,,,Flood Warning,Severe,Immediate,2025-06-16T08:00:00-05:00
Williamson,30.64834941,-97.60105467,25.0,wmoUnit:degC,94,2,11265.408,wmoUnit:m,,,Special Weather Statement,Moderate,Expected,2025-06-15T14:45:00-05:00
Nacogdoches,31.61604108,-94.6158776,22.22222222222222,wmoUnit:degC,97,8,14548.469698608355,wmoUnit:m,,,Flood Warning,Severe,Immediate,2025-06-16T11:30:00-05:00
Loving,31.84912973,-103.5799063,22.77777777777778,wmoUnit:degC,79,0,15932.504986084026,wmoUnit:m,,,,,,
Jim Wells,27.73131099,-98.0898649,26.666666666666668,wmoUnit:degC,94,7,8883.578849304176,wmoUnit:m,,,,,,
Upton,31.36853957,-102.0430005,23.333333333333332,wmoUnit:degC,84,0,15932.504986084026,wmoUnit:m,,,,,,
Newton,30.78619977,-93.74462993,22.22222222222222,wmoUnit:degC,100,3,5938.479452087468,wmoUnit:m,,,Flood Warning,Severe,Immediate,2025-06-16T11:15:00-05:00
Lamar,33.66746186,-95.57110784,20.555555555555557,wmoUnit:degC,100,4,12746.00460278313,wmoUnit:m,,,,,,
Polk,30.79250963,-94.82994949,24.444444444444443,wmoUnit:degC,100,14,7644.384,wmoUnit:m,,,Flood Warning,Severe,Immediate,2025-06-16T08:00:00-05:00
Collin,33.18789055,-96.57248871,26.11111111111111,wmoUnit:degC,72,1,16093.44,wmoUnit:m,,,,,,
Hardeman,34.28865227,-99.7453851,27.77777777777778,wmoUnit:degC,67,14,,,FA,A,,,,
McMullen,28.35351091,-98.56842256,26.666666666666668,wmoUnit:degC,91,6,12762.097643737756,wmoUnit:m,,,,,,
Cottle,34.0776571,-100.2786983,23.333333333333332,wmoUnit:degC,87,18,12585.070356262244,wmoUnit:m,,,,,,
Frio,28.86726774,-99.10826004,25.555555555555557,wmoUnit:degC,94,3,16093.44,wmoUnit:m,,,,,,
Gray,35.40130666,-100.812475,20.0,wmoUnit:degC,87,31,,,,,,,,
Dallam,36.27777107,-102.6021647,16.666666666666668,wmoUnit:degC,83,2,,,,,,,,
Kenedy,26.92409448,-97.68137783,27.77777777777778,wmoUnit:degC,93,1,,,,,,,,
Fort Bend,29.52763253,-95.77090562,25.0,wmoUnit:degC,100,18,6710.96460278313,wmoUnit:m,,,Flood Warning,Severe,Immediate,2025-06-16T08:00:00-05:00
Armstrong,34.96522076,-101.3572412,20.0,wmoUnit:degC,80,13,,,,,,,,
Collingsworth,34.96498493,-100.2700733,21.11111111111111,wmoUnit:degC,90,34,,,,,,,,
Cass,33.07750446,-94.34348771,22.77777777777778,wmoUnit:degC,97,30,14548.469698608355,wmoUnit:m,,,Flood Warning,Severe,Immediate,2025-06-16T11:30:00-05:00
Sherman,36.27765824,-101.8933822,17.77777777777778,wmoUnit:degC,88,22,,,,,,,,
Terry,33.17373729,-102.335157,22.77777777777778,wmoUnit:degC,81,0,12633.350246521048,wmoUnit:m,,,,,,
Limestone,31.54541898,-96.58056718,23.333333333333332,wmoUnit:degC,100,0,16093.44,wmoUnit:m,,,Special Weather Statement,Moderate,Expected,2025-06-15T14:30:00-05:00
Real,29.83182711,-99.82215881,22.77777777777778,wmoUnit:degC,93,1,16093.44,wmoUnit:m,,,,,,
Lynn,33.17685487,-101.8160235,23.333333333333332,wmoUnit:degC,84,0,14709.404712524489,wmoUnit:m,,,,,,
Lavaca,29.38437003,-96.93020993,26.11111111111111,wmoUnit:degC,97,10,11265.408,wmoUnit:m,,,,,,
Nolan,32.3034718,-100.4060989,24.444444444444443,wmoUnit:degC,79,1,16093.44,wmoUnit:m,,,,,,
Gaines,32.74074537,-102.6351246,21.11111111111111,wmoUnit:degC,87,0,15771.571506958067,wmoUnit:m,,,,,,
Montgomery,30.30022409,-95.50301411,24.444444444444443,wmoUnit:degC,100,5,7966.252493041933,wmoUnit:m,,,Special Weather Statement,Moderate,Expected,2025-06-15T14:15:00-05:00
Concho,31.32645211,-99.86413426,23.333333333333332,wmoUnit:degC,90,1,16093.44,wmoUnit:m,,,,,,
Hardin,30.33238431,-94.39021394,23.333333333333332,wmoUnit:degC,100,5,8835.298191650449,wmoUnit:m,,,Flood Warning,Severe,Immediate,2025-06-16T11:15:00-05:00
Harris,29.85967144,-95.39782106,25.555555555555557,wmoUnit:degC,100,17,11265.408,wmoUnit:m,,,Special Weather Statement,Moderate,Expected,2025-06-15T14:15:00-05:00
Leon,31.29655719,-95.99554292,23.88888888888889,wmoUnit:degC,100,0,16093.44,wmoUnit:m,,,Flood Warning,Severe,Immediate,2025-06-16T08:00:00-05:00
Bowie,33.44572786,-94.42324298,22.77777777777778,wmoUnit:degC,97,28,11265.408,wmoUnit:m,,,Flood Warning,Severe,Immediate,2025-06-16T11:30:00-05:00
Kaufman,32.59927808,-96.28779341,25.0,wmoUnit:degC,82,0,16093.44,wmoUnit:m,,,,,,
Anderson,31.81321543,-95.65251774,23.88888888888889,wmoUnit:degC,94,0,16093.44,wmoUnit:m,,,Flood Warning,Severe,Immediate,2025-06-16T07:45:00-05:00
San Saba,31.15520543,-98.81754295,23.333333333333332,wmoUnit:degC,90,1,16093.44,wmoUnit:m,,,Special Weather Statement,Moderate,Expected,2025-06-15T14:30:00-05:00
Schleicher,30.89661056,-100.538097,24.444444444444443,wmoUnit:degC,79,0,16093.44,wmoUnit:m,,,Special Weather Statement,Moderate,Expected,2025-06-15T14:30:00-05:00
Colorado,29.6208542,-96.52630821,24.444444444444443,wmoUnit:degC,100,11,6501.749698608354,wmoUnit:m,,,,,,
Milam,30.78625299,-96.97683495,23.333333333333332,wmoUnit:degC,100,0,16093.44,wmoUnit:m,,,,,,
Live Oak,28.3514375,-98.12474493,26.11111111111111,wmoUnit:degC,94,7,10911.352657653728,wmoUnit:m,,,,,,
Borden,32.7436916,-101.4317533,22.77777777777778,wmoUnit:degC,84,1,15916.412712524489,wmoUnit:m,,,,,,
McCulloch,31.19896752,-99.34754972,23.88888888888889,wmoUnit:degC,87,1,16093.44,wmoUnit:m,,,Special Weather Statement,Moderate,Expected,2025-06-15T14:30:00-05:00
Johnson,32.37899918,-97.36660504,23.88888888888889,wmoUnit:degC,100,0,16093.44,wmoUnit:m,,,,,,
Montague,33.67496328,-97.72466993,24.444444444444443,wmoUnit:degC,85,19,16093.44,wmoUnit:m,,,,,,
Stonewall,33.17842158,-100.255259,25.555555555555557,wmoUnit:degC,82,3,13228.808109741198,wmoUnit:m,,,,,,
Comal,29.80816362,-98.27814516,24.444444444444443,wmoUnit:degC,97,4,11265.408,wmoUnit:m,,,,,,
Eastland,32.32739258,-98.8325713,23.333333333333332,wmoUnit:degC,90,0,16093.44,wmoUnit:m,,,Flood Advisory,Minor,Expected,2025-06-15T14:30:00-05:00
Comanche,31.9490639,-98.55841538,23.333333333333332,wmoUnit:degC,90,0,16093.44,wmoUnit:m,,,,,,
King,33.61641863,-100.2558584,24.444444444444443,wmoUnit:degC,90,3,11265.408,wmoUnit:m,,,,,,
Washington,30.2145299,-96.40356575,24.444444444444443,wmoUnit:degC,100,5,9237.634191650448,wmoUnit:m,,,Special Weather Statement,Moderate,Expected,2025-06-15T14:15:00-05:00
Webb,27.76102524,-99.33170164,27.22222222222222,wmoUnit:degC,88,3,15353.141698608355,wmoUnit:m,,,,,,
Fayette,29.87683207,-96.91968047,26.666666666666668,wmoUnit:degC,94,12,11265.408,wmoUnit:m,,,,,,
Harrison,32.54814898,-94.37155736,22.22222222222222,wmoUnit:degC,100,10,16093.44,wmoUnit:m,,,,,,
Presidio,29.99977786,-104.2405552,19.444444444444443,wmoUnit:degC,70,0,16093.44,wmoUnit:m,,,,,,
Austin,29.88711223,-96.27791829,24.444444444444443,wmoUnit:degC,100,10,6389.0957260436535,wmoUnit:m,,,Special Weather Statement,Moderate,Expected,2025-06-15T14:15:00-05:00
Randall,34.96594288,-101.8968527,20.555555555555557,wmoUnit:degC,79,6,,,,,,,,
Hood,32.43107878,-97.83280338,23.333333333333332,wmoUnit:degC,90,0,16093.44,wmoUnit:m,,,,,,
Victoria,28.79640594,-96.97176602,25.555555555555557,wmoUnit:degC,97,9,8304.21479443358,wmoUnit:m,,,Flood Warning,Severe,Immediate,2025-06-16T00:00:00-05:00
Hutchinson,35.84000866,-101.3547257,20.555555555555557,wmoUnit:degC,82,27,,,,,,,,
Coryell,31.39087578,-97.7991883,23.333333333333332,wmoUnit:degC,100,0,16093.44,wmoUnit:m,,,Special Weather Statement,Moderate,Expected,2025-06-15T14:30:00-05:00
Jackson,28.95603133,-96.57883268,25.0,wmoUnit:degC,100,18,6453.469808349551,wmoUnit:m,,,,,,
Taylor,32.30138229,-99.89003941,23.88888888888889,wmoUnit:degC,82,0,16093.44,wmoUnit:m,,,,,,
Zapata,27.00089072,-99.16860134,26.666666666666668,wmoUnit:degC,91,0,,,,,,,,
San Patricio,28.00922186,-97.51859857,27.77777777777778,wmoUnit:degC,97,12,12810.378301391645,wmoUnit:m,,,,,,
Grimes,30.54360689,-95.98557334,24.444444444444443,wmoUnit:degC,100,6,11265.408,wmoUnit:m,,,Flood Warning,Severe,Immediate,2025-06-16T08:00:00-05:00
Lamb,34.06861242,-102.3517095,22.22222222222222,wmoUnit:degC,87,0,12746.00460278313,wmoUnit:m,,,,,,
