countyName,latitude,longitude,temperature,temperature_unit,relativeHumidity,precipitationProbability,visibility,visibility_unit,hazard_phenomenon,hazard_significance,alert_event,alert_severity,alert_urgency,alert_expires
Foard,33.97408519,-99.77871109,30.0,wmoUnit:degC,55,24,,,,,,,,
Blanco,30.26636128,-98.39974086,28.88888888888889,wmoUnit:degC,62,0,16093.44,wmoUnit:m,,,,,,
Hockley,33.60750375,-102.3430919,30.0,wmoUnit:degC,25,9,16077.34619165045,wmoUnit:m,,,,,,
Llano,30.70566579,-98.68387398,32.22222222222222,wmoUnit:degC,47,1,16093.44,wmoUnit:m,,,,,,
Swisher,34.53064989,-101.734951,27.77777777777778,wmoUnit:degC,47,9,15111.740712524488,wmoUnit:m,,,,,,
Titus,33.2160906,-94.96509786,27.77777777777778,wmoUnit:degC,65,1,16093.44,wmoUnit:m,,,,,,
Navarro,32.04695429,-96.47248134,30.0,wmoUnit:degC,63,1,16093.44,wmoUnit:m,,,,,,
Brazoria,29.19345387,-95.45578479,27.77777777777778,wmoUnit:degC,85,17,15755.477698608354,wmoUnit:m,,,,,,
Hidalgo,26.396627,-98.18088681,30.0,wmoUnit:degC,68,0,,,,,,,,
Archer,33.61539176,-98.68783437,30.0,wmoUnit:degC,57,8,,,,,,,,
Refugio,28.32681413,-97.16546961,29.444444444444443,wmoUnit:degC,70,7,15143.926794433579,wmoUnit:m,,,,,,
Andrews,32.30506283,-102.6378839,32.77777777777778,wmoUnit:degC,32,0,16093.44,wmoUnit:m,,,,,,
Galveston,29.39424415,-94.96474975,28.333333333333332,wmoUnit:degC,85,19,15658.916383300735,wmoUnit:m,,,,,,
De Witt,29.08201599,-97.35666976,29.444444444444443,wmoUnit:degC,69,0,11265.408,wmoUnit:m,,,,,,
Gonzales,29.45641495,-97.49279927,31.11111111111111,wmoUnit:degC,58,0,16093.44,wmoUnit:m,,,,,,
Wharton,29.2778362,-96.22197375,28.333333333333332,wmoUnit:degC,80,16,16093.44,wmoUnit:m,,,,,,
Fannin,33.59396919,-96.10656755,28.333333333333332,wmoUnit:degC,67,1,11265.408,wmoUnit:m,,,,,,
Madison,30.96564645,-95.92818441,27.22222222222222,wmoUnit:degC,67,20,16093.44,wmoUnit:m,,,,,,
Moore,35.83768863,-101.8929556,28.88888888888889,wmoUnit:degC,37,2,,,,,,,,
Tyler,30.7712607,-94.37651432,28.333333333333332,wmoUnit:degC,72,17,16093.44,wmoUnit:m,,,Flood Warning,Severe,Immediate,2025-05-24T21:00:00-05:00
Lipscomb,36.27778432,-100.27317,26.666666666666668,wmoUnit:degC,58,15,,,,,,,,
Burleson,30.49246139,-96.62109399,31.11111111111111,wmoUnit:degC,52,23,16093.44,wmoUnit:m,,,,,,
Jim Hogg,27.04340499,-98.6972921,29.444444444444443,wmoUnit:degC,66,1,,,,,,,,
Throckmorton,33.17753907,-99.21236832,28.88888888888889,wmoUnit:degC,57,10,14532.375890258803,wmoUnit:m,,,,,,
Kleberg,27.43274395,-97.72889778,29.444444444444443,wmoUnit:degC,77,4,16093.44,wmoUnit:m,HT,Y,Heat Advisory,Moderate,Expected,2025-05-24T09:45:00-05:00
Shelby,31.79242191,-94.14495261,27.77777777777778,wmoUnit:degC,67,1,16093.44,wmoUnit:m,,,,,,
Garza,33.17991074,-101.2984496,32.77777777777778,wmoUnit:degC,31,22,14902.525808349552,wmoUnit:m,,,,,,
Karnes,28.90493782,-97.85960621,30.0,wmoUnit:degC,56,0,16093.44,wmoUnit:m,,,,,,
Reeves,31.32307061,-103.693143,26.666666666666668,wmoUnit:degC,45,0,16093.44,wmoUnit:m,,,,,,
Houston,31.31764137,-95.42225367,30.555555555555557,wmoUnit:degC,65,14,16093.44,wmoUnit:m,,,Flood Warning,Severe,Immediate,2025-05-24T21:00:00-05:00
El Paso,31.7686226,-106.2352229,34.44444444444444,wmoUnit:degC,7,0,16093.44,wmoUnit:m,,,,,,
Carson,35.40346802,-101.3542037,26.666666666666668,wmoUnit:degC,60,10,,,,,,,,
Medina,29.35520493,-99.11008331,32.77777777777778,wmoUnit:degC,49,0,16093.44,wmoUnit:m,,,,,,
Wichita,33.98421585,-98.70153389,29.444444444444443,wmoUnit:degC,57,9,,,,,,,,
Chambers,29.73912276,-94.60891308,28.333333333333332,wmoUnit:degC,80,18,16093.44,wmoUnit:m,,,,,,
Donley,34.96540246,-100.8140501,26.666666666666668,wmoUnit:degC,56,16,,,,,,,,
Hopkins,33.14933822,-95.56414173,28.88888888888889,wmoUnit:degC,65,1,16093.44,wmoUnit:m,,,,,,
Lampasas,31.19627791,-98.24142711,30.555555555555557,wmoUnit:degC,52,1,16093.44,wmoUnit:m,,,,,,
Falls,31.25317017,-96.93579511,30.555555555555557,wmoUnit:degC,65,1,16093.44,wmoUnit:m,,,,,,
Stephens,32.73584155,-98.83612016,30.555555555555557,wmoUnit:degC,43,1,11265.408,wmoUnit:m,,,,,,
Travis,30.33423319,-97.78194654,32.77777777777778,wmoUnit:degC,57,1,16093.44,wmoUnit:m,,,,,,
Roberts,35.8385577,-100.8135689,27.22222222222222,wmoUnit:degC,56,12,,,,,,,,
Crosby,33.61459873,-101.2998612,28.88888888888889,wmoUnit:degC,41,19,15675.010191650448,wmoUnit:m,,,,,,
Kerr,30.06153035,-99.35016969,31.666666666666668,wmoUnit:degC,48,1,16093.44,wmoUnit:m,,,,,,
Wood,32.78634374,-95.38206498,28.333333333333332,wmoUnit:degC,63,1,16093.44,wmoUnit:m,,,,,,
Jack,33.23345819,-98.1725509,29.444444444444443,wmoUnit:degC,55,2,16093.44,wmoUnit:m,,,,,,
Marion,32.79797929,-94.35725239,27.77777777777778,wmoUnit:degC,72,1,16093.44,wmoUnit:m,,,,,,
Hale,34.07051782,-101.8269082,28.333333333333332,wmoUnit:degC,41,11,16029.066301391646,wmoUnit:m,,,,,,
Jeff Davis,30.71559322,-104.1403539,21.11111111111111,wmoUnit:degC,51,0,16093.44,wmoUnit:m,,,,,,
Tarrant,32.77185236,-97.29116473,31.666666666666668,wmoUnit:degC,52,0,16093.44,wmoUnit:m,,,,,,
Waller,30.01093722,-95.98768942,28.88888888888889,wmoUnit:degC,74,19,16093.44,wmoUnit:m,,,,,,
Reagan,31.36617698,-101.5230108,32.22222222222222,wmoUnit:degC,30,0,16093.44,wmoUnit:m,,,,,,
Smith,32.37514553,-95.26909511,30.555555555555557,wmoUnit:degC,55,1,16093.44,wmoUnit:m,,,,,,
Van Zandt,32.56368961,-95.8364862,29.444444444444443,wmoUnit:degC,67,1,16093.44,wmoUnit:m,,,,,,
Cooke,33.638465,-97.21247642,29.444444444444443,wmoUnit:degC,63,2,16093.44,wmoUnit:m,,,,,,
Zavala,28.86530621,-99.76102001,33.333333333333336,wmoUnit:degC,49,1,16093.44,wmoUnit:m,,,,,,
Hall,34.53074134,-100.6809876,28.333333333333332,wmoUnit:degC,59,19,16061.252383300736,wmoUnit:m,,,,,,
Kendall,29.9446397,-98.71160511,29.444444444444443,wmoUnit:degC,65,1,16093.44,wmoUnit:m,,,,,,
Goliad,28.65708563,-97.42646082,31.11111111111111,wmoUnit:degC,57,4,15980.786411132844,wmoUnit:m,,,,,,
Yoakum,33.17293501,-102.8278792,30.0,wmoUnit:degC,32,10,14548.469698608355,wmoUnit:m,,,,,,
Knox,33.60614755,-99.74144313,31.666666666666668,wmoUnit:degC,48,24,,,,,,,,
McLennan,31.55234489,-97.20184883,31.11111111111111,wmoUnit:degC,59,1,16093.44,wmoUnit:m,,,,,,
Brewster,29.81205836,-103.2518906,28.333333333333332,wmoUnit:degC,34,0,16093.44,wmoUnit:m,,,,,,
Panola,32.16222886,-94.30552858,28.333333333333332,wmoUnit:degC,69,1,16093.44,wmoUnit:m,,,,,,
Bandera,29.74724753,-99.24637282,31.11111111111111,wmoUnit:degC,52,0,16093.44,wmoUnit:m,,,,,,
Parmer,34.53014507,-102.784594,26.666666666666668,wmoUnit:degC,36,1,14484.096,wmoUnit:m,,,,,,
Rockwall,32.89786769,-96.40780584,30.555555555555557,wmoUnit:degC,57,1,16093.44,wmoUnit:m,,,,,,
Trinity,31.0885069,-95.13551682,30.0,wmoUnit:degC,65,46,16093.44,wmoUnit:m,,,Flood Warning,Severe,Immediate,2025-05-24T21:00:00-05:00
Bosque,31.90050476,-97.63437613,30.0,wmoUnit:degC,63,1,16093.44,wmoUnit:m,,,,,,
Coke,31.88849293,-100.5298747,32.77777777777778,wmoUnit:degC,37,6,16093.44,wmoUnit:m,,,,,,
Franklin,33.17550691,-95.21841437,28.333333333333332,wmoUnit:degC,65,1,16093.44,wmoUnit:m,,,,,,
Hill,31.99079033,-97.1324142,30.0,wmoUnit:degC,63,1,16093.44,wmoUnit:m,,,,,,
Calhoun,28.48966896,-96.64708119,30.0,wmoUnit:degC,72,8,15852.039013915974,wmoUnit:m,,,,,,
Irion,31.30393203,-100.9824126,34.44444444444444,wmoUnit:degC,24,5,16093.44,wmoUnit:m,,,,,,
Midland,31.86921148,-102.0315032,33.333333333333336,wmoUnit:degC,37,0,16093.44,wmoUnit:m,,,,,,
Brown,31.77432313,-98.99989649,29.444444444444443,wmoUnit:degC,59,3,16093.44,wmoUnit:m,,,,,,
Wilson,29.17315896,-98.08621015,30.555555555555557,wmoUnit:degC,57,0,16093.44,wmoUnit:m,,,,,,
Oldham,35.40497586,-102.6029949,30.555555555555557,wmoUnit:degC,25,0,,,,,,,,
Freestone,31.70486443,-96.14918535,29.444444444444443,wmoUnit:degC,65,0,16093.44,wmoUnit:m,,,,,,
Sabine,31.34321941,-93.85170439,27.77777777777778,wmoUnit:degC,77,3,16093.44,wmoUnit:m,,,,,,
Deaf Smith,34.96602014,-102.6048162,29.444444444444443,wmoUnit:degC,32,0,,,,,,,,
Angelina,31.25475875,-94.611742,29.444444444444443,wmoUnit:degC,67,2,16093.44,wmoUnit:m,,,Flood Warning,Severe,Immediate,2025-05-24T21:00:00-05:00
Kent,33.18284492,-100.7791031,30.555555555555557,wmoUnit:degC,46,16,13035.687013915973,wmoUnit:m,,,,,,
Red River,33.62074539,-95.0501886,28.333333333333332,wmoUnit:degC,59,2,16093.44,wmoUnit:m,,,,,,
Kinney,29.35000302,-100.4178441,33.888888888888886,wmoUnit:degC,39,1,16093.44,wmoUnit:m,,,,,,
Denton,33.205574,-97.11681154,32.22222222222222,wmoUnit:degC,49,1,16093.44,wmoUnit:m,,,,,,
Sutton,30.49747152,-100.5382263,31.666666666666668,wmoUnit:degC,39,3,16093.44,wmoUnit:m,,,,,,
Guadalupe,29.58257236,-97.94850308,30.555555555555557,wmoUnit:degC,59,1,16093.44,wmoUnit:m,,,,,,
Winkler,31.85008609,-103.0484794,32.77777777777778,wmoUnit:degC,24,0,16093.44,wmoUnit:m,,,,,,
Dimmit,28.42161168,-99.760574,34.44444444444444,wmoUnit:degC,42,1,12746.00460278313,wmoUnit:m,,,,,,
Wise,33.21585061,-97.65444124,29.444444444444443,wmoUnit:degC,51,1,16093.44,wmoUnit:m,,,,,,
Hemphill,35.83750155,-100.2704628,26.11111111111111,wmoUnit:degC,60,14,,,,,,,,
Potter,35.40128927,-101.8940484,30.0,wmoUnit:degC,39,5,,,,,,,,
Childress,34.52929257,-100.2075664,26.666666666666668,wmoUnit:degC,60,21,16045.160109741197,wmoUnit:m,,,,,,
Willacy,26.47132899,-97.64303323,26.666666666666668,wmoUnit:degC,88,0,,,,,,,,
Bastrop,30.10353518,-97.31187705,32.22222222222222,wmoUnit:degC,50,1,16093.44,wmoUnit:m,,,,,,
Kimble,30.48676251,-99.74892716,32.22222222222222,wmoUnit:degC,42,2,14532.375890258803,wmoUnit:m,,,,,,
Scurry,32.74720063,-100.9165071,34.44444444444444,wmoUnit:degC,25,0,16029.066301391646,wmoUnit:m,,,,,,
Ochiltree,36.27846334,-100.815653,26.666666666666668,wmoUnit:degC,58,13,,,,,,,,
Hansford,36.27753179,-101.3545624,28.88888888888889,wmoUnit:degC,48,3,,,,,,,,
Hartley,35.83996755,-102.6028835,30.555555555555557,wmoUnit:degC,19,0,,,,,,,,
Cameron,26.13847728,-97.51499968,27.22222222222222,wmoUnit:degC,84,0,,,,,,,,
Matagorda,28.86711039,-95.98533866,27.77777777777778,wmoUnit:degC,91,19,15642.824109741197,wmoUnit:m,,,,,,
Burnet,30.78843382,-98.18252382,30.555555555555557,wmoUnit:degC,53,0,16093.44,wmoUnit:m,,,,,,
Rains,32.87004212,-95.79347545,29.444444444444443,wmoUnit:degC,65,1,16093.44,wmoUnit:m,,,,,,
Hays,30.05782657,-98.03104087,30.0,wmoUnit:degC,66,0,16093.44,wmoUnit:m,,,,,,
Mason,30.71742293,-99.2263026,31.11111111111111,wmoUnit:degC,48,1,16093.44,wmoUnit:m,,,,,,
Ward,31.509424,-103.1024636,33.333333333333336,wmoUnit:degC,18,0,16093.44,wmoUnit:m,,,,,,
Delta,33.38623601,-95.67221685,28.333333333333332,wmoUnit:degC,67,0,16093.44,wmoUnit:m,,,,,,
Nueces,27.72621549,-97.61767326,27.77777777777778,wmoUnit:degC,85,5,16093.44,wmoUnit:m,HT,Y,Heat Advisory,Moderate,Expected,2025-05-24T09:45:00-05:00
Callahan,32.2977738,-99.37359692,29.444444444444443,wmoUnit:degC,53,4,16093.44,wmoUnit:m,,,,,,
Bell,31.03778267,-97.47790776,31.11111111111111,wmoUnit:degC,61,0,16093.44,wmoUnit:m,,,,,,
Cherokee,31.83695632,-95.16515234,30.0,wmoUnit:degC,59,1,11265.408,wmoUnit:m,,,,,,
Ellis,32.34839264,-96.79467417,31.11111111111111,wmoUnit:degC,63,1,12746.00460278313,wmoUnit:m,,,,,,
Lubbock,33.6101944,-101.8205745,30.555555555555557,wmoUnit:degC,32,15,16093.44,wmoUnit:m,,,,,,
Terrell,30.22502597,-102.0764533,32.22222222222222,wmoUnit:degC,38,0,16061.252383300736,wmoUnit:m,,,,,,
Crockett,30.72291931,-101.4118364,32.77777777777778,wmoUnit:degC,30,9,16093.44,wmoUnit:m,,,,,,
Atascosa,28.89418432,-98.52741302,31.666666666666668,wmoUnit:degC,49,0,16093.44,wmoUnit:m,,,,,,
Ector,31.86908156,-102.5430907,31.666666666666668,wmoUnit:degC,34,0,16093.44,wmoUnit:m,,,,,,
Brazos,30.6610425,-96.3022943,27.22222222222222,wmoUnit:degC,65,24,16093.44,wmoUnit:m,,,,,,
Aransas,28.12709562,-96.99258951,27.22222222222222,wmoUnit:degC,91,7,14355.34860278313,wmoUnit:m,,,,,,
Dallas,32.76653746,-96.77781862,32.22222222222222,wmoUnit:degC,56,1,16093.44,wmoUnit:m,,,,,,
Howard,32.30610232,-101.4355097,36.111111111111114,wmoUnit:degC,20,0,16093.44,wmoUnit:m,,,,,,
Motley,34.07409017,-100.7798961,26.666666666666668,wmoUnit:degC,62,21,13743.797698608354,wmoUnit:m,,,,,,
San Augustine,31.39427005,-94.16809762,28.333333333333332,wmoUnit:degC,72,2,16093.44,wmoUnit:m,,,,,,
Maverick,28.74260943,-100.3144638,37.22222222222222,wmoUnit:degC,31,1,16093.44,wmoUnit:m,,,,,,
Erath,32.23640361,-98.21722756,30.0,wmoUnit:degC,51,0,16093.44,wmoUnit:m,,,,,,
Dickens,33.61663428,-100.7788138,29.444444444444443,wmoUnit:degC,51,20,12504.602849304178,wmoUnit:m,,,,,,
Caldwell,29.83677935,-97.61983479,31.666666666666668,wmoUnit:degC,54,0,16093.44,wmoUnit:m,,,,,,
Dawson,32.74258137,-101.9476136,33.888888888888886,wmoUnit:degC,29,0,16093.44,wmoUnit:m,,,,,,
Camp,32.97321771,-94.97860185,28.333333333333332,wmoUnit:degC,61,1,16093.44,wmoUnit:m,,,,,,
Duval,27.68133382,-98.50889672,28.333333333333332,wmoUnit:degC,74,3,16093.44,wmoUnit:m,,,,,,
Hunt,33.123531,-96.08550014,30.0,wmoUnit:degC,61,1,16093.44,wmoUnit:m,,,,,,
Mills,31.49524259,-98.59552736,28.333333333333332,wmoUnit:degC,63,0,16093.44,wmoUnit:m,,,,,,
Val Verde,29.89300587,-101.15171,32.77777777777778,wmoUnit:degC,38,2,16093.44,wmoUnit:m,,,,,,
Pecos,30.78100044,-102.7235743,26.11111111111111,wmoUnit:degC,41,0,16093.44,wmoUnit:m,,,,,,
Baylor,33.61648147,-99.21351964,30.0,wmoUnit:degC,51,18,,,,,,,,
Gregg,32.48036452,-94.81723694,29.444444444444443,wmoUnit:degC,55,1,16093.44,wmoUnit:m,,,,,,
Cochran,33.60410808,-102.8285264,30.0,wmoUnit:degC,26,5,15369.235506958066,wmoUnit:m,,,,,,
Jasper,30.74391255,-94.02495849,28.333333333333332,wmoUnit:degC,72,17,16093.44,wmoUnit:m,,,,,,
Hamilton,31.70479181,-98.11066654,30.0,wmoUnit:degC,57,1,16093.44,wmoUnit:m,,,,,,
Castro,34.53000304,-102.2617608,25.0,wmoUnit:degC,43,4,12552.883506958067,wmoUnit:m,,,,,,
Sterling,31.82786516,-101.0500699,33.333333333333336,wmoUnit:degC,30,7,16093.44,wmoUnit:m,,,,,,
Starr,26.56212627,-98.73834895,30.0,wmoUnit:degC,62,1,,,,,,,,
Crane,31.42846287,-102.5156425,33.333333333333336,wmoUnit:degC,15,0,16093.44,wmoUnit:m,,,,,,
Morris,33.11368507,-94.73205137,27.77777777777778,wmoUnit:degC,65,1,16093.44,wmoUnit:m,,,,,,
Briscoe,34.53041048,-101.2085769,26.11111111111111,wmoUnit:degC,60,14,15868.131287475511,wmoUnit:m,,,,,,
Tom Green,31.4044442,-100.4620678,33.333333333333336,wmoUnit:degC,33,3,16093.44,wmoUnit:m,,,,,,
Menard,30.88981785,-99.82061472,31.666666666666668,wmoUnit:degC,45,2,16093.44,wmoUnit:m,,,,,,
Parker,32.77852261,-97.80472194,30.0,wmoUnit:degC,53,0,16093.44,wmoUnit:m,,,,,,
Walker,30.73899492,-95.57224172,27.22222222222222,wmoUnit:degC,63,48,16093.44,wmoUnit:m,,,,,,
Brooks,27.0315669,-98.21874127,28.333333333333332,wmoUnit:degC,76,1,,,,,,,,
La Salle,28.34621032,-99.1034773,31.666666666666668,wmoUnit:degC,59,1,16093.44,wmoUnit:m,,,,,,
Edwards,29.98248216,-100.3048937,30.0,wmoUnit:degC,50,1,16093.44,wmoUnit:m,,,,,,
Lee,30.31065065,-96.96568735,31.11111111111111,wmoUnit:degC,56,1,16093.44,wmoUnit:m,,,,,,
Robertson,31.02705415,-96.51272568,29.444444444444443,wmoUnit:degC,61,0,16093.44,wmoUnit:m,,,,,,
Young,33.17670764,-98.68781396,31.11111111111111,wmoUnit:degC,48,4,16093.44,wmoUnit:m,,,,,,
Bee,28.41736675,-97.74116811,26.666666666666668,wmoUnit:degC,79,4,14950.805698608354,wmoUnit:m,,,,,,
Clay,33.78379717,-98.208958,29.444444444444443,wmoUnit:degC,59,1,,,,,,,,
San Jacinto,30.57948905,-95.16683273,27.22222222222222,wmoUnit:degC,74,44,16093.44,wmoUnit:m,,,,,,
Uvalde,29.35669829,-99.76203107,32.77777777777778,wmoUnit:degC,48,1,16093.44,wmoUnit:m,,,,,,
Haskell,33.17824805,-99.73029401,30.0,wmoUnit:degC,50,14,16093.44,wmoUnit:m,,,,,,
Somervell,32.22229511,-97.77456553,31.11111111111111,wmoUnit:degC,55,0,16093.44,wmoUnit:m,,,,,,
Bexar,29.44884523,-98.51966309,32.22222222222222,wmoUnit:degC,56,1,16093.44,wmoUnit:m,,,,,,
Grayson,33.62684371,-96.67764864,30.0,wmoUnit:degC,59,2,11265.408,wmoUnit:m,,,,,,
Bailey,34.0684915,-102.8299069,26.11111111111111,wmoUnit:degC,38,2,15176.114411132843,wmoUnit:m,,,,,,
Jones,32.73970429,-99.87850599,30.0,wmoUnit:degC,50,5,16093.44,wmoUnit:m,,,,,,
Jefferson,29.88425832,-94.1708778,26.666666666666668,wmoUnit:degC,88,7,16077.34619165045,wmoUnit:m,,,,,,
Rusk,32.10803224,-94.76169577,30.555555555555557,wmoUnit:degC,52,1,16093.44,wmoUnit:m,,,,,,
Glasscock,31.8694238,-101.520742,33.333333333333336,wmoUnit:degC,26,0,16093.44,wmoUnit:m,,,,,,
Gillespie,30.31800246,-98.94627245,28.333333333333332,wmoUnit:degC,60,1,16093.44,wmoUnit:m,,,,,,
Fisher,32.74305155,-100.4019503,32.77777777777778,wmoUnit:degC,40,5,16093.44,wmoUnit:m,,,,,,
Henderson,32.21188078,-95.85356847,30.555555555555557,wmoUnit:degC,63,1,16093.44,wmoUnit:m,,,,,,
Shackelford,32.7360276,-99.35403034,30.0,wmoUnit:degC,51,4,16093.44,wmoUnit:m,,,,,,
Palo Pinto,32.75316856,-98.31299522,29.444444444444443,wmoUnit:degC,53,0,16093.44,wmoUnit:m,,,,,,
Wilbarger,34.08044953,-99.24089568,29.444444444444443,wmoUnit:degC,55,20,,,,,,,,
Floyd,34.07239775,-101.3033037,27.22222222222222,wmoUnit:degC,56,16,15932.504986084026,wmoUnit:m,,,,,,
Orange,30.12807126,-93.89653794,27.22222222222222,wmoUnit:degC,79,13,16093.44,wmoUnit:m,,,Flood Warning,Severe,Immediate,2025-05-24T22:00:00-05:00
Runnels,31.83105393,-99.97624799,31.11111111111111,wmoUnit:degC,50,6,16093.44,wmoUnit:m,,,,,,
Coleman,31.77329421,-99.45362579,30.0,wmoUnit:degC,46,4,16093.44,wmoUnit:m,,,,,,
Martin,32.30605847,-101.9512464,33.888888888888886,wmoUnit:degC,31,0,16093.44,wmoUnit:m,,,,,,
Wheeler,35.40129002,-100.2697634,26.11111111111111,wmoUnit:degC,58,15,,,,,,,,
Culberson,31.44709817,-104.5177421,30.555555555555557,wmoUnit:degC,19,0,16093.44,wmoUnit:m,,,,,,
Mitchell,32.30636024,-100.9211128,35.0,wmoUnit:degC,32,0,15803.757588867158,wmoUnit:m,,,,,,
Hudspeth,31.45613738,-105.3869428,32.77777777777778,wmoUnit:degC,8,0,16093.44,wmoUnit:m,,,,,,
Upshur,32.7362827,-94.94132011,29.444444444444443,wmoUnit:degC,53,1,16093.44,wmoUnit:m,,,,,,
Liberty,30.15153187,-94.8120925,28.88888888888889,wmoUnit:degC,70,15,16093.44,wmoUnit:m,,,,,,
Williamson,30.64834941,-97.60105467,31.666666666666668,wmoUnit:degC,55,1,16093.44,wmoUnit:m,,,,,,
Nacogdoches,31.61604108,-94.6158776,29.444444444444443,wmoUnit:degC,61,1,16093.44,wmoUnit:m,,,,,,
Loving,31.84912973,-103.5799063,32.77777777777778,wmoUnit:degC,20,0,16077.34619165045,wmoUnit:m,,,,,,
Jim Wells,27.73131099,-98.0898649,27.22222222222222,wmoUnit:degC,85,3,16093.44,wmoUnit:m,HT,Y,Heat Advisory,Moderate,Expected,2025-05-24T09:45:00-05:00
Upton,31.36853957,-102.0430005,31.11111111111111,wmoUnit:degC,27,0,16093.44,wmoUnit:m,,,,,,
Newton,30.78619977,-93.74462993,27.77777777777778,wmoUnit:degC,74,17,16093.44,wmoUnit:m,,,Flood Warning,Severe,Immediate,2025-05-24T22:00:00-05:00
Lamar,33.66746186,-95.57110784,28.88888888888889,wmoUnit:degC,63,1,16093.44,wmoUnit:m,,,,,,
Polk,30.79250963,-94.82994949,28.88888888888889,wmoUnit:degC,67,48,16093.44,wmoUnit:m,,,Flood Warning,Severe,Immediate,2025-05-24T21:00:00-05:00
Collin,33.18789055,-96.57248871,31.11111111111111,wmoUnit:degC,59,1,16093.44,wmoUnit:m,,,,,,
Hardeman,34.28865227,-99.7453851,28.88888888888889,wmoUnit:degC,57,24,,,,,,,,
McMullen,28.35351091,-98.56842256,30.0,wmoUnit:degC,68,1,15707.197808349552,wmoUnit:m,,,,,,
Cottle,34.0776571,-100.2786983,27.77777777777778,wmoUnit:degC,58,22,12649.444054870599,wmoUnit:m,,,,,,
Frio,28.86726774,-99.10826004,33.333333333333336,wmoUnit:degC,46,1,16093.44,wmoUnit:m,,,,,,
Gray,35.40130666,-100.812475,25.555555555555557,wmoUnit:degC,62,14,,,,,,,,
Dallam,36.27777107,-102.6021647,28.88888888888889,wmoUnit:degC,20,0,,,,,,,,
Kenedy,26.92409448,-97.68137783,26.666666666666668,wmoUnit:degC,92,0,,,,,,,,
Fort Bend,29.52763253,-95.77090562,29.444444444444443,wmoUnit:degC,75,17,16093.44,wmoUnit:m,,,,,,
Armstrong,34.96522076,-101.3572412,26.11111111111111,wmoUnit:degC,64,13,,,,,,,,
Collingsworth,34.96498493,-100.2700733,26.666666666666668,wmoUnit:degC,56,17,,,,,,,,
Cass,33.07750446,-94.34348771,27.77777777777778,wmoUnit:degC,65,1,16093.44,wmoUnit:m,,,,,,
Sherman,36.27765824,-101.8933822,30.555555555555557,wmoUnit:degC,15,0,,,,,,,,
Terry,33.17373729,-102.335157,30.0,wmoUnit:degC,39,16,16077.34619165045,wmoUnit:m,,,,,,
Limestone,31.54541898,-96.58056718,29.444444444444443,wmoUnit:degC,65,1,16093.44,wmoUnit:m,,,,,,
Real,29.83182711,-99.82215881,29.444444444444443,wmoUnit:degC,54,2,16093.44,wmoUnit:m,,,,,,
Lynn,33.17685487,-101.8160235,31.666666666666668,wmoUnit:degC,35,22,16093.44,wmoUnit:m,,,,,,
Lavaca,29.38437003,-96.93020993,30.0,wmoUnit:degC,70,0,16093.44,wmoUnit:m,,,,,,
Nolan,32.3034718,-100.4060989,30.0,wmoUnit:degC,46,9,16093.44,wmoUnit:m,,,,,,
Gaines,32.74074537,-102.6351246,32.22222222222222,wmoUnit:degC,31,0,16093.44,wmoUnit:m,,,,,,
Montgomery,30.30022409,-95.50301411,24.444444444444443,wmoUnit:degC,94,47,16093.44,wmoUnit:m,,,,,,
Concho,31.32645211,-99.86413426,31.11111111111111,wmoUnit:degC,48,3,16093.44,wmoUnit:m,,,,,,
Hardin,30.33238431,-94.39021394,28.333333333333332,wmoUnit:degC,72,16,16077.34619165045,wmoUnit:m,,,,,,
Harris,29.85967144,-95.39782106,29.444444444444443,wmoUnit:degC,67,18,16093.44,wmoUnit:m,,,,,,
Leon,31.29655719,-95.99554292,28.333333333333332,wmoUnit:degC,70,1,16093.44,wmoUnit:m,,,,,,
Bowie,33.44572786,-94.42324298,27.77777777777778,wmoUnit:degC,67,2,16093.44,wmoUnit:m,,,,,,
Kaufman,32.59927808,-96.28779341,31.11111111111111,wmoUnit:degC,59,1,16093.44,wmoUnit:m,,,,,,
Anderson,31.81321543,-95.65251774,28.88888888888889,wmoUnit:degC,67,0,16093.44,wmoUnit:m,,,,,,
San Saba,31.15520543,-98.81754295,29.444444444444443,wmoUnit:degC,61,2,16093.44,wmoUnit:m,,,,,,
Schleicher,30.89661056,-100.538097,32.22222222222222,wmoUnit:degC,33,3,16093.44,wmoUnit:m,,,,,,
Colorado,29.6208542,-96.52630821,30.0,wmoUnit:degC,68,20,16093.44,wmoUnit:m,,,,,,
Milam,30.78625299,-96.97683495,32.22222222222222,wmoUnit:degC,54,1,16093.44,wmoUnit:m,,,,,,
Live Oak,28.3514375,-98.12474493,28.333333333333332,wmoUnit:degC,74,2,15047.367013915973,wmoUnit:m,,,,,,
Borden,32.7436916,-101.4317533,34.44444444444444,wmoUnit:degC,22,0,16093.44,wmoUnit:m,,,,,,
McCulloch,31.19896752,-99.34754972,29.444444444444443,wmoUnit:degC,57,2,16093.44,wmoUnit:m,,,,,,
Johnson,32.37899918,-97.36660504,31.11111111111111,wmoUnit:degC,59,0,16093.44,wmoUnit:m,,,,,,
Montague,33.67496328,-97.72466993,28.88888888888889,wmoUnit:degC,53,2,16093.44,wmoUnit:m,,,,,,
Stonewall,33.17842158,-100.255259,30.0,wmoUnit:degC,51,13,11394.15539721687,wmoUnit:m,,,,,,
Comal,29.80816362,-98.27814516,29.444444444444443,wmoUnit:degC,66,1,16093.44,wmoUnit:m,,,,,,
Eastland,32.32739258,-98.8325713,30.0,wmoUnit:degC,46,0,11265.408,wmoUnit:m,,,,,,
Comanche,31.9490639,-98.55841538,31.11111111111111,wmoUnit:degC,48,0,16093.44,wmoUnit:m,,,,,,
King,33.61641863,-100.2558584,29.444444444444443,wmoUnit:degC,51,21,9543.409643737756,wmoUnit:m,,,,,,
Washington,30.2145299,-96.40356575,27.77777777777778,wmoUnit:degC,67,24,16093.44,wmoUnit:m,,,,,,
Webb,27.76102524,-99.33170164,32.22222222222222,wmoUnit:degC,52,1,16093.44,wmoUnit:m,,,,,,
Fayette,29.87683207,-96.91968047,31.11111111111111,wmoUnit:degC,58,2,16093.44,wmoUnit:m,,,,,,
Harrison,32.54814898,-94.37155736,28.88888888888889,wmoUnit:degC,65,1,16093.44,wmoUnit:m,,,,,,
Presidio,29.99977786,-104.2405552,28.333333333333332,wmoUnit:degC,24,0,16093.44,wmoUnit:m,,,,,,
Austin,29.88711223,-96.27791829,29.444444444444443,wmoUnit:degC,67,21,16093.44,wmoUnit:m,,,,,,
Randall,34.96594288,-101.8968527,28.88888888888889,wmoUnit:degC,41,8,,,,,,,,
Hood,32.43107878,-97.83280338,31.11111111111111,wmoUnit:degC,54,0,16093.44,wmoUnit:m,,,,,,
Victoria,28.79640594,-96.97176602,26.666666666666668,wmoUnit:degC,85,4,14435.816109741198,wmoUnit:m,,,,,,
Hutchinson,35.84000866,-101.3547257,27.22222222222222,wmoUnit:degC,54,7,,,,,,,,
Coryell,31.39087578,-97.7991883,31.666666666666668,wmoUnit:degC,54,1,16093.44,wmoUnit:m,,,,,,
Jackson,28.95603133,-96.57883268,28.88888888888889,wmoUnit:degC,82,17,15916.412712524489,wmoUnit:m,,,,,,
Taylor,32.30138229,-99.89003941,28.88888888888889,wmoUnit:degC,55,7,16093.44,wmoUnit:m,,,,,,
Zapata,27.00089072,-99.16860134,31.11111111111111,wmoUnit:degC,56,1,,,,,,,,
San Patricio,28.00922186,-97.51859857,27.22222222222222,wmoUnit:degC,88,6,14274.881095825223,wmoUnit:m,HT,Y,Heat Advisory,Moderate,Expected,2025-05-24T09:45:00-05:00
Grimes,30.54360689,-95.98557334,26.11111111111111,wmoUnit:degC,79,25,16093.44,wmoUnit:m,,,,,,
Lamb,34.06861242,-102.3517095,27.22222222222222,wmoUnit:degC,30,5,15079.553095825224,wmoUnit:m,,,,,,
