countyName,latitude,longitude,temperature,temperature_unit,relativeHumidity,precipitationProbability,visibility,visibility_unit,hazard_phenomenon,hazard_significance,alert_event,alert_severity,alert_urgency,alert_expires
Foard,33.97408519,-99.77871109,28.333333333333332,wmoUnit:degC,63,36,,,FA,A,Flood Watch,Severe,Future,2025-06-09T03:00:00-05:00
Blanco,30.26636128,-98.39974086,32.22222222222222,wmoUnit:degC,55,0,16093.44,wmoUnit:m,,,,,,
Hockley,33.60750375,-102.3430919,33.888888888888886,wmoUnit:degC,28,25,15192.20668469238,wmoUnit:m,,,,,,
Llano,30.70566579,-98.68387398,33.888888888888886,wmoUnit:degC,49,4,16093.44,wmoUnit:m,,,,,,
Swisher,34.53064989,-101.734951,22.22222222222222,wmoUnit:degC,66,64,16093.44,wmoUnit:m,,,,,,
Titus,33.2160906,-94.96509786,30.555555555555557,wmoUnit:degC,70,19,16093.44,wmoUnit:m,SV,A,Severe Thunderstorm Watch,Severe,Future,2025-06-09T04:00:00-05:00
Navarro,32.04695429,-96.47248134,31.666666666666668,wmoUnit:degC,66,11,16093.44,wmoUnit:m,SV,A,Severe Thunderstorm Watch,Severe,Future,2025-06-09T04:00:00-05:00
Brazoria,29.19345387,-95.45578479,30.555555555555557,wmoUnit:degC,68,1,15884.225095825224,wmoUnit:m,,,Severe Thunderstorm Watch,Severe,Future,2025-06-09T07:00:00-05:00
Hidalgo,26.396627,-98.18088681,32.77777777777778,wmoUnit:degC,52,0,,,,,,,,
Archer,33.61539176,-98.68783437,31.666666666666668,wmoUnit:degC,62,21,,,FA,A,Flood Watch,Severe,Future,2025-06-09T03:00:00-05:00
Refugio,28.32681413,-97.16546961,32.22222222222222,wmoUnit:degC,62,0,16093.44,wmoUnit:m,,,,,,
Andrews,32.30506283,-102.6378839,37.77777777777778,wmoUnit:degC,16,8,16093.44,wmoUnit:m,,,,,,
Galveston,29.39424415,-94.96474975,29.444444444444443,wmoUnit:degC,75,0,11265.408,wmoUnit:m,,,Severe Thunderstorm Watch,Severe,Future,2025-06-09T07:00:00-05:00
De Witt,29.08201599,-97.35666976,31.666666666666668,wmoUnit:degC,65,0,16093.44,wmoUnit:m,,,,,,
Gonzales,29.45641495,-97.49279927,33.333333333333336,wmoUnit:degC,57,0,16093.44,wmoUnit:m,,,,,,
Wharton,29.2778362,-96.22197375,31.11111111111111,wmoUnit:degC,66,0,16093.44,wmoUnit:m,,,,,,
Fannin,33.59396919,-96.10656755,27.77777777777778,wmoUnit:degC,79,34,16093.44,wmoUnit:m,SV,A,,,,
Madison,30.96564645,-95.92818441,33.333333333333336,wmoUnit:degC,56,3,15803.757588867158,wmoUnit:m,,,Special Weather Statement,Moderate,Expected,2025-06-09T03:15:00-05:00
Moore,35.83768863,-101.8929556,18.333333333333332,wmoUnit:degC,78,47,,,,,,,,
Tyler,30.7712607,-94.37651432,32.77777777777778,wmoUnit:degC,60,5,16093.44,wmoUnit:m,SV,A,Severe Thunderstorm Watch,Severe,Future,2025-06-09T07:00:00-05:00
Lipscomb,36.27778432,-100.27317,22.77777777777778,wmoUnit:degC,68,42,,,,,,,,
Burleson,30.49246139,-96.62109399,35.0,wmoUnit:degC,48,0,16093.44,wmoUnit:m,,,Special Weather Statement,Moderate,Expected,2025-06-09T03:15:00-05:00
Jim Hogg,27.04340499,-98.6972921,33.333333333333336,wmoUnit:degC,44,0,,,,,,,,
Throckmorton,33.17753907,-99.21236832,30.555555555555557,wmoUnit:degC,55,59,9656.064,wmoUnit:m,SV,A,Flood Watch,Severe,Future,2025-06-09T04:00:00-05:00
Kleberg,27.43274395,-97.72889778,32.77777777777778,wmoUnit:degC,64,0,16093.44,wmoUnit:m,,,,,,
Shelby,31.79242191,-94.14495261,31.11111111111111,wmoUnit:degC,61,27,16093.44,wmoUnit:m,SV,A,Severe Thunderstorm Warning,Severe,Immediate,2025-06-09T03:15:00-05:00
Garza,33.17991074,-101.2984496,28.88888888888889,wmoUnit:degC,65,44,12375.855452087468,wmoUnit:m,,,,,,
Karnes,28.90493782,-97.85960621,33.888888888888886,wmoUnit:degC,51,0,16093.44,wmoUnit:m,,,,,,
Reeves,31.32307061,-103.693143,38.333333333333336,wmoUnit:degC,18,8,16093.44,wmoUnit:m,,,,,,
Houston,31.31764137,-95.42225367,32.77777777777778,wmoUnit:degC,62,4,15530.168986084027,wmoUnit:m,,,Special Weather Statement,Moderate,Expected,2025-06-09T03:15:00-05:00
El Paso,31.7686226,-106.2352229,37.77777777777778,wmoUnit:degC,6,0,16093.44,wmoUnit:m,HT,Y,,,,
Carson,35.40346802,-101.3542037,16.11111111111111,wmoUnit:degC,100,64,,,FA,A,,,,
Medina,29.35520493,-99.11008331,35.0,wmoUnit:degC,43,0,16093.44,wmoUnit:m,,,,,,
Wichita,33.98421585,-98.70153389,29.444444444444443,wmoUnit:degC,61,39,,,FA,A,Flood Warning,Severe,Expected,2025-06-09T08:45:00-05:00
Chambers,29.73912276,-94.60891308,31.11111111111111,wmoUnit:degC,66,0,16093.44,wmoUnit:m,,,Severe Thunderstorm Watch,Severe,Future,2025-06-09T07:00:00-05:00
Donley,34.96540246,-100.8140501,21.666666666666668,wmoUnit:degC,79,82,,,FA,A,,,,
Hopkins,33.14933822,-95.56414173,28.88888888888889,wmoUnit:degC,77,28,16093.44,wmoUnit:m,SV,A,,,,
Lampasas,31.19627791,-98.24142711,33.888888888888886,wmoUnit:degC,51,2,16093.44,wmoUnit:m,,,Severe Thunderstorm Watch,Severe,Future,2025-06-09T07:00:00-05:00
Falls,31.25317017,-96.93579511,32.77777777777778,wmoUnit:degC,58,1,16093.44,wmoUnit:m,,,Severe Thunderstorm Watch,Severe,Future,2025-06-09T07:00:00-05:00
Stephens,32.73584155,-98.83612016,28.88888888888889,wmoUnit:degC,59,46,16093.44,wmoUnit:m,SV,A,,,,
Travis,30.33423319,-97.78194654,35.0,wmoUnit:degC,51,0,16093.44,wmoUnit:m,,,,,,
Roberts,35.8385577,-100.8135689,21.11111111111111,wmoUnit:degC,87,60,,,FA,A,,,,
Crosby,33.61459873,-101.2998612,24.444444444444443,wmoUnit:degC,69,48,4811.938575347831,wmoUnit:m,,,,,,
Kerr,30.06153035,-99.35016969,32.77777777777778,wmoUnit:degC,52,1,16093.44,wmoUnit:m,,,,,,
Wood,32.78634374,-95.38206498,31.666666666666668,wmoUnit:degC,66,24,16093.44,wmoUnit:m,SV,A,Severe Thunderstorm Watch,Severe,Future,2025-06-09T04:00:00-05:00
Jack,33.23345819,-98.1725509,32.77777777777778,wmoUnit:degC,50,57,9656.064,wmoUnit:m,SV,A,,,,
Marion,32.79797929,-94.35725239,30.555555555555557,wmoUnit:degC,70,23,16093.44,wmoUnit:m,SV,A,Special Weather Statement,Moderate,Expected,2025-06-09T02:15:00-05:00
Hale,34.07051782,-101.8269082,25.555555555555557,wmoUnit:degC,62,50,12391.948493041933,wmoUnit:m,,,,,,
Jeff Davis,30.71559322,-104.1403539,31.666666666666668,wmoUnit:degC,16,15,16093.44,wmoUnit:m,,,,,,
Tarrant,32.77185236,-97.29116473,33.888888888888886,wmoUnit:degC,54,20,16093.44,wmoUnit:m,SV,A,Flash Flood Warning,Severe,Immediate,2025-06-09T03:00:00-05:00
Waller,30.01093722,-95.98768942,32.77777777777778,wmoUnit:degC,56,0,11426.342246521048,wmoUnit:m,,,Severe Thunderstorm Watch,Severe,Future,2025-06-09T07:00:00-05:00
Reagan,31.36617698,-101.5230108,36.111111111111114,wmoUnit:degC,31,8,16093.44,wmoUnit:m,,,,,,
Smith,32.37514553,-95.26909511,32.22222222222222,wmoUnit:degC,64,25,16093.44,wmoUnit:m,SV,A,Severe Thunderstorm Watch,Severe,Future,2025-06-09T04:00:00-05:00
Van Zandt,32.56368961,-95.8364862,30.555555555555557,wmoUnit:degC,65,11,16093.44,wmoUnit:m,SV,A,,,,
Cooke,33.638465,-97.21247642,32.22222222222222,wmoUnit:degC,62,73,9656.064,wmoUnit:m,SV,A,,,,
Zavala,28.86530621,-99.76102001,37.22222222222222,wmoUnit:degC,38,1,16093.44,wmoUnit:m,,,,,,
Hall,34.53074134,-100.6809876,19.444444444444443,wmoUnit:degC,97,84,16093.44,wmoUnit:m,,,,,,
Kendall,29.9446397,-98.71160511,31.666666666666668,wmoUnit:degC,61,0,16093.44,wmoUnit:m,,,,,,
Goliad,28.65708563,-97.42646082,33.333333333333336,wmoUnit:degC,52,0,16093.44,wmoUnit:m,,,,,,
Yoakum,33.17293501,-102.8278792,36.111111111111114,wmoUnit:degC,16,13,16093.44,wmoUnit:m,,,,,,
Knox,33.60614755,-99.74144313,32.22222222222222,wmoUnit:degC,42,23,,,FA,A,Flood Watch,Severe,Future,2025-06-09T03:00:00-05:00
McLennan,31.55234489,-97.20184883,32.22222222222222,wmoUnit:degC,60,3,16093.44,wmoUnit:m,SV,A,Severe Thunderstorm Watch,Severe,Future,2025-06-09T04:00:00-05:00
Brewster,29.81205836,-103.2518906,35.0,wmoUnit:degC,29,29,16093.44,wmoUnit:m,,,,,,
Panola,32.16222886,-94.30552858,30.555555555555557,wmoUnit:degC,65,27,16093.44,wmoUnit:m,SV,A,Severe Thunderstorm Watch,Severe,Future,2025-06-09T04:00:00-05:00
Bandera,29.74724753,-99.24637282,33.333333333333336,wmoUnit:degC,47,0,16093.44,wmoUnit:m,,,,,,
Parmer,34.53014507,-102.784594,30.0,wmoUnit:degC,40,30,6324.722027435299,wmoUnit:m,,,,,,
Rockwall,32.89786769,-96.40780584,32.22222222222222,wmoUnit:degC,66,21,16093.44,wmoUnit:m,SV,A,Flood Warning,Severe,Expected,2025-06-09T19:15:00-05:00
Trinity,31.0885069,-95.13551682,32.22222222222222,wmoUnit:degC,62,4,15771.571506958067,wmoUnit:m,,,Special Weather Statement,Moderate,Expected,2025-06-09T03:15:00-05:00
Bosque,31.90050476,-97.63437613,32.22222222222222,wmoUnit:degC,58,21,16093.44,wmoUnit:m,SV,A,Severe Thunderstorm Watch,Severe,Future,2025-06-09T04:00:00-05:00
Coke,31.88849293,-100.5298747,36.111111111111114,wmoUnit:degC,35,31,16093.44,wmoUnit:m,,,,,,
Franklin,33.17550691,-95.21841437,30.555555555555557,wmoUnit:degC,70,19,16093.44,wmoUnit:m,SV,A,Severe Thunderstorm Watch,Severe,Future,2025-06-09T04:00:00-05:00
Hill,31.99079033,-97.1324142,30.555555555555557,wmoUnit:degC,65,25,16093.44,wmoUnit:m,SV,A,Severe Thunderstorm Watch,Severe,Future,2025-06-09T04:00:00-05:00
Calhoun,28.48966896,-96.64708119,31.666666666666668,wmoUnit:degC,66,0,16093.44,wmoUnit:m,,,,,,
Irion,31.30393203,-100.9824126,34.44444444444444,wmoUnit:degC,36,15,16093.44,wmoUnit:m,,,,,,
Midland,31.86921148,-102.0315032,36.111111111111114,wmoUnit:degC,30,19,16093.44,wmoUnit:m,,,,,,
Brown,31.77432313,-98.99989649,33.333333333333336,wmoUnit:degC,52,24,16093.44,wmoUnit:m,,,Severe Thunderstorm Warning,Severe,Immediate,2025-06-09T02:15:00-05:00
Wilson,29.17315896,-98.08621015,33.333333333333336,wmoUnit:degC,54,0,16093.44,wmoUnit:m,,,,,,
Oldham,35.40497586,-102.6029949,25.0,wmoUnit:degC,67,45,,,,,,,,
Freestone,31.70486443,-96.14918535,31.11111111111111,wmoUnit:degC,68,4,16093.44,wmoUnit:m,SV,A,Severe Thunderstorm Watch,Severe,Future,2025-06-09T04:00:00-05:00
Sabine,31.34321941,-93.85170439,32.22222222222222,wmoUnit:degC,64,24,16093.44,wmoUnit:m,SV,A,Severe Thunderstorm Warning,Severe,Immediate,2025-06-09T03:15:00-05:00
Deaf Smith,34.96602014,-102.6048162,30.555555555555557,wmoUnit:degC,43,45,,,,,,,,
Angelina,31.25475875,-94.611742,33.333333333333336,wmoUnit:degC,60,21,16093.44,wmoUnit:m,SV,A,Special Weather Statement,Moderate,Expected,2025-06-09T02:45:00-05:00
Kent,33.18284492,-100.7791031,22.77777777777778,wmoUnit:degC,87,50,13969.106411132843,wmoUnit:m,,,,,,
Red River,33.62074539,-95.0501886,31.666666666666668,wmoUnit:degC,66,18,16093.44,wmoUnit:m,SV,A,Severe Thunderstorm Watch,Severe,Future,2025-06-09T04:00:00-05:00
Kinney,29.35000302,-100.4178441,35.55555555555556,wmoUnit:degC,35,3,16093.44,wmoUnit:m,,,,,,
Denton,33.205574,-97.11681154,34.44444444444444,wmoUnit:degC,54,43,16093.44,wmoUnit:m,SV,A,Flash Flood Warning,Severe,Immediate,2025-06-09T02:30:00-05:00
Sutton,30.49747152,-100.5382263,33.333333333333336,wmoUnit:degC,41,10,16093.44,wmoUnit:m,,,,,,
Guadalupe,29.58257236,-97.94850308,35.0,wmoUnit:degC,47,0,16093.44,wmoUnit:m,,,,,,
Winkler,31.85008609,-103.0484794,37.22222222222222,wmoUnit:degC,21,6,16093.44,wmoUnit:m,,,,,,
Dimmit,28.42161168,-99.760574,38.333333333333336,wmoUnit:degC,36,1,16093.44,wmoUnit:m,,,,,,
Wise,33.21585061,-97.65444124,33.888888888888886,wmoUnit:degC,47,40,16093.44,wmoUnit:m,SV,A,,,,
Hemphill,35.83750155,-100.2704628,20.0,wmoUnit:degC,70,63,,,FA,A,,,,
Potter,35.40128927,-101.8940484,18.333333333333332,wmoUnit:degC,97,58,,,,,,,,
Childress,34.52929257,-100.2075664,20.555555555555557,wmoUnit:degC,90,88,16093.44,wmoUnit:m,,,,,,
Willacy,26.47132899,-97.64303323,29.444444444444443,wmoUnit:degC,75,0,,,,,,,,
Bastrop,30.10353518,-97.31187705,32.77777777777778,wmoUnit:degC,59,0,16093.44,wmoUnit:m,,,,,,
Kimble,30.48676251,-99.74892716,33.333333333333336,wmoUnit:degC,49,3,16093.44,wmoUnit:m,,,,,,
Scurry,32.74720063,-100.9165071,36.111111111111114,wmoUnit:degC,31,46,16093.44,wmoUnit:m,,,,,,
Ochiltree,36.27846334,-100.815653,21.11111111111111,wmoUnit:degC,84,41,,,,,,,,
Hansford,36.27753179,-101.3545624,19.444444444444443,wmoUnit:degC,87,37,,,,,,,,
Hartley,35.83996755,-102.6028835,21.666666666666668,wmoUnit:degC,71,42,,,,,,,,
Cameron,26.13847728,-97.51499968,30.0,wmoUnit:degC,72,0,,,,,,,,
Matagorda,28.86711039,-95.98533866,30.0,wmoUnit:degC,72,2,16077.34619165045,wmoUnit:m,,,Rip Current Statement,Moderate,Expected,2025-06-08T21:15:00-05:00
Burnet,30.78843382,-98.18252382,33.333333333333336,wmoUnit:degC,51,2,16093.44,wmoUnit:m,SV,A,Severe Thunderstorm Watch,Severe,Future,2025-06-09T07:00:00-05:00
Rains,32.87004212,-95.79347545,31.11111111111111,wmoUnit:degC,68,24,16093.44,wmoUnit:m,SV,A,,,,
Hays,30.05782657,-98.03104087,33.888888888888886,wmoUnit:degC,52,0,16093.44,wmoUnit:m,,,,,,
Mason,30.71742293,-99.2263026,33.333333333333336,wmoUnit:degC,49,4,16093.44,wmoUnit:m,,,,,,
Ward,31.509424,-103.1024636,36.666666666666664,wmoUnit:degC,25,8,16093.44,wmoUnit:m,,,,,,
Delta,33.38623601,-95.67221685,28.333333333333332,wmoUnit:degC,85,22,16093.44,wmoUnit:m,SV,A,,,,
Nueces,27.72621549,-97.61767326,33.333333333333336,wmoUnit:degC,60,0,16093.44,wmoUnit:m,,,,,,
Callahan,32.2977738,-99.37359692,33.888888888888886,wmoUnit:degC,46,38,16093.44,wmoUnit:m,SV,A,Severe Thunderstorm Warning,Severe,Immediate,2025-06-09T02:15:00-05:00
Bell,31.03778267,-97.47790776,34.44444444444444,wmoUnit:degC,51,1,16093.44,wmoUnit:m,,,Severe Thunderstorm Watch,Severe,Future,2025-06-09T07:00:00-05:00
Cherokee,31.83695632,-95.16515234,31.666666666666668,wmoUnit:degC,61,24,16093.44,wmoUnit:m,SV,A,Special Weather Statement,Moderate,Expected,2025-06-09T02:45:00-05:00
Ellis,32.34839264,-96.79467417,31.11111111111111,wmoUnit:degC,68,9,16093.44,wmoUnit:m,SV,A,Severe Thunderstorm Watch,Severe,Future,2025-06-09T04:00:00-05:00
Lubbock,33.6101944,-101.8205745,34.44444444444444,wmoUnit:degC,35,39,3106.0338355865274,wmoUnit:m,,,,,,
Terrell,30.22502597,-102.0764533,36.111111111111114,wmoUnit:degC,34,24,16093.44,wmoUnit:m,,,,,,
Crockett,30.72291931,-101.4118364,32.77777777777778,wmoUnit:degC,37,16,16093.44,wmoUnit:m,,,,,,
Atascosa,28.89418432,-98.52741302,35.55555555555556,wmoUnit:degC,43,0,16093.44,wmoUnit:m,,,,,,
Ector,31.86908156,-102.5430907,35.0,wmoUnit:degC,28,11,16093.44,wmoUnit:m,,,,,,
Brazos,30.6610425,-96.3022943,33.888888888888886,wmoUnit:degC,54,1,15996.878684692381,wmoUnit:m,,,Special Weather Statement,Moderate,Expected,2025-06-09T03:15:00-05:00
Aransas,28.12709562,-96.99258951,30.0,wmoUnit:degC,77,0,16093.44,wmoUnit:m,,,,,,
Dallas,32.76653746,-96.77781862,35.0,wmoUnit:degC,51,17,16093.44,wmoUnit:m,SV,A,Flood Warning,Severe,Expected,2025-06-09T18:30:00-05:00
Howard,32.30610232,-101.4355097,35.55555555555556,wmoUnit:degC,29,37,16093.44,wmoUnit:m,,,,,,
Motley,34.07409017,-100.7798961,22.77777777777778,wmoUnit:degC,71,77,16061.252383300736,wmoUnit:m,,,,,,
San Augustine,31.39427005,-94.16809762,32.77777777777778,wmoUnit:degC,62,23,16093.44,wmoUnit:m,SV,A,Special Weather Statement,Moderate,Expected,2025-06-09T02:45:00-05:00
Maverick,28.74260943,-100.3144638,39.44444444444444,wmoUnit:degC,29,1,16093.44,wmoUnit:m,,,,,,
Erath,32.23640361,-98.21722756,27.22222222222222,wmoUnit:degC,56,6,16093.44,wmoUnit:m,SV,A,Severe Thunderstorm Watch,Severe,Future,2025-06-09T04:00:00-05:00
Dickens,33.61663428,-100.7788138,22.77777777777778,wmoUnit:degC,73,59,14162.227506958066,wmoUnit:m,,,,,,
Caldwell,29.83677935,-97.61983479,35.0,wmoUnit:degC,48,0,16093.44,wmoUnit:m,,,,,,
Dawson,32.74258137,-101.9476136,35.55555555555556,wmoUnit:degC,25,16,16093.44,wmoUnit:m,,,,,,
Camp,32.97321771,-94.97860185,30.555555555555557,wmoUnit:degC,68,21,16093.44,wmoUnit:m,SV,A,Severe Thunderstorm Watch,Severe,Future,2025-06-09T04:00:00-05:00
Duval,27.68133382,-98.50889672,37.22222222222222,wmoUnit:degC,39,0,16093.44,wmoUnit:m,,,,,,
Hunt,33.123531,-96.08550014,28.88888888888889,wmoUnit:degC,91,23,16093.44,wmoUnit:m,SV,A,Flood Warning,Severe,Expected,2025-06-09T19:15:00-05:00
Mills,31.49524259,-98.59552736,32.22222222222222,wmoUnit:degC,56,4,16093.44,wmoUnit:m,,,Severe Thunderstorm Watch,Severe,Future,2025-06-09T07:00:00-05:00
Val Verde,29.89300587,-101.15171,34.44444444444444,wmoUnit:degC,39,6,16093.44,wmoUnit:m,,,,,,
Pecos,30.78100044,-102.7235743,30.555555555555557,wmoUnit:degC,40,20,16093.44,wmoUnit:m,,,,,,
Baylor,33.61648147,-99.21351964,31.11111111111111,wmoUnit:degC,48,21,,,FA,A,Flood Watch,Severe,Future,2025-06-09T03:00:00-05:00
Gregg,32.48036452,-94.81723694,32.22222222222222,wmoUnit:degC,60,25,16093.44,wmoUnit:m,SV,A,Severe Thunderstorm Watch,Severe,Future,2025-06-09T04:00:00-05:00
Cochran,33.60410808,-102.8285264,33.333333333333336,wmoUnit:degC,22,16,16093.44,wmoUnit:m,,,,,,
Jasper,30.74391255,-94.02495849,32.77777777777778,wmoUnit:degC,62,10,16093.44,wmoUnit:m,SV,A,Severe Thunderstorm Watch,Severe,Future,2025-06-09T07:00:00-05:00
Hamilton,31.70479181,-98.11066654,32.77777777777778,wmoUnit:degC,50,1,16093.44,wmoUnit:m,SV,A,Severe Thunderstorm Watch,Severe,Future,2025-06-09T04:00:00-05:00
Castro,34.53000304,-102.2617608,29.444444444444443,wmoUnit:degC,53,44,15723.291616699264,wmoUnit:m,,,,,,
Sterling,31.82786516,-101.0500699,36.666666666666664,wmoUnit:degC,33,27,16093.44,wmoUnit:m,,,,,,
Starr,26.56212627,-98.73834895,33.333333333333336,wmoUnit:degC,44,0,,,,,,,,
Crane,31.42846287,-102.5156425,35.0,wmoUnit:degC,33,10,16093.44,wmoUnit:m,,,,,,
Morris,33.11368507,-94.73205137,30.555555555555557,wmoUnit:degC,70,19,16093.44,wmoUnit:m,SV,A,Severe Thunderstorm Watch,Severe,Future,2025-06-09T04:00:00-05:00
Briscoe,34.53041048,-101.2085769,17.77777777777778,wmoUnit:degC,90,75,16093.44,wmoUnit:m,,,,,,
Tom Green,31.4044442,-100.4620678,34.44444444444444,wmoUnit:degC,44,17,16093.44,wmoUnit:m,,,,,,
Menard,30.88981785,-99.82061472,33.333333333333336,wmoUnit:degC,47,6,16093.44,wmoUnit:m,,,,,,
Parker,32.77852261,-97.80472194,30.0,wmoUnit:degC,65,25,16093.44,wmoUnit:m,SV,A,,,,
Walker,30.73899492,-95.57224172,32.77777777777778,wmoUnit:degC,60,3,15787.665315307619,wmoUnit:m,,,Special Weather Statement,Moderate,Expected,2025-06-09T03:15:00-05:00
Brooks,27.0315669,-98.21874127,32.77777777777778,wmoUnit:degC,57,0,,,,,,,,
La Salle,28.34621032,-99.1034773,39.44444444444444,wmoUnit:degC,33,0,16093.44,wmoUnit:m,,,,,,
Edwards,29.98248216,-100.3048937,32.22222222222222,wmoUnit:degC,46,2,16093.44,wmoUnit:m,,,,,,
Lee,30.31065065,-96.96568735,34.44444444444444,wmoUnit:degC,48,0,16093.44,wmoUnit:m,SV,A,Severe Thunderstorm Watch,Severe,Future,2025-06-09T07:00:00-05:00
Robertson,31.02705415,-96.51272568,33.333333333333336,wmoUnit:degC,54,0,16093.44,wmoUnit:m,,,Severe Thunderstorm Watch,Severe,Future,2025-06-09T04:00:00-05:00
Young,33.17670764,-98.68781396,32.22222222222222,wmoUnit:degC,52,79,9656.064,wmoUnit:m,SV,A,,,,
Bee,28.41736675,-97.74116811,33.888888888888886,wmoUnit:degC,49,0,16093.44,wmoUnit:m,,,,,,
Clay,33.78379717,-98.208958,31.11111111111111,wmoUnit:degC,65,31,,,FA,A,Flood Advisory,Minor,Expected,2025-06-09T08:45:00-05:00
San Jacinto,30.57948905,-95.16683273,31.666666666666668,wmoUnit:degC,66,2,16012.972493041932,wmoUnit:m,,,Special Weather Statement,Moderate,Expected,2025-06-09T03:15:00-05:00
Uvalde,29.35669829,-99.76203107,35.55555555555556,wmoUnit:degC,38,1,16093.44,wmoUnit:m,,,,,,
Haskell,33.17824805,-99.73029401,31.11111111111111,wmoUnit:degC,47,56,9656.064,wmoUnit:m,SV,A,Flood Watch,Severe,Future,2025-06-09T04:00:00-05:00
Somervell,32.22229511,-97.77456553,30.555555555555557,wmoUnit:degC,65,26,16093.44,wmoUnit:m,SV,A,Severe Thunderstorm Watch,Severe,Future,2025-06-09T04:00:00-05:00
Bexar,29.44884523,-98.51966309,35.0,wmoUnit:degC,48,0,16093.44,wmoUnit:m,,,,,,
Grayson,33.62684371,-96.67764864,31.11111111111111,wmoUnit:degC,61,51,16093.44,wmoUnit:m,SV,A,,,,
Bailey,34.0684915,-102.8299069,31.11111111111111,wmoUnit:degC,22,15,11152.753643737757,wmoUnit:m,,,,,,
Jones,32.73970429,-99.87850599,34.44444444444444,wmoUnit:degC,46,38,16093.44,wmoUnit:m,SV,A,,,,
Jefferson,29.88425832,-94.1708778,30.555555555555557,wmoUnit:degC,68,0,16093.44,wmoUnit:m,SV,A,Severe Thunderstorm Watch,Severe,Future,2025-06-09T07:00:00-05:00
Rusk,32.10803224,-94.76169577,31.666666666666668,wmoUnit:degC,64,25,16093.44,wmoUnit:m,SV,A,Special Weather Statement,Moderate,Expected,2025-06-09T02:45:00-05:00
Glasscock,31.8694238,-101.520742,36.111111111111114,wmoUnit:degC,32,24,16093.44,wmoUnit:m,,,,,,
Gillespie,30.31800246,-98.94627245,30.555555555555557,wmoUnit:degC,60,1,16093.44,wmoUnit:m,,,,,,
Fisher,32.74305155,-100.4019503,33.888888888888886,wmoUnit:degC,39,44,16093.44,wmoUnit:m,SV,A,,,,
Henderson,32.21188078,-95.85356847,31.11111111111111,wmoUnit:degC,63,9,16093.44,wmoUnit:m,SV,A,Severe Thunderstorm Watch,Severe,Future,2025-06-09T04:00:00-05:00
Shackelford,32.7360276,-99.35403034,31.11111111111111,wmoUnit:degC,57,40,9656.064,wmoUnit:m,SV,A,,,,
Palo Pinto,32.75316856,-98.31299522,27.22222222222222,wmoUnit:degC,65,27,16093.44,wmoUnit:m,SV,A,,,,
Wilbarger,34.08044953,-99.24089568,28.88888888888889,wmoUnit:degC,60,35,,,FA,A,Flood Warning,Severe,Expected,2025-06-09T08:45:00-05:00
Floyd,34.07239775,-101.3033037,22.77777777777778,wmoUnit:degC,59,64,12778.191452087469,wmoUnit:m,,,,,,
Orange,30.12807126,-93.89653794,30.555555555555557,wmoUnit:degC,65,1,16093.44,wmoUnit:m,SV,A,Severe Thunderstorm Watch,Severe,Future,2025-06-09T07:00:00-05:00
Runnels,31.83105393,-99.97624799,35.55555555555556,wmoUnit:degC,38,30,16093.44,wmoUnit:m,,,,,,
Coleman,31.77329421,-99.45362579,35.0,wmoUnit:degC,40,26,16093.44,wmoUnit:m,,,Severe Thunderstorm Warning,Severe,Immediate,2025-06-09T02:15:00-05:00
Martin,32.30605847,-101.9512464,35.55555555555556,wmoUnit:degC,28,24,16093.44,wmoUnit:m,,,,,,
Wheeler,35.40129002,-100.2697634,20.0,wmoUnit:degC,81,73,,,FA,A,,,,
Culberson,31.44709817,-104.5177421,36.666666666666664,wmoUnit:degC,8,3,16093.44,wmoUnit:m,,,,,,
Mitchell,32.30636024,-100.9211128,37.22222222222222,wmoUnit:degC,28,37,16093.44,wmoUnit:m,,,,,,
Hudspeth,31.45613738,-105.3869428,36.666666666666664,wmoUnit:degC,8,0,16093.44,wmoUnit:m,,,,,,
Upshur,32.7362827,-94.94132011,31.11111111111111,wmoUnit:degC,66,24,16093.44,wmoUnit:m,SV,A,Severe Thunderstorm Watch,Severe,Future,2025-06-09T04:00:00-05:00
Liberty,30.15153187,-94.8120925,32.22222222222222,wmoUnit:degC,60,0,16093.44,wmoUnit:m,,,Severe Thunderstorm Watch,Severe,Future,2025-06-09T07:00:00-05:00
Williamson,30.64834941,-97.60105467,35.0,wmoUnit:degC,54,0,16093.44,wmoUnit:m,SV,A,Severe Thunderstorm Watch,Severe,Future,2025-06-09T07:00:00-05:00
Nacogdoches,31.61604108,-94.6158776,32.77777777777778,wmoUnit:degC,62,24,16093.44,wmoUnit:m,SV,A,Special Weather Statement,Moderate,Expected,2025-06-09T02:45:00-05:00
Loving,31.84912973,-103.5799063,38.888888888888886,wmoUnit:degC,15,5,16093.44,wmoUnit:m,,,,,,
Jim Wells,27.73131099,-98.0898649,35.0,wmoUnit:degC,53,0,16093.44,wmoUnit:m,,,,,,
Upton,31.36853957,-102.0430005,35.55555555555556,wmoUnit:degC,29,9,16093.44,wmoUnit:m,,,,,,
Newton,30.78619977,-93.74462993,31.666666666666668,wmoUnit:degC,64,14,16093.44,wmoUnit:m,SV,A,Severe Thunderstorm Watch,Severe,Future,2025-06-09T07:00:00-05:00
Lamar,33.66746186,-95.57110784,28.333333333333332,wmoUnit:degC,82,30,16093.44,wmoUnit:m,SV,A,,,,
Polk,30.79250963,-94.82994949,32.77777777777778,wmoUnit:degC,58,8,16029.066301391646,wmoUnit:m,,,Special Weather Statement,Moderate,Expected,2025-06-09T03:15:00-05:00
Collin,33.18789055,-96.57248871,30.0,wmoUnit:degC,63,36,16093.44,wmoUnit:m,SV,A,Flash Flood Warning,Severe,Immediate,2025-06-09T02:30:00-05:00
Hardeman,34.28865227,-99.7453851,26.11111111111111,wmoUnit:degC,74,43,,,FA,A,Flood Watch,Severe,Future,2025-06-09T03:00:00-05:00
McMullen,28.35351091,-98.56842256,38.888888888888886,wmoUnit:degC,37,0,16093.44,wmoUnit:m,,,,,,
Cottle,34.0776571,-100.2786983,22.77777777777778,wmoUnit:degC,76,86,16093.44,wmoUnit:m,,,,,,
Frio,28.86726774,-99.10826004,36.666666666666664,wmoUnit:degC,39,1,16093.44,wmoUnit:m,,,,,,
Gray,35.40130666,-100.812475,18.88888888888889,wmoUnit:degC,90,69,,,FA,A,,,,
Dallam,36.27777107,-102.6021647,21.666666666666668,wmoUnit:degC,79,27,,,,,,,,
Kenedy,26.92409448,-97.68137783,29.444444444444443,wmoUnit:degC,79,0,,,,,,,,
Fort Bend,29.52763253,-95.77090562,32.22222222222222,wmoUnit:degC,60,0,13132.246794433579,wmoUnit:m,,,Severe Thunderstorm Watch,Severe,Future,2025-06-09T07:00:00-05:00
Armstrong,34.96522076,-101.3572412,21.11111111111111,wmoUnit:degC,71,73,,,FA,A,,,,
Collingsworth,34.96498493,-100.2700733,22.77777777777778,wmoUnit:degC,87,84,,,FA,A,,,,
Cass,33.07750446,-94.34348771,30.0,wmoUnit:degC,70,19,16093.44,wmoUnit:m,SV,A,Special Weather Statement,Moderate,Expected,2025-06-09T02:15:00-05:00
Sherman,36.27765824,-101.8933822,20.555555555555557,wmoUnit:degC,84,32,,,,,,,,
Terry,33.17373729,-102.335157,36.111111111111114,wmoUnit:degC,19,19,15787.665315307619,wmoUnit:m,,,,,,
Limestone,31.54541898,-96.58056718,32.22222222222222,wmoUnit:degC,56,1,16093.44,wmoUnit:m,SV,A,Severe Thunderstorm Watch,Severe,Future,2025-06-09T04:00:00-05:00
Real,29.83182711,-99.82215881,32.22222222222222,wmoUnit:degC,46,1,16093.44,wmoUnit:m,,,,,,
Lynn,33.17685487,-101.8160235,35.55555555555556,wmoUnit:degC,32,32,8738.737643737755,wmoUnit:m,,,,,,
Lavaca,29.38437003,-96.93020993,31.666666666666668,wmoUnit:degC,69,0,16093.44,wmoUnit:m,,,,,,
Nolan,32.3034718,-100.4060989,35.55555555555556,wmoUnit:degC,32,41,16093.44,wmoUnit:m,SV,A,,,,
Gaines,32.74074537,-102.6351246,37.77777777777778,wmoUnit:degC,15,6,16093.44,wmoUnit:m,,,,,,
Montgomery,30.30022409,-95.50301411,32.22222222222222,wmoUnit:degC,56,1,16077.34619165045,wmoUnit:m,SV,A,Special Weather Statement,Moderate,Expected,2025-06-09T03:15:00-05:00
Concho,31.32645211,-99.86413426,32.77777777777778,wmoUnit:degC,49,17,16093.44,wmoUnit:m,,,,,,
Hardin,30.33238431,-94.39021394,31.666666666666668,wmoUnit:degC,64,1,16093.44,wmoUnit:m,SV,A,Severe Thunderstorm Watch,Severe,Future,2025-06-09T07:00:00-05:00
Harris,29.85967144,-95.39782106,32.22222222222222,wmoUnit:degC,58,0,15739.383890258803,wmoUnit:m,SV,A,Severe Thunderstorm Watch,Severe,Future,2025-06-09T07:00:00-05:00
Leon,31.29655719,-95.99554292,32.22222222222222,wmoUnit:degC,64,3,16093.44,wmoUnit:m,,,Severe Thunderstorm Watch,Severe,Future,2025-06-09T04:00:00-05:00
Bowie,33.44572786,-94.42324298,31.11111111111111,wmoUnit:degC,70,18,16093.44,wmoUnit:m,SV,A,Severe Thunderstorm Watch,Severe,Future,2025-06-09T04:00:00-05:00
Kaufman,32.59927808,-96.28779341,31.666666666666668,wmoUnit:degC,66,10,16093.44,wmoUnit:m,SV,A,,,,
Anderson,31.81321543,-95.65251774,31.11111111111111,wmoUnit:degC,68,7,16093.44,wmoUnit:m,SV,A,Severe Thunderstorm Watch,Severe,Future,2025-06-09T04:00:00-05:00
San Saba,31.15520543,-98.81754295,33.333333333333336,wmoUnit:degC,52,12,16093.44,wmoUnit:m,,,,,,
Schleicher,30.89661056,-100.538097,33.888888888888886,wmoUnit:degC,37,5,16093.44,wmoUnit:m,,,,,,
Colorado,29.6208542,-96.52630821,31.11111111111111,wmoUnit:degC,61,0,16077.34619165045,wmoUnit:m,,,,,,
Milam,30.78625299,-96.97683495,33.888888888888886,wmoUnit:degC,49,0,16093.44,wmoUnit:m,,,Severe Thunderstorm Watch,Severe,Future,2025-06-09T07:00:00-05:00
Live Oak,28.3514375,-98.12474493,36.666666666666664,wmoUnit:degC,43,0,16093.44,wmoUnit:m,,,,,,
Borden,32.7436916,-101.4317533,35.55555555555556,wmoUnit:degC,29,34,16093.44,wmoUnit:m,,,,,,
McCulloch,31.19896752,-99.34754972,32.77777777777778,wmoUnit:degC,49,14,16093.44,wmoUnit:m,,,,,,
Johnson,32.37899918,-97.36660504,31.666666666666668,wmoUnit:degC,68,12,16093.44,wmoUnit:m,SV,A,Severe Thunderstorm Watch,Severe,Future,2025-06-09T04:00:00-05:00
Montague,33.67496328,-97.72466993,30.555555555555557,wmoUnit:degC,70,83,9656.064,wmoUnit:m,SV,A,,,,
Stonewall,33.17842158,-100.255259,25.0,wmoUnit:degC,85,54,2140.427589065481,wmoUnit:m,,,,,,
Comal,29.80816362,-98.27814516,32.77777777777778,wmoUnit:degC,55,0,16093.44,wmoUnit:m,,,,,,
Eastland,32.32739258,-98.8325713,29.444444444444443,wmoUnit:degC,53,14,16093.44,wmoUnit:m,SV,A,Severe Thunderstorm Watch,Severe,Future,2025-06-09T04:00:00-05:00
Comanche,31.9490639,-98.55841538,29.444444444444443,wmoUnit:degC,59,5,16093.44,wmoUnit:m,SV,A,Severe Thunderstorm Watch,Severe,Future,2025-06-09T04:00:00-05:00
King,33.61641863,-100.2558584,20.555555555555557,wmoUnit:degC,87,73,14001.292493041934,wmoUnit:m,,,,,,
Washington,30.2145299,-96.40356575,31.666666666666668,wmoUnit:degC,59,0,15304.861808349551,wmoUnit:m,SV,A,Severe Thunderstorm Watch,Severe,Future,2025-06-09T07:00:00-05:00
Webb,27.76102524,-99.33170164,38.333333333333336,wmoUnit:degC,33,0,16093.44,wmoUnit:m,,,,,,
Fayette,29.87683207,-96.91968047,33.888888888888886,wmoUnit:degC,55,0,16093.44,wmoUnit:m,,,,,,
Harrison,32.54814898,-94.37155736,30.0,wmoUnit:degC,70,25,16093.44,wmoUnit:m,SV,A,Special Weather Statement,Moderate,Expected,2025-06-09T02:15:00-05:00
Presidio,29.99977786,-104.2405552,35.55555555555556,wmoUnit:degC,16,19,16093.44,wmoUnit:m,,,,,,
Austin,29.88711223,-96.27791829,31.11111111111111,wmoUnit:degC,59,0,13888.638904174775,wmoUnit:m,,,,,,
Randall,34.96594288,-101.8968527,22.77777777777778,wmoUnit:degC,76,59,,,,,,,,
Hood,32.43107878,-97.83280338,28.333333333333332,wmoUnit:degC,80,9,16093.44,wmoUnit:m,SV,A,Severe Thunderstorm Watch,Severe,Future,2025-06-09T04:00:00-05:00
Victoria,28.79640594,-96.97176602,32.77777777777778,wmoUnit:degC,60,0,16093.44,wmoUnit:m,,,,,,
Hutchinson,35.84000866,-101.3547257,18.88888888888889,wmoUnit:degC,90,52,,,FA,A,,,,
Coryell,31.39087578,-97.7991883,33.888888888888886,wmoUnit:degC,56,2,16093.44,wmoUnit:m,,,Severe Thunderstorm Watch,Severe,Future,2025-06-09T07:00:00-05:00
Jackson,28.95603133,-96.57883268,30.0,wmoUnit:degC,70,0,16061.252383300736,wmoUnit:m,,,,,,
Taylor,32.30138229,-99.89003941,35.0,wmoUnit:degC,36,45,16093.44,wmoUnit:m,SV,A,Flash Flood Warning,Severe,Immediate,2025-06-09T02:45:00-05:00
Zapata,27.00089072,-99.16860134,34.44444444444444,wmoUnit:degC,41,0,,,,,,,,
San Patricio,28.00922186,-97.51859857,32.77777777777778,wmoUnit:degC,64,0,16093.44,wmoUnit:m,,,,,,
Grimes,30.54360689,-95.98557334,33.333333333333336,wmoUnit:degC,52,1,15900.318904174776,wmoUnit:m,SV,A,Special Weather Statement,Moderate,Expected,2025-06-09T03:15:00-05:00
Lamb,34.06861242,-102.3517095,31.666666666666668,wmoUnit:degC,45,27,14677.217095825225,wmoUnit:m,,,,,,
