countyName,latitude,longitude,temperature,temperature_unit,relativeHumidity,precipitationProbability,visibility,visibility_unit,hazard_phenomenon,hazard_significance,alert_event,alert_severity,alert_urgency,alert_expires
Foard,33.97408519,-99.77871109,23.88888888888889,wmoUnit:degC,55,15,,,,,,,,
Blanco,30.26636128,-98.39974086,22.22222222222222,wmoUnit:degC,85,21,16093.44,wmoUnit:m,,,,,,
Hockley,33.60750375,-102.3430919,19.444444444444443,wmoUnit:degC,42,23,16093.44,wmoUnit:m,,,,,,
Llano,30.70566579,-98.68387398,23.333333333333332,wmoUnit:degC,74,28,16093.44,wmoUnit:m,,,,,,
Swisher,34.53064989,-101.734951,15.0,wmoUnit:degC,80,14,16093.44,wmoUnit:m,,,,,,
Titus,33.2160906,-94.96509786,21.11111111111111,wmoUnit:degC,77,1,16093.44,wmoUnit:m,,,,,,
Navarro,32.04695429,-96.47248134,23.333333333333332,wmoUnit:degC,74,4,16093.44,wmoUnit:m,,,,,,
Brazoria,29.19345387,-95.45578479,23.333333333333332,wmoUnit:degC,97,0,15433.609205566421,wmoUnit:m,,,,,,
Hidalgo,26.396627,-98.18088681,24.444444444444443,wmoUnit:degC,87,15,,,,,,,,
Archer,33.61539176,-98.68783437,22.22222222222222,wmoUnit:degC,64,5,,,SV,A,,,,
Refugio,28.32681413,-97.16546961,22.77777777777778,wmoUnit:degC,90,2,11088.379945129402,wmoUnit:m,,,,,,
Andrews,32.30506283,-102.6378839,21.666666666666668,wmoUnit:degC,25,0,16093.44,wmoUnit:m,,,,,,
Galveston,29.39424415,-94.96474975,23.333333333333332,wmoUnit:degC,79,0,14612.84339721687,wmoUnit:m,,,,,,
De Witt,29.08201599,-97.35666976,23.333333333333332,wmoUnit:degC,88,14,16093.44,wmoUnit:m,,,,,,
Gonzales,29.45641495,-97.49279927,23.333333333333332,wmoUnit:degC,86,14,16093.44,wmoUnit:m,,,,,,
Wharton,29.2778362,-96.22197375,23.333333333333332,wmoUnit:degC,90,0,15868.131287475511,wmoUnit:m,,,,,,
Fannin,33.59396919,-96.10656755,20.555555555555557,wmoUnit:degC,70,0,16093.44,wmoUnit:m,,,,,,
Madison,30.96564645,-95.92818441,23.333333333333332,wmoUnit:degC,82,0,16061.252383300736,wmoUnit:m,,,,,,
Moore,35.83768863,-101.8929556,16.11111111111111,wmoUnit:degC,53,12,,,,,,,,
Tyler,30.7712607,-94.37651432,20.555555555555557,wmoUnit:degC,100,10,13067.873095825224,wmoUnit:m,,,,,,
Lipscomb,36.27778432,-100.27317,15.555555555555555,wmoUnit:degC,69,4,,,,,,,,
Burleson,30.49246139,-96.62109399,25.555555555555557,wmoUnit:degC,76,0,16093.44,wmoUnit:m,,,,,,
Jim Hogg,27.04340499,-98.6972921,23.333333333333332,wmoUnit:degC,83,28,,,,,,,,
Throckmorton,33.17753907,-99.21236832,21.666666666666668,wmoUnit:degC,76,56,16093.44,wmoUnit:m,SV,A,,,,
Kleberg,27.43274395,-97.72889778,23.88888888888889,wmoUnit:degC,90,5,16093.44,wmoUnit:m,,,,,,
Shelby,31.79242191,-94.14495261,21.666666666666668,wmoUnit:degC,82,12,16093.44,wmoUnit:m,,,,,,
Garza,33.17991074,-101.2984496,16.11111111111111,wmoUnit:degC,72,69,9656.064,wmoUnit:m,,,,,,
Karnes,28.90493782,-97.85960621,23.333333333333332,wmoUnit:degC,85,15,16093.44,wmoUnit:m,,,,,,
Reeves,31.32307061,-103.693143,21.666666666666668,wmoUnit:degC,21,0,16093.44,wmoUnit:m,,,,,,
Houston,31.31764137,-95.42225367,23.88888888888889,wmoUnit:degC,94,0,16093.44,wmoUnit:m,,,,,,
El Paso,31.7686226,-106.2352229,17.77777777777778,wmoUnit:degC,13,0,16093.44,wmoUnit:m,,,,,,
Carson,35.40346802,-101.3542037,15.555555555555555,wmoUnit:degC,64,12,,,,,,,,
Medina,29.35520493,-99.11008331,23.88888888888889,wmoUnit:degC,79,30,16093.44,wmoUnit:m,SV,A,,,,
Wichita,33.98421585,-98.70153389,21.666666666666668,wmoUnit:degC,66,4,,,SV,A,,,,
Chambers,29.73912276,-94.60891308,23.88888888888889,wmoUnit:degC,90,0,15546.262794433578,wmoUnit:m,,,,,,
Donley,34.96540246,-100.8140501,15.555555555555555,wmoUnit:degC,78,10,,,,,,,,
Hopkins,33.14933822,-95.56414173,20.0,wmoUnit:degC,78,0,16093.44,wmoUnit:m,,,,,,
Lampasas,31.19627791,-98.24142711,24.444444444444443,wmoUnit:degC,74,29,16093.44,wmoUnit:m,,,,,,
Falls,31.25317017,-96.93579511,23.88888888888889,wmoUnit:degC,76,9,16093.44,wmoUnit:m,,,,,,
Stephens,32.73584155,-98.83612016,24.444444444444443,wmoUnit:degC,62,38,16093.44,wmoUnit:m,,,,,,
Travis,30.33423319,-97.78194654,22.77777777777778,wmoUnit:degC,84,17,16093.44,wmoUnit:m,,,,,,
Roberts,35.8385577,-100.8135689,18.88888888888889,wmoUnit:degC,45,5,,,,,,,,
Crosby,33.61459873,-101.2998612,13.88888888888889,wmoUnit:degC,93,25,16077.34619165045,wmoUnit:m,,,,,,
Kerr,30.06153035,-99.35016969,21.666666666666668,wmoUnit:degC,76,28,16093.44,wmoUnit:m,,,,,,
Wood,32.78634374,-95.38206498,19.444444444444443,wmoUnit:degC,86,2,11265.408,wmoUnit:m,,,,,,
Jack,33.23345819,-98.1725509,21.666666666666668,wmoUnit:degC,66,16,16093.44,wmoUnit:m,,,Flood Warning,Severe,Immediate,2025-04-23T14:30:00-05:00
Marion,32.79797929,-94.35725239,21.11111111111111,wmoUnit:degC,84,3,16093.44,wmoUnit:m,,,,,,
Hale,34.07051782,-101.8269082,13.88888888888889,wmoUnit:degC,83,14,16093.44,wmoUnit:m,,,,,,
Jeff Davis,30.71559322,-104.1403539,11.11111111111111,wmoUnit:degC,26,0,16093.44,wmoUnit:m,,,,,,
Tarrant,32.77185236,-97.29116473,24.444444444444443,wmoUnit:degC,60,5,16093.44,wmoUnit:m,,,Flash Flood Warning,Severe,Immediate,2025-04-23T09:15:00-05:00
Waller,30.01093722,-95.98768942,23.88888888888889,wmoUnit:degC,84,0,14419.722301391646,wmoUnit:m,,,,,,
Reagan,31.36617698,-101.5230108,20.555555555555557,wmoUnit:degC,37,0,16093.44,wmoUnit:m,,,,,,
Smith,32.37514553,-95.26909511,22.77777777777778,wmoUnit:degC,80,3,16093.44,wmoUnit:m,,,,,,
Van Zandt,32.56368961,-95.8364862,20.555555555555557,wmoUnit:degC,76,1,16093.44,wmoUnit:m,,,,,,
Cooke,33.638465,-97.21247642,20.555555555555557,wmoUnit:degC,68,2,16093.44,wmoUnit:m,SV,A,,,,
Zavala,28.86530621,-99.76102001,25.555555555555557,wmoUnit:degC,75,33,16093.44,wmoUnit:m,SV,A,,,,
Hall,34.53074134,-100.6809876,17.77777777777778,wmoUnit:degC,70,18,16093.44,wmoUnit:m,,,,,,
Kendall,29.9446397,-98.71160511,21.666666666666668,wmoUnit:degC,87,24,16093.44,wmoUnit:m,,,,,,
Goliad,28.65708563,-97.42646082,22.22222222222222,wmoUnit:degC,93,2,16093.44,wmoUnit:m,,,,,,
Yoakum,33.17293501,-102.8278792,16.666666666666668,wmoUnit:degC,67,12,16093.44,wmoUnit:m,,,,,,
Knox,33.60614755,-99.74144313,23.88888888888889,wmoUnit:degC,58,11,,,,,,,,
McLennan,31.55234489,-97.20184883,25.0,wmoUnit:degC,67,11,16093.44,wmoUnit:m,,,,,,
Brewster,29.81205836,-103.2518906,23.88888888888889,wmoUnit:degC,25,0,16093.44,wmoUnit:m,,,,,,
Panola,32.16222886,-94.30552858,20.555555555555557,wmoUnit:degC,91,5,16093.44,wmoUnit:m,,,,,,
Bandera,29.74724753,-99.24637282,22.22222222222222,wmoUnit:degC,79,29,16093.44,wmoUnit:m,,,,,,
Parmer,34.53014507,-102.784594,14.444444444444445,wmoUnit:degC,72,9,16093.44,wmoUnit:m,,,,,,
Rockwall,32.89786769,-96.40780584,21.666666666666668,wmoUnit:degC,66,1,16093.44,wmoUnit:m,,,,,,
Trinity,31.0885069,-95.13551682,24.444444444444443,wmoUnit:degC,85,0,16077.34619165045,wmoUnit:m,,,,,,
Bosque,31.90050476,-97.63437613,22.77777777777778,wmoUnit:degC,76,17,16093.44,wmoUnit:m,,,,,,
Coke,31.88849293,-100.5298747,21.666666666666668,wmoUnit:degC,49,50,16093.44,wmoUnit:m,SV,A,,,,
Franklin,33.17550691,-95.21841437,21.666666666666668,wmoUnit:degC,71,1,16093.44,wmoUnit:m,,,,,,
Hill,31.99079033,-97.1324142,22.77777777777778,wmoUnit:degC,73,9,16093.44,wmoUnit:m,,,,,,
Calhoun,28.48966896,-96.64708119,23.88888888888889,wmoUnit:degC,90,1,14548.469698608355,wmoUnit:m,,,,,,
Irion,31.30393203,-100.9824126,19.444444444444443,wmoUnit:degC,56,41,16093.44,wmoUnit:m,,,,,,
Midland,31.86921148,-102.0315032,21.666666666666668,wmoUnit:degC,28,0,16093.44,wmoUnit:m,,,,,,
Brown,31.77432313,-98.99989649,22.77777777777778,wmoUnit:degC,76,47,16093.44,wmoUnit:m,,,,,,
Wilson,29.17315896,-98.08621015,23.333333333333332,wmoUnit:degC,80,17,16093.44,wmoUnit:m,,,,,,
Oldham,35.40497586,-102.6029949,16.11111111111111,wmoUnit:degC,65,5,,,,,,,,
Freestone,31.70486443,-96.14918535,22.22222222222222,wmoUnit:degC,84,3,16093.44,wmoUnit:m,,,,,,
Sabine,31.34321941,-93.85170439,21.11111111111111,wmoUnit:degC,78,20,11265.408,wmoUnit:m,,,,,,
Deaf Smith,34.96602014,-102.6048162,14.444444444444445,wmoUnit:degC,80,5,,,,,,,,
Angelina,31.25475875,-94.611742,22.77777777777778,wmoUnit:degC,84,18,12697.7239451294,wmoUnit:m,,,,,,
Kent,33.18284492,-100.7791031,17.77777777777778,wmoUnit:degC,70,62,9656.064,wmoUnit:m,SV,A,,,,
Red River,33.62074539,-95.0501886,20.555555555555557,wmoUnit:degC,73,0,16093.44,wmoUnit:m,,,,,,
Kinney,29.35000302,-100.4178441,23.88888888888889,wmoUnit:degC,67,32,16093.44,wmoUnit:m,,,,,,
Denton,33.205574,-97.11681154,24.444444444444443,wmoUnit:degC,58,2,16093.44,wmoUnit:m,SV,A,,,,
Sutton,30.49747152,-100.5382263,16.11111111111111,wmoUnit:degC,97,38,16093.44,wmoUnit:m,SV,A,,,,
Guadalupe,29.58257236,-97.94850308,23.333333333333332,wmoUnit:degC,78,18,16093.44,wmoUnit:m,,,,,,
Winkler,31.85008609,-103.0484794,22.22222222222222,wmoUnit:degC,19,0,16093.44,wmoUnit:m,,,,,,
Dimmit,28.42161168,-99.760574,25.0,wmoUnit:degC,79,33,16093.44,wmoUnit:m,,,,,,
Wise,33.21585061,-97.65444124,22.22222222222222,wmoUnit:degC,64,7,16093.44,wmoUnit:m,,,,,,
Hemphill,35.83750155,-100.2704628,19.444444444444443,wmoUnit:degC,45,4,,,,,,,,
Potter,35.40128927,-101.8940484,16.11111111111111,wmoUnit:degC,62,12,,,,,,,,
Childress,34.52929257,-100.2075664,19.444444444444443,wmoUnit:degC,65,42,16093.44,wmoUnit:m,SV,A,,,,
Willacy,26.47132899,-97.64303323,23.333333333333332,wmoUnit:degC,96,7,,,,,,,,
Bastrop,30.10353518,-97.31187705,23.333333333333332,wmoUnit:degC,85,14,16093.44,wmoUnit:m,,,,,,
Kimble,30.48676251,-99.74892716,18.333333333333332,wmoUnit:degC,81,39,16093.44,wmoUnit:m,SV,A,,,,
Scurry,32.74720063,-100.9165071,20.0,wmoUnit:degC,32,0,16093.44,wmoUnit:m,,,,,,
Ochiltree,36.27846334,-100.815653,16.666666666666668,wmoUnit:degC,52,4,,,,,,,,
Hansford,36.27753179,-101.3545624,16.666666666666668,wmoUnit:degC,52,5,,,,,,,,
Hartley,35.83996755,-102.6028835,15.555555555555555,wmoUnit:degC,62,1,,,,,,,,
Cameron,26.13847728,-97.51499968,23.88888888888889,wmoUnit:degC,91,4,,,,,,,,
Matagorda,28.86711039,-95.98533866,23.88888888888889,wmoUnit:degC,97,0,14210.50739721687,wmoUnit:m,,,,,,
Burnet,30.78843382,-98.18252382,22.22222222222222,wmoUnit:degC,79,23,16093.44,wmoUnit:m,,,,,,
Rains,32.87004212,-95.79347545,20.0,wmoUnit:degC,78,1,16093.44,wmoUnit:m,,,,,,
Hays,30.05782657,-98.03104087,22.77777777777778,wmoUnit:degC,84,19,16093.44,wmoUnit:m,,,,,,
Mason,30.71742293,-99.2263026,21.666666666666668,wmoUnit:degC,73,39,16093.44,wmoUnit:m,SV,A,,,,
Ward,31.509424,-103.1024636,22.22222222222222,wmoUnit:degC,22,0,16093.44,wmoUnit:m,,,,,,
Delta,33.38623601,-95.67221685,20.0,wmoUnit:degC,78,0,16093.44,wmoUnit:m,,,,,,
Nueces,27.72621549,-97.61767326,23.88888888888889,wmoUnit:degC,90,5,16093.44,wmoUnit:m,,,,,,
Callahan,32.2977738,-99.37359692,22.77777777777778,wmoUnit:degC,71,55,16093.44,wmoUnit:m,,,,,,
Bell,31.03778267,-97.47790776,22.22222222222222,wmoUnit:degC,76,17,16093.44,wmoUnit:m,,,,,,
Cherokee,31.83695632,-95.16515234,22.77777777777778,wmoUnit:degC,83,6,16093.44,wmoUnit:m,,,,,,
Ellis,32.34839264,-96.79467417,22.77777777777778,wmoUnit:degC,73,4,16093.44,wmoUnit:m,,,Flash Flood Warning,Severe,Immediate,2025-04-23T09:15:00-05:00
Lubbock,33.6101944,-101.8205745,18.333333333333332,wmoUnit:degC,63,18,16093.44,wmoUnit:m,,,,,,
Terrell,30.22502597,-102.0764533,24.444444444444443,wmoUnit:degC,30,0,16093.44,wmoUnit:m,,,,,,
Crockett,30.72291931,-101.4118364,18.333333333333332,wmoUnit:degC,70,30,16093.44,wmoUnit:m,,,,,,
Atascosa,28.89418432,-98.52741302,23.333333333333332,wmoUnit:degC,76,23,16093.44,wmoUnit:m,,,,,,
Ector,31.86908156,-102.5430907,20.555555555555557,wmoUnit:degC,24,0,16093.44,wmoUnit:m,,,,,,
Brazos,30.6610425,-96.3022943,25.0,wmoUnit:degC,82,0,16093.44,wmoUnit:m,,,,,,
Aransas,28.12709562,-96.99258951,23.88888888888889,wmoUnit:degC,94,3,9559.503452087469,wmoUnit:m,,,,,,
Dallas,32.76653746,-96.77781862,23.88888888888889,wmoUnit:degC,60,2,16093.44,wmoUnit:m,,,Flash Flood Warning,Severe,Immediate,2025-04-23T09:15:00-05:00
Howard,32.30610232,-101.4355097,21.666666666666668,wmoUnit:degC,31,0,16093.44,wmoUnit:m,,,,,,
Motley,34.07409017,-100.7798961,16.666666666666668,wmoUnit:degC,67,25,16093.44,wmoUnit:m,,,,,,
San Augustine,31.39427005,-94.16809762,21.11111111111111,wmoUnit:degC,78,19,11265.408,wmoUnit:m,,,,,,
Maverick,28.74260943,-100.3144638,25.0,wmoUnit:degC,73,36,16093.44,wmoUnit:m,,,,,,
Erath,32.23640361,-98.21722756,22.77777777777778,wmoUnit:degC,66,27,16093.44,wmoUnit:m,,,,,,
Dickens,33.61663428,-100.7788138,15.555555555555555,wmoUnit:degC,84,32,16077.34619165045,wmoUnit:m,,,,,,
Caldwell,29.83677935,-97.61983479,23.333333333333332,wmoUnit:degC,88,16,16093.44,wmoUnit:m,,,,,,
Dawson,32.74258137,-101.9476136,20.0,wmoUnit:degC,32,0,16093.44,wmoUnit:m,,,,,,
Camp,32.97321771,-94.97860185,21.11111111111111,wmoUnit:degC,78,2,16093.44,wmoUnit:m,,,,,,
Duval,27.68133382,-98.50889672,22.77777777777778,wmoUnit:degC,90,22,16093.44,wmoUnit:m,,,,,,
Hunt,33.123531,-96.08550014,21.666666666666668,wmoUnit:degC,71,0,16093.44,wmoUnit:m,,,,,,
Mills,31.49524259,-98.59552736,23.333333333333332,wmoUnit:degC,71,39,16093.44,wmoUnit:m,,,,,,
Val Verde,29.89300587,-101.15171,23.88888888888889,wmoUnit:degC,77,33,16093.44,wmoUnit:m,,,,,,
Pecos,30.78100044,-102.7235743,23.333333333333332,wmoUnit:degC,26,0,16093.44,wmoUnit:m,,,,,,
Baylor,33.61648147,-99.21351964,22.22222222222222,wmoUnit:degC,59,6,,,,,,,,
Gregg,32.48036452,-94.81723694,21.666666666666668,wmoUnit:degC,81,3,16093.44,wmoUnit:m,,,,,,
Cochran,33.60410808,-102.8285264,18.333333333333332,wmoUnit:degC,63,11,16093.44,wmoUnit:m,,,,,,
Jasper,30.74391255,-94.02495849,20.555555555555557,wmoUnit:degC,100,9,13309.275616699264,wmoUnit:m,,,,,,
Hamilton,31.70479181,-98.11066654,23.88888888888889,wmoUnit:degC,74,28,16093.44,wmoUnit:m,,,,,,
Castro,34.53000304,-102.2617608,13.333333333333334,wmoUnit:degC,72,11,16093.44,wmoUnit:m,,,,,,
Sterling,31.82786516,-101.0500699,19.444444444444443,wmoUnit:degC,59,40,16093.44,wmoUnit:m,,,,,,
Starr,26.56212627,-98.73834895,23.333333333333332,wmoUnit:degC,87,13,,,,,,,,
Crane,31.42846287,-102.5156425,19.444444444444443,wmoUnit:degC,32,0,16093.44,wmoUnit:m,,,,,,
Morris,33.11368507,-94.73205137,21.11111111111111,wmoUnit:degC,78,1,16093.44,wmoUnit:m,,,,,,
Briscoe,34.53041048,-101.2085769,14.444444444444445,wmoUnit:degC,80,13,16093.44,wmoUnit:m,,,,,,
Tom Green,31.4044442,-100.4620678,20.555555555555557,wmoUnit:degC,61,55,16093.44,wmoUnit:m,SV,A,,,,
Menard,30.88981785,-99.82061472,16.11111111111111,wmoUnit:degC,84,51,16093.44,wmoUnit:m,SV,A,,,,
Parker,32.77852261,-97.80472194,22.77777777777778,wmoUnit:degC,71,12,16093.44,wmoUnit:m,,,,,,
Walker,30.73899492,-95.57224172,25.0,wmoUnit:degC,76,0,16093.44,wmoUnit:m,,,,,,
Brooks,27.0315669,-98.21874127,23.333333333333332,wmoUnit:degC,89,22,,,,,,,,
La Salle,28.34621032,-99.1034773,25.0,wmoUnit:degC,79,20,16093.44,wmoUnit:m,,,,,,
Edwards,29.98248216,-100.3048937,21.11111111111111,wmoUnit:degC,82,32,16093.44,wmoUnit:m,,,,,,
Lee,30.31065065,-96.96568735,23.333333333333332,wmoUnit:degC,81,13,16093.44,wmoUnit:m,,,,,,
Robertson,31.02705415,-96.51272568,23.88888888888889,wmoUnit:degC,82,6,16093.44,wmoUnit:m,,,,,,
Young,33.17670764,-98.68781396,23.333333333333332,wmoUnit:degC,69,32,16093.44,wmoUnit:m,,,,,,
Bee,28.41736675,-97.74116811,22.77777777777778,wmoUnit:degC,87,5,16093.44,wmoUnit:m,,,,,,
Clay,33.78379717,-98.208958,21.666666666666668,wmoUnit:degC,66,1,,,SV,A,,,,
San Jacinto,30.57948905,-95.16683273,22.77777777777778,wmoUnit:degC,87,0,15964.69260278313,wmoUnit:m,,,,,,
Uvalde,29.35669829,-99.76203107,23.333333333333332,wmoUnit:degC,75,33,16093.44,wmoUnit:m,,,,,,
Haskell,33.17824805,-99.73029401,20.555555555555557,wmoUnit:degC,70,55,16093.44,wmoUnit:m,SV,A,,,,
Somervell,32.22229511,-97.77456553,23.333333333333332,wmoUnit:degC,74,18,16093.44,wmoUnit:m,,,,,,
Bexar,29.44884523,-98.51966309,23.88888888888889,wmoUnit:degC,75,24,16093.44,wmoUnit:m,,,,,,
Grayson,33.62684371,-96.67764864,21.11111111111111,wmoUnit:degC,66,0,16093.44,wmoUnit:m,SV,A,,,,
Bailey,34.0684915,-102.8299069,16.11111111111111,wmoUnit:degC,67,14,16093.44,wmoUnit:m,,,,,,
Jones,32.73970429,-99.87850599,22.77777777777778,wmoUnit:degC,64,56,16093.44,wmoUnit:m,,,,,,
Jefferson,29.88425832,-94.1708778,22.22222222222222,wmoUnit:degC,97,2,12182.734356262245,wmoUnit:m,,,,,,
Rusk,32.10803224,-94.76169577,21.11111111111111,wmoUnit:degC,88,4,16093.44,wmoUnit:m,,,,,,
Glasscock,31.8694238,-101.520742,18.88888888888889,wmoUnit:degC,47,0,16093.44,wmoUnit:m,,,,,,
Gillespie,30.31800246,-98.94627245,21.666666666666668,wmoUnit:degC,86,27,16093.44,wmoUnit:m,,,,,,
Fisher,32.74305155,-100.4019503,21.666666666666668,wmoUnit:degC,68,46,16093.44,wmoUnit:m,SV,A,,,,
Henderson,32.21188078,-95.85356847,22.22222222222222,wmoUnit:degC,71,2,16093.44,wmoUnit:m,,,,,,
Shackelford,32.7360276,-99.35403034,22.77777777777778,wmoUnit:degC,71,56,16093.44,wmoUnit:m,,,,,,
Palo Pinto,32.75316856,-98.31299522,23.88888888888889,wmoUnit:degC,66,24,16093.44,wmoUnit:m,,,,,,
Wilbarger,34.08044953,-99.24089568,22.22222222222222,wmoUnit:degC,57,7,,,,,,,,
Floyd,34.07239775,-101.3033037,13.333333333333334,wmoUnit:degC,86,42,16093.44,wmoUnit:m,SV,A,,,,
Orange,30.12807126,-93.89653794,22.22222222222222,wmoUnit:degC,93,2,15304.861808349551,wmoUnit:m,,,,,,
Runnels,31.83105393,-99.97624799,22.77777777777778,wmoUnit:degC,55,59,16093.44,wmoUnit:m,,,,,,
Coleman,31.77329421,-99.45362579,22.77777777777778,wmoUnit:degC,71,56,16093.44,wmoUnit:m,,,,,,
Martin,32.30605847,-101.9512464,20.555555555555557,wmoUnit:degC,28,0,16093.44,wmoUnit:m,,,,,,
Wheeler,35.40129002,-100.2697634,20.555555555555557,wmoUnit:degC,44,17,,,,,,,,
Culberson,31.44709817,-104.5177421,17.77777777777778,wmoUnit:degC,15,0,16093.44,wmoUnit:m,,,,,,
Mitchell,32.30636024,-100.9211128,21.11111111111111,wmoUnit:degC,39,0,16093.44,wmoUnit:m,,,,,,
Hudspeth,31.45613738,-105.3869428,12.777777777777779,wmoUnit:degC,17,0,16093.44,wmoUnit:m,,,,,,
Upshur,32.7362827,-94.94132011,21.11111111111111,wmoUnit:degC,81,2,16093.44,wmoUnit:m,,,,,,
Liberty,30.15153187,-94.8120925,23.88888888888889,wmoUnit:degC,79,0,16061.252383300736,wmoUnit:m,,,Flood Warning,Severe,Immediate,2025-04-23T13:00:00-05:00
Williamson,30.64834941,-97.60105467,22.77777777777778,wmoUnit:degC,93,17,16093.44,wmoUnit:m,,,,,,
Nacogdoches,31.61604108,-94.6158776,22.77777777777778,wmoUnit:degC,79,12,16093.44,wmoUnit:m,,,,,,
Loving,31.84912973,-103.5799063,23.88888888888889,wmoUnit:degC,21,0,16093.44,wmoUnit:m,,,,,,
Jim Wells,27.73131099,-98.0898649,22.77777777777778,wmoUnit:degC,93,11,16093.44,wmoUnit:m,,,,,,
Upton,31.36853957,-102.0430005,18.88888888888889,wmoUnit:degC,48,0,16093.44,wmoUnit:m,,,,,,
Newton,30.78619977,-93.74462993,20.555555555555557,wmoUnit:degC,100,11,14323.160986084027,wmoUnit:m,,,,,,
Lamar,33.66746186,-95.57110784,20.555555555555557,wmoUnit:degC,70,0,16093.44,wmoUnit:m,,,,,,
Polk,30.79250963,-94.82994949,23.333333333333332,wmoUnit:degC,87,0,15530.168986084027,wmoUnit:m,,,Flood Warning,Severe,Immediate,2025-04-23T13:00:00-05:00
Collin,33.18789055,-96.57248871,22.22222222222222,wmoUnit:degC,64,1,16093.44,wmoUnit:m,SV,A,,,,
Hardeman,34.28865227,-99.7453851,22.77777777777778,wmoUnit:degC,55,25,,,,,,,,
McMullen,28.35351091,-98.56842256,23.88888888888889,wmoUnit:degC,84,25,16093.44,wmoUnit:m,,,,,,
Cottle,34.0776571,-100.2786983,16.11111111111111,wmoUnit:degC,90,65,9656.064,wmoUnit:m,SV,A,,,,
Frio,28.86726774,-99.10826004,24.444444444444443,wmoUnit:degC,74,29,16093.44,wmoUnit:m,SV,A,,,,
Gray,35.40130666,-100.812475,17.77777777777778,wmoUnit:degC,58,6,,,,,,,,
Dallam,36.27777107,-102.6021647,15.0,wmoUnit:degC,60,7,,,,,,,,
Kenedy,26.92409448,-97.68137783,23.333333333333332,wmoUnit:degC,96,13,,,,,,,,
Fort Bend,29.52763253,-95.77090562,24.444444444444443,wmoUnit:degC,82,0,15852.039013915974,wmoUnit:m,,,,,,
Armstrong,34.96522076,-101.3572412,15.0,wmoUnit:degC,69,11,,,,,,,,
Collingsworth,34.96498493,-100.2700733,19.444444444444443,wmoUnit:degC,50,32,,,,,,,,
Cass,33.07750446,-94.34348771,20.555555555555557,wmoUnit:degC,80,2,16093.44,wmoUnit:m,,,,,,
Sherman,36.27765824,-101.8933822,16.666666666666668,wmoUnit:degC,54,13,,,,,,,,
Terry,33.17373729,-102.335157,20.0,wmoUnit:degC,53,47,16093.44,wmoUnit:m,,,,,,
Limestone,31.54541898,-96.58056718,22.22222222222222,wmoUnit:degC,79,5,16093.44,wmoUnit:m,,,,,,
Real,29.83182711,-99.82215881,21.666666666666668,wmoUnit:degC,78,31,16093.44,wmoUnit:m,,,,,,
Lynn,33.17685487,-101.8160235,21.666666666666668,wmoUnit:degC,44,66,9656.064,wmoUnit:m,,,,,,
Lavaca,29.38437003,-96.93020993,22.22222222222222,wmoUnit:degC,91,14,16093.44,wmoUnit:m,,,,,,
Nolan,32.3034718,-100.4060989,20.0,wmoUnit:degC,70,49,16093.44,wmoUnit:m,SV,A,,,,
Gaines,32.74074537,-102.6351246,16.11111111111111,wmoUnit:degC,32,0,16093.44,wmoUnit:m,,,,,,
Montgomery,30.30022409,-95.50301411,24.444444444444443,wmoUnit:degC,79,0,16093.44,wmoUnit:m,,,,,,
Concho,31.32645211,-99.86413426,19.444444444444443,wmoUnit:degC,65,59,16093.44,wmoUnit:m,SV,A,,,,
Hardin,30.33238431,-94.39021394,21.11111111111111,wmoUnit:degC,100,3,12826.47134234627,wmoUnit:m,,,Flood Warning,Severe,Immediate,2025-04-23T13:00:00-05:00
Harris,29.85967144,-95.39782106,24.444444444444443,wmoUnit:degC,85,0,15723.291616699264,wmoUnit:m,,,,,,
Leon,31.29655719,-95.99554292,22.77777777777778,wmoUnit:degC,93,3,16093.44,wmoUnit:m,,,,,,
Bowie,33.44572786,-94.42324298,20.555555555555557,wmoUnit:degC,81,1,16093.44,wmoUnit:m,,,,,,
Kaufman,32.59927808,-96.28779341,21.666666666666668,wmoUnit:degC,68,1,16093.44,wmoUnit:m,,,,,,
Anderson,31.81321543,-95.65251774,22.22222222222222,wmoUnit:degC,87,3,16093.44,wmoUnit:m,,,,,,
San Saba,31.15520543,-98.81754295,23.88888888888889,wmoUnit:degC,74,40,16093.44,wmoUnit:m,SV,A,,,,
Schleicher,30.89661056,-100.538097,17.77777777777778,wmoUnit:degC,73,47,16093.44,wmoUnit:m,SV,A,,,,
Colorado,29.6208542,-96.52630821,22.77777777777778,wmoUnit:degC,84,0,15884.225095825224,wmoUnit:m,,,,,,
Milam,30.78625299,-96.97683495,24.444444444444443,wmoUnit:degC,79,10,16093.44,wmoUnit:m,,,,,,
Live Oak,28.3514375,-98.12474493,23.333333333333332,wmoUnit:degC,87,15,16093.44,wmoUnit:m,,,,,,
Borden,32.7436916,-101.4317533,20.0,wmoUnit:degC,35,0,16093.44,wmoUnit:m,,,,,,
McCulloch,31.19896752,-99.34754972,21.11111111111111,wmoUnit:degC,71,52,16093.44,wmoUnit:m,SV,A,,,,
Johnson,32.37899918,-97.36660504,23.333333333333332,wmoUnit:degC,71,9,16093.44,wmoUnit:m,,,,,,
Montague,33.67496328,-97.72466993,21.11111111111111,wmoUnit:degC,63,6,16093.44,wmoUnit:m,,,,,,
Stonewall,33.17842158,-100.255259,17.77777777777778,wmoUnit:degC,67,42,16077.34619165045,wmoUnit:m,SV,A,,,,
Comal,29.80816362,-98.27814516,22.22222222222222,wmoUnit:degC,88,21,16093.44,wmoUnit:m,,,,,,
Eastland,32.32739258,-98.8325713,22.77777777777778,wmoUnit:degC,68,43,16093.44,wmoUnit:m,,,,,,
Comanche,31.9490639,-98.55841538,23.333333333333332,wmoUnit:degC,66,39,16093.44,wmoUnit:m,,,,,,
King,33.61641863,-100.2558584,15.555555555555555,wmoUnit:degC,90,72,9656.064,wmoUnit:m,SV,A,,,,
Washington,30.2145299,-96.40356575,24.444444444444443,wmoUnit:degC,82,0,15835.94520556642,wmoUnit:m,,,,,,
Webb,27.76102524,-99.33170164,25.0,wmoUnit:degC,74,28,16093.44,wmoUnit:m,,,,,,
Fayette,29.87683207,-96.91968047,22.77777777777778,wmoUnit:degC,85,13,16093.44,wmoUnit:m,,,,,,
Harrison,32.54814898,-94.37155736,20.555555555555557,wmoUnit:degC,91,3,16093.44,wmoUnit:m,,,,,,
Presidio,29.99977786,-104.2405552,20.555555555555557,wmoUnit:degC,17,0,16093.44,wmoUnit:m,,,,,,
Austin,29.88711223,-96.27791829,23.333333333333332,wmoUnit:degC,84,0,15819.85139721687,wmoUnit:m,,,,,,
Randall,34.96594288,-101.8968527,15.0,wmoUnit:degC,78,16,,,,,,,,
Hood,32.43107878,-97.83280338,23.333333333333332,wmoUnit:degC,71,17,16093.44,wmoUnit:m,,,,,,
Victoria,28.79640594,-96.97176602,22.77777777777778,wmoUnit:degC,90,1,16093.44,wmoUnit:m,,,,,,
Hutchinson,35.84000866,-101.3547257,17.77777777777778,wmoUnit:degC,52,10,,,,,,,,
Coryell,31.39087578,-97.7991883,24.444444444444443,wmoUnit:degC,76,22,16093.44,wmoUnit:m,,,,,,
Jackson,28.95603133,-96.57883268,23.333333333333332,wmoUnit:degC,87,0,15481.889095825225,wmoUnit:m,,,,,,
Taylor,32.30138229,-99.89003941,21.666666666666668,wmoUnit:degC,79,58,16093.44,wmoUnit:m,,,,,,
Zapata,27.00089072,-99.16860134,24.444444444444443,wmoUnit:degC,75,42,,,,,,,,
San Patricio,28.00922186,-97.51859857,23.333333333333332,wmoUnit:degC,93,5,16093.44,wmoUnit:m,,,,,,
Grimes,30.54360689,-95.98557334,25.0,wmoUnit:degC,82,0,16093.44,wmoUnit:m,,,,,,
Lamb,34.06861242,-102.3517095,18.333333333333332,wmoUnit:degC,54,19,16093.44,wmoUnit:m,,,,,,
