countyName,latitude,longitude,temperature,temperature_unit,relativeHumidity,precipitationProbability,visibility,visibility_unit,hazard_phenomenon,hazard_significance,alert_event,alert_severity,alert_urgency,alert_expires
Foard,33.97408519,-99.77871109,27.22222222222222,wmoUnit:degC,63,10,,,,,,,,
Blanco,30.26636128,-98.39974086,26.666666666666668,wmoUnit:degC,69,56,16093.44,wmoUnit:m,FA,A,Flood Advisory,Minor,Expected,2025-06-12T08:00:00-05:00
Hockley,33.60750375,-102.3430919,22.77777777777778,wmoUnit:degC,59,1,16093.44,wmoUnit:m,,,,,,
Llano,30.70566579,-98.68387398,25.555555555555557,wmoUnit:degC,71,52,16093.44,wmoUnit:m,FA,A,Flood Watch,Severe,Future,2025-06-12T10:15:00-05:00
Swisher,34.53064989,-101.734951,21.666666666666668,wmoUnit:degC,79,1,16093.44,wmoUnit:m,,,,,,
Titus,33.2160906,-94.96509786,20.555555555555557,wmoUnit:degC,97,22,11265.408,wmoUnit:m,FA,A,Flood Warning,Severe,Expected,2025-06-12T20:45:00-05:00
Navarro,32.04695429,-96.47248134,22.22222222222222,wmoUnit:degC,97,55,16093.44,wmoUnit:m,FA,A,Flood Watch,Severe,Future,2025-06-12T19:00:00-05:00
Brazoria,29.19345387,-95.45578479,26.666666666666668,wmoUnit:degC,94,0,15079.553095825224,wmoUnit:m,FA,A,Special Weather Statement,Moderate,Expected,2025-06-12T05:45:00-05:00
Hidalgo,26.396627,-98.18088681,28.333333333333332,wmoUnit:degC,80,2,,,,,,,,
Archer,33.61539176,-98.68783437,27.22222222222222,wmoUnit:degC,63,33,,,,,,,,
Refugio,28.32681413,-97.16546961,29.444444444444443,wmoUnit:degC,71,18,15675.010191650448,wmoUnit:m,,,,,,
Andrews,32.30506283,-102.6378839,27.22222222222222,wmoUnit:degC,46,0,16093.44,wmoUnit:m,,,,,,
Galveston,29.39424415,-94.96474975,26.11111111111111,wmoUnit:degC,94,0,14854.244383300736,wmoUnit:m,FA,A,Flood Watch,Severe,Future,2025-06-12T06:00:00-05:00
De Witt,29.08201599,-97.35666976,27.77777777777778,wmoUnit:degC,80,22,16093.44,wmoUnit:m,FA,A,Flood Watch,Severe,Future,2025-06-12T10:15:00-05:00
Gonzales,29.45641495,-97.49279927,28.333333333333332,wmoUnit:degC,69,25,16093.44,wmoUnit:m,FA,A,Special Weather Statement,Moderate,Expected,2025-06-12T05:15:00-05:00
Wharton,29.2778362,-96.22197375,26.11111111111111,wmoUnit:degC,94,0,13309.275616699264,wmoUnit:m,FA,A,Flood Watch,Severe,Future,2025-06-12T06:00:00-05:00
Fannin,33.59396919,-96.10656755,20.555555555555557,wmoUnit:degC,98,31,14468.002191650448,wmoUnit:m,FA,A,Flood Watch,Severe,Future,2025-06-12T19:00:00-05:00
Madison,30.96564645,-95.92818441,22.77777777777778,wmoUnit:degC,97,0,14516.283616699264,wmoUnit:m,FA,A,Flood Watch,Severe,Future,2025-06-12T06:00:00-05:00
Moore,35.83768863,-101.8929556,22.22222222222222,wmoUnit:degC,68,0,,,,,,,,
Tyler,30.7712607,-94.37651432,22.77777777777778,wmoUnit:degC,100,12,14484.096,wmoUnit:m,,,,,,
Lipscomb,36.27778432,-100.27317,20.555555555555557,wmoUnit:degC,81,0,,,,,,,,
Burleson,30.49246139,-96.62109399,24.444444444444443,wmoUnit:degC,94,0,15771.571506958067,wmoUnit:m,FA,A,Flood Watch,Severe,Future,2025-06-12T06:00:00-05:00
Jim Hogg,27.04340499,-98.6972921,26.666666666666668,wmoUnit:degC,84,5,,,,,,,,
Throckmorton,33.17753907,-99.21236832,21.11111111111111,wmoUnit:degC,97,18,9656.064,wmoUnit:m,,,,,,
Kleberg,27.43274395,-97.72889778,31.11111111111111,wmoUnit:degC,71,16,16077.34619165045,wmoUnit:m,,,,,,
Shelby,31.79242191,-94.14495261,20.0,wmoUnit:degC,100,51,11265.408,wmoUnit:m,FA,A,Flood Watch,Severe,Future,2025-06-12T19:00:00-05:00
Garza,33.17991074,-101.2984496,20.555555555555557,wmoUnit:degC,84,5,16093.44,wmoUnit:m,,,,,,
Karnes,28.90493782,-97.85960621,28.88888888888889,wmoUnit:degC,79,22,16093.44,wmoUnit:m,FA,A,Special Weather Statement,Moderate,Expected,2025-06-12T05:15:00-05:00
Reeves,31.32307061,-103.693143,30.0,wmoUnit:degC,36,0,16093.44,wmoUnit:m,,,,,,
Houston,31.31764137,-95.42225367,22.22222222222222,wmoUnit:degC,100,0,12681.630904174775,wmoUnit:m,FA,A,Flood Watch,Severe,Future,2025-06-12T06:00:00-05:00
El Paso,31.7686226,-106.2352229,33.333333333333336,wmoUnit:degC,15,2,16045.160109741197,wmoUnit:m,,,,,,
Carson,35.40346802,-101.3542037,21.11111111111111,wmoUnit:degC,78,0,,,,,,,,
Medina,29.35520493,-99.11008331,27.77777777777778,wmoUnit:degC,65,12,16093.44,wmoUnit:m,FA,A,Flood Warning,Severe,Expected,2025-06-12T21:00:00-05:00
Wichita,33.98421585,-98.70153389,26.11111111111111,wmoUnit:degC,67,22,,,,,,,,
Chambers,29.73912276,-94.60891308,25.0,wmoUnit:degC,97,0,15739.383890258803,wmoUnit:m,,,Flood Advisory,Minor,Expected,2025-06-12T07:00:00-05:00
Donley,34.96540246,-100.8140501,21.11111111111111,wmoUnit:degC,84,0,,,,,,,,
Hopkins,33.14933822,-95.56414173,20.555555555555557,wmoUnit:degC,100,32,12778.191452087469,wmoUnit:m,FA,A,Flood Watch,Severe,Future,2025-06-12T19:00:00-05:00
Lampasas,31.19627791,-98.24142711,22.22222222222222,wmoUnit:degC,98,77,9479.0359451294,wmoUnit:m,FA,A,Flood Watch,Severe,Future,2025-06-12T19:00:00-05:00
Falls,31.25317017,-96.93579511,22.77777777777778,wmoUnit:degC,100,65,9656.064,wmoUnit:m,FA,A,Flood Watch,Severe,Future,2025-06-12T19:00:00-05:00
Stephens,32.73584155,-98.83612016,21.666666666666668,wmoUnit:degC,90,55,16093.44,wmoUnit:m,,,,,,
Travis,30.33423319,-97.78194654,28.333333333333332,wmoUnit:degC,78,38,16093.44,wmoUnit:m,FA,A,Flood Watch,Severe,Future,2025-06-12T10:15:00-05:00
Roberts,35.8385577,-100.8135689,21.666666666666668,wmoUnit:degC,76,0,,,,,,,,
Crosby,33.61459873,-101.2998612,20.0,wmoUnit:degC,90,4,16093.44,wmoUnit:m,,,,,,
Kerr,30.06153035,-99.35016969,26.11111111111111,wmoUnit:degC,67,57,16093.44,wmoUnit:m,FA,A,Flood Watch,Severe,Future,2025-06-12T10:15:00-05:00
Wood,32.78634374,-95.38206498,20.555555555555557,wmoUnit:degC,100,26,11265.408,wmoUnit:m,FA,A,Flood Warning,Severe,Expected,2025-06-12T20:45:00-05:00
Jack,33.23345819,-98.1725509,20.555555555555557,wmoUnit:degC,95,57,9656.064,wmoUnit:m,,,,,,
Marion,32.79797929,-94.35725239,20.555555555555557,wmoUnit:degC,97,48,11265.408,wmoUnit:m,FA,A,Flood Warning,Severe,Expected,2025-06-12T20:45:00-05:00
Hale,34.07051782,-101.8269082,19.444444444444443,wmoUnit:degC,78,1,16093.44,wmoUnit:m,,,,,,
Jeff Davis,30.71559322,-104.1403539,25.0,wmoUnit:degC,37,0,16093.44,wmoUnit:m,,,,,,
Tarrant,32.77185236,-97.29116473,22.77777777777778,wmoUnit:degC,86,61,9656.064,wmoUnit:m,FA,A,Flood Watch,Severe,Future,2025-06-12T19:00:00-05:00
Waller,30.01093722,-95.98768942,25.0,wmoUnit:degC,94,0,12858.65819165045,wmoUnit:m,FA,A,Flood Watch,Severe,Future,2025-06-12T06:00:00-05:00
Reagan,31.36617698,-101.5230108,25.0,wmoUnit:degC,60,0,16093.44,wmoUnit:m,,,,,,
Smith,32.37514553,-95.26909511,21.11111111111111,wmoUnit:degC,97,35,11265.408,wmoUnit:m,FA,A,Flood Warning,Severe,Expected,2025-06-12T20:45:00-05:00
Van Zandt,32.56368961,-95.8364862,20.555555555555557,wmoUnit:degC,98,38,16093.44,wmoUnit:m,FA,A,Flood Watch,Severe,Future,2025-06-12T19:00:00-05:00
Cooke,33.638465,-97.21247642,20.555555555555557,wmoUnit:degC,93,44,16093.44,wmoUnit:m,,,,,,
Zavala,28.86530621,-99.76102001,29.444444444444443,wmoUnit:degC,74,5,16093.44,wmoUnit:m,,,,,,
Hall,34.53074134,-100.6809876,23.333333333333332,wmoUnit:degC,82,2,16093.44,wmoUnit:m,,,,,,
Kendall,29.9446397,-98.71160511,26.666666666666668,wmoUnit:degC,70,56,16093.44,wmoUnit:m,FA,A,Flood Advisory,Minor,Expected,2025-06-12T08:00:00-05:00
Goliad,28.65708563,-97.42646082,29.444444444444443,wmoUnit:degC,68,32,16029.066301391646,wmoUnit:m,,,,,,
Yoakum,33.17293501,-102.8278792,21.666666666666668,wmoUnit:degC,61,1,16093.44,wmoUnit:m,,,,,,
Knox,33.60614755,-99.74144313,26.11111111111111,wmoUnit:degC,67,18,,,,,,,,
McLennan,31.55234489,-97.20184883,23.333333333333332,wmoUnit:degC,86,72,9656.064,wmoUnit:m,FA,A,Flood Watch,Severe,Future,2025-06-12T19:00:00-05:00
Brewster,29.81205836,-103.2518906,32.22222222222222,wmoUnit:degC,30,0,16093.44,wmoUnit:m,,,,,,
Panola,32.16222886,-94.30552858,21.666666666666668,wmoUnit:degC,97,55,11265.408,wmoUnit:m,FA,A,Flood Warning,Severe,Expected,2025-06-12T20:45:00-05:00
Bandera,29.74724753,-99.24637282,26.666666666666668,wmoUnit:degC,67,25,16093.44,wmoUnit:m,FA,A,Flash Flood Warning,Severe,Immediate,2025-06-12T07:00:00-05:00
Parmer,34.53014507,-102.784594,20.555555555555557,wmoUnit:degC,66,2,16093.44,wmoUnit:m,,,,,,
Rockwall,32.89786769,-96.40780584,21.666666666666668,wmoUnit:degC,90,44,16093.44,wmoUnit:m,FA,A,Flood Watch,Severe,Future,2025-06-12T19:00:00-05:00
Trinity,31.0885069,-95.13551682,22.77777777777778,wmoUnit:degC,93,0,12665.537095825224,wmoUnit:m,FA,A,Severe Thunderstorm Warning,Severe,Immediate,2025-06-12T05:30:00-05:00
Bosque,31.90050476,-97.63437613,22.22222222222222,wmoUnit:degC,95,72,9656.064,wmoUnit:m,FA,A,Flood Watch,Severe,Future,2025-06-12T19:00:00-05:00
Coke,31.88849293,-100.5298747,22.22222222222222,wmoUnit:degC,79,4,9656.064,wmoUnit:m,,,,,,
Franklin,33.17550691,-95.21841437,20.555555555555557,wmoUnit:degC,97,24,11265.408,wmoUnit:m,FA,A,Flood Warning,Severe,Expected,2025-06-12T20:45:00-05:00
Hill,31.99079033,-97.1324142,22.22222222222222,wmoUnit:degC,95,67,9656.064,wmoUnit:m,FA,A,Flood Watch,Severe,Future,2025-06-12T19:00:00-05:00
Calhoun,28.48966896,-96.64708119,29.444444444444443,wmoUnit:degC,77,18,15787.665315307619,wmoUnit:m,,,Flood Advisory,Minor,Expected,2025-06-12T06:45:00-05:00
Irion,31.30393203,-100.9824126,22.22222222222222,wmoUnit:degC,79,2,9656.064,wmoUnit:m,,,,,,
Midland,31.86921148,-102.0315032,27.22222222222222,wmoUnit:degC,49,0,16093.44,wmoUnit:m,,,,,,
Brown,31.77432313,-98.99989649,21.11111111111111,wmoUnit:degC,100,54,9656.064,wmoUnit:m,,,,,,
Wilson,29.17315896,-98.08621015,28.88888888888889,wmoUnit:degC,65,24,16093.44,wmoUnit:m,FA,A,Special Weather Statement,Moderate,Expected,2025-06-12T05:15:00-05:00
Oldham,35.40497586,-102.6029949,22.22222222222222,wmoUnit:degC,68,2,,,,,,,,
Freestone,31.70486443,-96.14918535,21.666666666666668,wmoUnit:degC,98,45,16093.44,wmoUnit:m,FA,A,Flood Watch,Severe,Future,2025-06-12T19:00:00-05:00
Sabine,31.34321941,-93.85170439,21.666666666666668,wmoUnit:degC,93,36,11265.408,wmoUnit:m,FA,A,Flood Watch,Severe,Future,2025-06-12T19:00:00-05:00
Deaf Smith,34.96602014,-102.6048162,21.666666666666668,wmoUnit:degC,64,0,,,,,,,,
Angelina,31.25475875,-94.611742,22.22222222222222,wmoUnit:degC,93,40,14548.469698608355,wmoUnit:m,FA,A,Flood Warning,Severe,Immediate,2025-06-12T20:15:00-05:00
Kent,33.18284492,-100.7791031,20.555555555555557,wmoUnit:degC,90,7,16093.44,wmoUnit:m,,,,,,
Red River,33.62074539,-95.0501886,20.555555555555557,wmoUnit:degC,97,24,11265.408,wmoUnit:m,FA,A,Flood Warning,Severe,Immediate,2025-06-12T20:30:00-05:00
Kinney,29.35000302,-100.4178441,28.88888888888889,wmoUnit:degC,56,2,16093.44,wmoUnit:m,,,,,,
Denton,33.205574,-97.11681154,22.77777777777778,wmoUnit:degC,89,53,16093.44,wmoUnit:m,FA,A,Flood Watch,Severe,Future,2025-06-12T19:00:00-05:00
Sutton,30.49747152,-100.5382263,23.333333333333332,wmoUnit:degC,76,15,9656.064,wmoUnit:m,,,,,,
Guadalupe,29.58257236,-97.94850308,30.0,wmoUnit:degC,60,24,16093.44,wmoUnit:m,FA,A,Special Weather Statement,Moderate,Expected,2025-06-12T05:15:00-05:00
Winkler,31.85008609,-103.0484794,28.88888888888889,wmoUnit:degC,40,0,16093.44,wmoUnit:m,,,,,,
Dimmit,28.42161168,-99.760574,31.11111111111111,wmoUnit:degC,61,4,16093.44,wmoUnit:m,,,,,,
Wise,33.21585061,-97.65444124,21.11111111111111,wmoUnit:degC,93,58,9656.064,wmoUnit:m,,,,,,
Hemphill,35.83750155,-100.2704628,20.0,wmoUnit:degC,81,0,,,,,,,,
Potter,35.40128927,-101.8940484,22.77777777777778,wmoUnit:degC,68,0,,,,,,,,
Childress,34.52929257,-100.2075664,22.22222222222222,wmoUnit:degC,84,5,16093.44,wmoUnit:m,,,,,,
Willacy,26.47132899,-97.64303323,27.22222222222222,wmoUnit:degC,93,2,,,,,,,,
Bastrop,30.10353518,-97.31187705,27.77777777777778,wmoUnit:degC,76,25,16093.44,wmoUnit:m,FA,A,Flood Watch,Severe,Future,2025-06-12T10:15:00-05:00
Kimble,30.48676251,-99.74892716,22.77777777777778,wmoUnit:degC,90,27,9656.064,wmoUnit:m,,,,,,
Scurry,32.74720063,-100.9165071,25.0,wmoUnit:degC,64,0,16093.44,wmoUnit:m,,,,,,
Ochiltree,36.27846334,-100.815653,20.0,wmoUnit:degC,87,0,,,,,,,,
Hansford,36.27753179,-101.3545624,21.11111111111111,wmoUnit:degC,76,0,,,,,,,,
Hartley,35.83996755,-102.6028835,21.666666666666668,wmoUnit:degC,66,1,,,,,,,,
Cameron,26.13847728,-97.51499968,27.77777777777778,wmoUnit:degC,86,17,,,,,,,,
Matagorda,28.86711039,-95.98533866,27.22222222222222,wmoUnit:degC,97,2,15546.262794433578,wmoUnit:m,FA,A,Special Weather Statement,Moderate,Expected,2025-06-12T05:45:00-05:00
Burnet,30.78843382,-98.18252382,25.555555555555557,wmoUnit:degC,85,50,16093.44,wmoUnit:m,FA,A,Flood Watch,Severe,Future,2025-06-12T10:15:00-05:00
Rains,32.87004212,-95.79347545,20.555555555555557,wmoUnit:degC,98,34,14468.002191650448,wmoUnit:m,FA,A,Flood Watch,Severe,Future,2025-06-12T19:00:00-05:00
Hays,30.05782657,-98.03104087,28.88888888888889,wmoUnit:degC,70,28,16093.44,wmoUnit:m,FA,A,Flood Advisory,Minor,Expected,2025-06-12T08:00:00-05:00
Mason,30.71742293,-99.2263026,22.22222222222222,wmoUnit:degC,90,49,9656.064,wmoUnit:m,,,,,,
Ward,31.509424,-103.1024636,30.555555555555557,wmoUnit:degC,35,0,16093.44,wmoUnit:m,,,,,,
Delta,33.38623601,-95.67221685,20.555555555555557,wmoUnit:degC,98,31,11265.408,wmoUnit:m,FA,A,Flood Watch,Severe,Future,2025-06-12T19:00:00-05:00
Nueces,27.72621549,-97.61767326,31.11111111111111,wmoUnit:degC,68,15,16093.44,wmoUnit:m,,,,,,
Callahan,32.2977738,-99.37359692,20.0,wmoUnit:degC,100,22,9656.064,wmoUnit:m,,,,,,
Bell,31.03778267,-97.47790776,23.333333333333332,wmoUnit:degC,95,75,9656.064,wmoUnit:m,FA,A,Flood Watch,Severe,Future,2025-06-12T19:00:00-05:00
Cherokee,31.83695632,-95.16515234,20.555555555555557,wmoUnit:degC,100,42,16093.44,wmoUnit:m,FA,A,Flood Warning,Severe,Expected,2025-06-12T20:45:00-05:00
Ellis,32.34839264,-96.79467417,22.22222222222222,wmoUnit:degC,95,59,9656.064,wmoUnit:m,FA,A,Flood Watch,Severe,Future,2025-06-12T19:00:00-05:00
Lubbock,33.6101944,-101.8205745,21.666666666666668,wmoUnit:degC,73,2,16093.44,wmoUnit:m,,,,,,
Terrell,30.22502597,-102.0764533,30.555555555555557,wmoUnit:degC,36,0,16093.44,wmoUnit:m,,,,,,
Crockett,30.72291931,-101.4118364,23.333333333333332,wmoUnit:degC,69,2,16093.44,wmoUnit:m,,,,,,
Atascosa,28.89418432,-98.52741302,30.555555555555557,wmoUnit:degC,57,15,16093.44,wmoUnit:m,,,,,,
Ector,31.86908156,-102.5430907,28.88888888888889,wmoUnit:degC,40,0,16093.44,wmoUnit:m,,,,,,
Brazos,30.6610425,-96.3022943,23.88888888888889,wmoUnit:degC,97,0,14081.76,wmoUnit:m,FA,A,Flood Watch,Severe,Future,2025-06-12T06:00:00-05:00
Aransas,28.12709562,-96.99258951,29.444444444444443,wmoUnit:degC,81,13,15240.488109741196,wmoUnit:m,,,,,,
Dallas,32.76653746,-96.77781862,22.22222222222222,wmoUnit:degC,92,54,16093.44,wmoUnit:m,FA,A,Flood Watch,Severe,Future,2025-06-12T19:00:00-05:00
Howard,32.30610232,-101.4355097,27.77777777777778,wmoUnit:degC,49,0,16093.44,wmoUnit:m,,,,,,
Motley,34.07409017,-100.7798961,20.555555555555557,wmoUnit:degC,93,4,16093.44,wmoUnit:m,,,,,,
San Augustine,31.39427005,-94.16809762,20.555555555555557,wmoUnit:degC,97,46,11265.408,wmoUnit:m,FA,A,Flood Warning,Severe,Expected,2025-06-12T20:45:00-05:00
Maverick,28.74260943,-100.3144638,29.444444444444443,wmoUnit:degC,75,2,16093.44,wmoUnit:m,,,,,,
Erath,32.23640361,-98.21722756,21.11111111111111,wmoUnit:degC,95,65,9656.064,wmoUnit:m,FA,A,Flood Watch,Severe,Future,2025-06-12T19:00:00-05:00
Dickens,33.61663428,-100.7788138,20.555555555555557,wmoUnit:degC,93,6,16093.44,wmoUnit:m,,,,,,
Caldwell,29.83677935,-97.61983479,28.333333333333332,wmoUnit:degC,61,25,16093.44,wmoUnit:m,FA,A,Flood Advisory,Minor,Expected,2025-06-12T08:00:00-05:00
Dawson,32.74258137,-101.9476136,26.11111111111111,wmoUnit:degC,52,0,16093.44,wmoUnit:m,,,,,,
Camp,32.97321771,-94.97860185,20.555555555555557,wmoUnit:degC,97,30,11265.408,wmoUnit:m,FA,A,Flood Watch,Severe,Future,2025-06-12T19:00:00-05:00
Duval,27.68133382,-98.50889672,31.666666666666668,wmoUnit:degC,56,34,16093.44,wmoUnit:m,,,,,,
Hunt,33.123531,-96.08550014,21.666666666666668,wmoUnit:degC,93,34,16093.44,wmoUnit:m,FA,A,Flood Watch,Severe,Future,2025-06-12T19:00:00-05:00
Mills,31.49524259,-98.59552736,22.22222222222222,wmoUnit:degC,89,77,9656.064,wmoUnit:m,FA,A,Flood Watch,Severe,Future,2025-06-12T19:00:00-05:00
Val Verde,29.89300587,-101.15171,29.444444444444443,wmoUnit:degC,42,2,16093.44,wmoUnit:m,,,,,,
Pecos,30.78100044,-102.7235743,28.333333333333332,wmoUnit:degC,40,0,16093.44,wmoUnit:m,,,,,,
Baylor,33.61648147,-99.21351964,25.555555555555557,wmoUnit:degC,71,27,,,,,,,,
Gregg,32.48036452,-94.81723694,21.11111111111111,wmoUnit:degC,97,49,12729.91079443358,wmoUnit:m,FA,A,Flood Warning,Severe,Expected,2025-06-12T20:45:00-05:00
Cochran,33.60410808,-102.8285264,22.22222222222222,wmoUnit:degC,59,2,16093.44,wmoUnit:m,,,,,,
Jasper,30.74391255,-94.02495849,23.88888888888889,wmoUnit:degC,97,13,14178.321315307618,wmoUnit:m,,,,,,
Hamilton,31.70479181,-98.11066654,22.22222222222222,wmoUnit:degC,97,76,9656.064,wmoUnit:m,FA,A,Flood Watch,Severe,Future,2025-06-12T19:00:00-05:00
Castro,34.53000304,-102.2617608,20.0,wmoUnit:degC,73,1,16093.44,wmoUnit:m,,,,,,
Sterling,31.82786516,-101.0500699,22.22222222222222,wmoUnit:degC,79,4,9656.064,wmoUnit:m,,,,,,
Starr,26.56212627,-98.73834895,27.77777777777778,wmoUnit:degC,82,3,,,,,,,,
Crane,31.42846287,-102.5156425,28.333333333333332,wmoUnit:degC,46,0,16093.44,wmoUnit:m,,,,,,
Morris,33.11368507,-94.73205137,20.555555555555557,wmoUnit:degC,97,32,11265.408,wmoUnit:m,FA,A,Flood Warning,Severe,Expected,2025-06-12T20:45:00-05:00
Briscoe,34.53041048,-101.2085769,20.0,wmoUnit:degC,84,1,16093.44,wmoUnit:m,,,,,,
Tom Green,31.4044442,-100.4620678,21.666666666666668,wmoUnit:degC,90,4,9656.064,wmoUnit:m,,,Flood Advisory,Minor,Expected,2025-06-12T05:45:00-05:00
Menard,30.88981785,-99.82061472,21.11111111111111,wmoUnit:degC,93,21,9656.064,wmoUnit:m,,,Flood Advisory,Minor,Expected,2025-06-12T05:45:00-05:00
Parker,32.77852261,-97.80472194,21.11111111111111,wmoUnit:degC,92,64,9656.064,wmoUnit:m,FA,A,Flood Watch,Severe,Future,2025-06-12T19:00:00-05:00
Walker,30.73899492,-95.57224172,23.333333333333332,wmoUnit:degC,93,0,14999.085588867158,wmoUnit:m,FA,A,Flood Watch,Severe,Future,2025-06-12T06:00:00-05:00
Brooks,27.0315669,-98.21874127,27.22222222222222,wmoUnit:degC,88,2,,,,,,,,
La Salle,28.34621032,-99.1034773,33.333333333333336,wmoUnit:degC,51,27,16093.44,wmoUnit:m,,,,,,
Edwards,29.98248216,-100.3048937,26.11111111111111,wmoUnit:degC,64,27,16093.44,wmoUnit:m,,,,,,
Lee,30.31065065,-96.96568735,26.666666666666668,wmoUnit:degC,77,28,16093.44,wmoUnit:m,FA,A,Flood Watch,Severe,Future,2025-06-12T10:15:00-05:00
Robertson,31.02705415,-96.51272568,22.77777777777778,wmoUnit:degC,97,49,16093.44,wmoUnit:m,FA,A,Flood Watch,Severe,Future,2025-06-12T19:00:00-05:00
Young,33.17670764,-98.68781396,22.22222222222222,wmoUnit:degC,86,50,16093.44,wmoUnit:m,,,,,,
Bee,28.41736675,-97.74116811,30.0,wmoUnit:degC,63,33,16077.34619165045,wmoUnit:m,,,,,,
Clay,33.78379717,-98.208958,26.11111111111111,wmoUnit:degC,72,32,,,,,,,,
San Jacinto,30.57948905,-95.16683273,22.77777777777778,wmoUnit:degC,93,0,14773.778411132842,wmoUnit:m,,,Severe Thunderstorm Warning,Severe,Immediate,2025-06-12T05:30:00-05:00
Uvalde,29.35669829,-99.76203107,27.77777777777778,wmoUnit:degC,63,7,16093.44,wmoUnit:m,,,,,,
Haskell,33.17824805,-99.73029401,21.11111111111111,wmoUnit:degC,93,9,11265.408,wmoUnit:m,,,,,,
Somervell,32.22229511,-97.77456553,22.22222222222222,wmoUnit:degC,95,67,9656.064,wmoUnit:m,FA,A,Flood Watch,Severe,Future,2025-06-12T19:00:00-05:00
Bexar,29.44884523,-98.51966309,31.11111111111111,wmoUnit:degC,59,20,16093.44,wmoUnit:m,FA,A,Flood Warning,Severe,Expected,2025-06-12T22:30:00-05:00
Grayson,33.62684371,-96.67764864,20.555555555555557,wmoUnit:degC,93,37,11265.408,wmoUnit:m,FA,A,Flood Watch,Severe,Future,2025-06-12T19:00:00-05:00
Bailey,34.0684915,-102.8299069,21.11111111111111,wmoUnit:degC,61,2,16093.44,wmoUnit:m,,,,,,
Jones,32.73970429,-99.87850599,21.11111111111111,wmoUnit:degC,90,7,9656.064,wmoUnit:m,,,,,,
Jefferson,29.88425832,-94.1708778,25.0,wmoUnit:degC,94,21,15176.114411132843,wmoUnit:m,,,,,,
Rusk,32.10803224,-94.76169577,21.666666666666668,wmoUnit:degC,93,50,12746.00460278313,wmoUnit:m,FA,A,Flood Warning,Severe,Expected,2025-06-12T20:45:00-05:00
Glasscock,31.8694238,-101.520742,26.11111111111111,wmoUnit:degC,58,0,16093.44,wmoUnit:m,,,,,,
Gillespie,30.31800246,-98.94627245,26.11111111111111,wmoUnit:degC,77,55,16093.44,wmoUnit:m,FA,A,Flood Watch,Severe,Future,2025-06-12T10:15:00-05:00
Fisher,32.74305155,-100.4019503,21.666666666666668,wmoUnit:degC,81,6,9656.064,wmoUnit:m,,,,,,
Henderson,32.21188078,-95.85356847,21.666666666666668,wmoUnit:degC,92,40,16093.44,wmoUnit:m,FA,A,Flood Watch,Severe,Future,2025-06-12T19:00:00-05:00
Shackelford,32.7360276,-99.35403034,21.11111111111111,wmoUnit:degC,97,17,9656.064,wmoUnit:m,,,,,,
Palo Pinto,32.75316856,-98.31299522,21.11111111111111,wmoUnit:degC,97,64,9656.064,wmoUnit:m,,,,,,
Wilbarger,34.08044953,-99.24089568,27.22222222222222,wmoUnit:degC,60,17,,,,,,,,
Floyd,34.07239775,-101.3033037,18.88888888888889,wmoUnit:degC,87,2,16093.44,wmoUnit:m,,,,,,
Orange,30.12807126,-93.89653794,25.555555555555557,wmoUnit:degC,88,19,15530.168986084027,wmoUnit:m,,,,,,
Runnels,31.83105393,-99.97624799,21.666666666666668,wmoUnit:degC,90,8,9656.064,wmoUnit:m,,,,,,
Coleman,31.77329421,-99.45362579,21.11111111111111,wmoUnit:degC,93,22,9656.064,wmoUnit:m,,,,,,
Martin,32.30605847,-101.9512464,27.22222222222222,wmoUnit:degC,49,0,16093.44,wmoUnit:m,,,,,,
Wheeler,35.40129002,-100.2697634,20.0,wmoUnit:degC,78,0,,,,,,,,
Culberson,31.44709817,-104.5177421,27.77777777777778,wmoUnit:degC,33,0,16093.44,wmoUnit:m,,,,,,
Mitchell,32.30636024,-100.9211128,28.333333333333332,wmoUnit:degC,57,0,16093.44,wmoUnit:m,,,,,,
Hudspeth,31.45613738,-105.3869428,30.0,wmoUnit:degC,22,4,16012.972493041932,wmoUnit:m,,,,,,
Upshur,32.7362827,-94.94132011,20.555555555555557,wmoUnit:degC,97,39,11265.408,wmoUnit:m,FA,A,Flood Warning,Severe,Expected,2025-06-12T20:45:00-05:00
Liberty,30.15153187,-94.8120925,23.333333333333332,wmoUnit:degC,97,0,14870.338191650448,wmoUnit:m,,,Flood Advisory,Minor,Expected,2025-06-12T07:15:00-05:00
Williamson,30.64834941,-97.60105467,26.666666666666668,wmoUnit:degC,76,44,12794.284493041932,wmoUnit:m,FA,A,Flood Watch,Severe,Future,2025-06-12T10:15:00-05:00
Nacogdoches,31.61604108,-94.6158776,21.11111111111111,wmoUnit:degC,100,43,12746.00460278313,wmoUnit:m,FA,A,Flood Warning,Severe,Expected,2025-06-12T20:45:00-05:00
Loving,31.84912973,-103.5799063,27.77777777777778,wmoUnit:degC,49,0,16093.44,wmoUnit:m,,,,,,
Jim Wells,27.73131099,-98.0898649,31.666666666666668,wmoUnit:degC,64,26,16093.44,wmoUnit:m,,,,,,
Upton,31.36853957,-102.0430005,25.0,wmoUnit:degC,67,0,16093.44,wmoUnit:m,,,,,,
Newton,30.78619977,-93.74462993,23.333333333333332,wmoUnit:degC,97,13,13904.732712524488,wmoUnit:m,,,,,,
Lamar,33.66746186,-95.57110784,20.555555555555557,wmoUnit:degC,98,33,11265.408,wmoUnit:m,FA,A,Flood Watch,Severe,Future,2025-06-12T19:00:00-05:00
Polk,30.79250963,-94.82994949,22.77777777777778,wmoUnit:degC,93,0,14323.160986084027,wmoUnit:m,,,Severe Thunderstorm Warning,Severe,Immediate,2025-06-12T05:30:00-05:00
Collin,33.18789055,-96.57248871,22.22222222222222,wmoUnit:degC,89,41,16093.44,wmoUnit:m,FA,A,Flood Watch,Severe,Future,2025-06-12T19:00:00-05:00
Hardeman,34.28865227,-99.7453851,27.22222222222222,wmoUnit:degC,60,7,,,,,,,,
McMullen,28.35351091,-98.56842256,31.666666666666668,wmoUnit:degC,62,36,16093.44,wmoUnit:m,,,,,,
Cottle,34.0776571,-100.2786983,21.666666666666668,wmoUnit:degC,87,7,16093.44,wmoUnit:m,,,,,,
Frio,28.86726774,-99.10826004,30.555555555555557,wmoUnit:degC,64,8,16093.44,wmoUnit:m,,,,,,
Gray,35.40130666,-100.812475,20.555555555555557,wmoUnit:degC,84,0,,,,,,,,
Dallam,36.27777107,-102.6021647,20.555555555555557,wmoUnit:degC,68,4,,,,,,,,
Kenedy,26.92409448,-97.68137783,27.22222222222222,wmoUnit:degC,93,7,,,,,,,,
Fort Bend,29.52763253,-95.77090562,26.11111111111111,wmoUnit:degC,94,0,14661.123287475511,wmoUnit:m,FA,A,Special Weather Statement,Moderate,Expected,2025-06-12T05:45:00-05:00
Armstrong,34.96522076,-101.3572412,21.666666666666668,wmoUnit:degC,73,0,,,,,,,,
Collingsworth,34.96498493,-100.2700733,22.22222222222222,wmoUnit:degC,79,0,,,,,,,,
Cass,33.07750446,-94.34348771,20.555555555555557,wmoUnit:degC,97,40,11265.408,wmoUnit:m,FA,A,Flood Watch,Severe,Future,2025-06-12T19:00:00-05:00
Sherman,36.27765824,-101.8933822,21.666666666666668,wmoUnit:degC,68,2,,,,,,,,
Terry,33.17373729,-102.335157,21.11111111111111,wmoUnit:degC,73,1,16093.44,wmoUnit:m,,,,,,
Limestone,31.54541898,-96.58056718,22.22222222222222,wmoUnit:degC,100,56,9656.064,wmoUnit:m,FA,A,Flood Warning,Severe,Expected,2025-06-12T23:00:00-05:00
Real,29.83182711,-99.82215881,26.11111111111111,wmoUnit:degC,66,27,16093.44,wmoUnit:m,,,,,,
Lynn,33.17685487,-101.8160235,20.0,wmoUnit:degC,87,2,16093.44,wmoUnit:m,,,,,,
Lavaca,29.38437003,-96.93020993,27.77777777777778,wmoUnit:degC,79,24,16093.44,wmoUnit:m,FA,A,Flood Watch,Severe,Future,2025-06-12T10:15:00-05:00
Nolan,32.3034718,-100.4060989,20.0,wmoUnit:degC,87,6,11265.408,wmoUnit:m,,,,,,
Gaines,32.74074537,-102.6351246,26.666666666666668,wmoUnit:degC,45,0,16093.44,wmoUnit:m,,,,,,
Montgomery,30.30022409,-95.50301411,23.333333333333332,wmoUnit:degC,97,0,15224.394301391645,wmoUnit:m,FA,A,Flood Advisory,Minor,Expected,2025-06-12T07:15:00-05:00
Concho,31.32645211,-99.86413426,21.11111111111111,wmoUnit:degC,93,13,9656.064,wmoUnit:m,,,Flood Advisory,Minor,Expected,2025-06-12T05:45:00-05:00
Hardin,30.33238431,-94.39021394,23.88888888888889,wmoUnit:degC,94,9,14661.123287475511,wmoUnit:m,,,,,,
Harris,29.85967144,-95.39782106,25.0,wmoUnit:degC,90,0,14628.93720556642,wmoUnit:m,FA,A,Flood Advisory,Minor,Expected,2025-06-12T07:15:00-05:00
Leon,31.29655719,-95.99554292,22.22222222222222,wmoUnit:degC,95,35,14468.002191650448,wmoUnit:m,FA,A,Flood Watch,Severe,Future,2025-06-12T19:00:00-05:00
Bowie,33.44572786,-94.42324298,21.11111111111111,wmoUnit:degC,97,28,11265.408,wmoUnit:m,FA,A,Flood Warning,Severe,Immediate,2025-06-12T20:30:00-05:00
Kaufman,32.59927808,-96.28779341,21.666666666666668,wmoUnit:degC,95,48,16093.44,wmoUnit:m,FA,A,Flood Watch,Severe,Future,2025-06-12T19:00:00-05:00
Anderson,31.81321543,-95.65251774,21.11111111111111,wmoUnit:degC,98,36,16093.44,wmoUnit:m,FA,A,Flood Watch,Severe,Future,2025-06-12T19:00:00-05:00
San Saba,31.15520543,-98.81754295,21.666666666666668,wmoUnit:degC,97,59,9656.064,wmoUnit:m,,,,,,
Schleicher,30.89661056,-100.538097,21.666666666666668,wmoUnit:degC,81,8,9656.064,wmoUnit:m,,,,,,
Colorado,29.6208542,-96.52630821,25.0,wmoUnit:degC,90,0,14564.563506958068,wmoUnit:m,FA,A,Flood Watch,Severe,Future,2025-06-12T06:00:00-05:00
Milam,30.78625299,-96.97683495,23.333333333333332,wmoUnit:degC,97,61,9656.064,wmoUnit:m,FA,A,Flood Watch,Severe,Future,2025-06-12T19:00:00-05:00
Live Oak,28.3514375,-98.12474493,31.11111111111111,wmoUnit:degC,61,35,16093.44,wmoUnit:m,,,,,,
Borden,32.7436916,-101.4317533,26.11111111111111,wmoUnit:degC,54,0,16093.44,wmoUnit:m,,,,,,
McCulloch,31.19896752,-99.34754972,21.11111111111111,wmoUnit:degC,97,35,9656.064,wmoUnit:m,,,Flood Advisory,Minor,Expected,2025-06-12T05:45:00-05:00
Johnson,32.37899918,-97.36660504,22.22222222222222,wmoUnit:degC,97,64,9656.064,wmoUnit:m,FA,A,Flood Watch,Severe,Future,2025-06-12T19:00:00-05:00
Montague,33.67496328,-97.72466993,20.555555555555557,wmoUnit:degC,92,43,16093.44,wmoUnit:m,,,,,,
Stonewall,33.17842158,-100.255259,21.666666666666668,wmoUnit:degC,90,8,16093.44,wmoUnit:m,,,,,,
Comal,29.80816362,-98.27814516,27.77777777777778,wmoUnit:degC,65,23,16093.44,wmoUnit:m,FA,A,Flood Advisory,Minor,Expected,2025-06-12T08:00:00-05:00
Eastland,32.32739258,-98.8325713,20.555555555555557,wmoUnit:degC,93,58,9656.064,wmoUnit:m,,,,,,
Comanche,31.9490639,-98.55841538,21.666666666666668,wmoUnit:degC,90,66,9656.064,wmoUnit:m,FA,A,Flood Watch,Severe,Future,2025-06-12T19:00:00-05:00
King,33.61641863,-100.2558584,22.22222222222222,wmoUnit:degC,87,8,16093.44,wmoUnit:m,,,,,,
Washington,30.2145299,-96.40356575,24.444444444444443,wmoUnit:degC,87,0,12166.640547912531,wmoUnit:m,FA,A,Flood Watch,Severe,Future,2025-06-12T06:00:00-05:00
Webb,27.76102524,-99.33170164,32.77777777777778,wmoUnit:degC,48,27,16093.44,wmoUnit:m,,,,,,
Fayette,29.87683207,-96.91968047,27.77777777777778,wmoUnit:degC,75,25,16093.44,wmoUnit:m,FA,A,Flood Watch,Severe,Future,2025-06-12T10:15:00-05:00
Harrison,32.54814898,-94.37155736,20.555555555555557,wmoUnit:degC,100,55,11265.408,wmoUnit:m,FA,A,Flood Warning,Severe,Expected,2025-06-12T20:45:00-05:00
Presidio,29.99977786,-104.2405552,30.555555555555557,wmoUnit:degC,20,0,16093.44,wmoUnit:m,,,,,,
Austin,29.88711223,-96.27791829,25.0,wmoUnit:degC,88,0,11748.211506958067,wmoUnit:m,FA,A,Flood Watch,Severe,Future,2025-06-12T06:00:00-05:00
Randall,34.96594288,-101.8968527,21.666666666666668,wmoUnit:degC,79,0,,,,,,,,
Hood,32.43107878,-97.83280338,21.666666666666668,wmoUnit:degC,97,65,9656.064,wmoUnit:m,FA,A,Flood Watch,Severe,Future,2025-06-12T19:00:00-05:00
Victoria,28.79640594,-96.97176602,29.444444444444443,wmoUnit:degC,73,27,16029.066301391646,wmoUnit:m,,,Special Weather Statement,Moderate,Expected,2025-06-12T05:15:00-05:00
Hutchinson,35.84000866,-101.3547257,21.666666666666668,wmoUnit:degC,73,0,,,,,,,,
Coryell,31.39087578,-97.7991883,23.333333333333332,wmoUnit:degC,93,77,9656.064,wmoUnit:m,FA,A,Flood Watch,Severe,Future,2025-06-12T19:00:00-05:00
Jackson,28.95603133,-96.57883268,27.22222222222222,wmoUnit:degC,91,0,15497.982904174776,wmoUnit:m,FA,A,Flash Flood Warning,Severe,Immediate,2025-06-12T06:30:00-05:00
Taylor,32.30138229,-99.89003941,20.555555555555557,wmoUnit:degC,87,8,9656.064,wmoUnit:m,,,,,,
Zapata,27.00089072,-99.16860134,27.77777777777778,wmoUnit:degC,78,8,,,,,,,,
San Patricio,28.00922186,-97.51859857,30.0,wmoUnit:degC,73,17,16077.34619165045,wmoUnit:m,,,,,,
Grimes,30.54360689,-95.98557334,23.88888888888889,wmoUnit:degC,97,0,15047.367013915973,wmoUnit:m,FA,A,Flood Watch,Severe,Future,2025-06-12T06:00:00-05:00
Lamb,34.06861242,-102.3517095,20.0,wmoUnit:degC,70,1,16093.44,wmoUnit:m,,,,,,
